CAND_ID|CAND_NAME|CAND_PTY_AFFILIATION|CAND_ELECTION_YEAR|CAND_ELECTION_STATE|CAND_ELECTION_TYPE|CAND_INCUMBENT_STATUS|CAND_PCC|CAND_LAT|CAND_LONG|CAND_ZIP|CAND_CITY|CAND_STATE
H0AK00063|MILES, DAE|DEM|2004|AK|H|C||64.8607398|-147.5316743|99709|FAIRBANKS|AK
H0AL05049|"CRAMER, ROBERT EDWARD ""BUD"" JR"|DEM|2004|AL|H|I|C00239038|34.720885333333335|-86.56898125|35804|HUNTSVILLE|AL
H0AL07060|DAVIS, ARTUR GENESTRE|DEM|2004|AL|H|I|C00347872|33.52148017567568|-86.87121170270271|35201|BIRMINGHAM|AL
H0AR02073|MARTIN, ROD D|REP|2000|AR|H|C|C00351312|34.757797833333335|-92.34247691666667|72207|LITTLE ROCK|AR
H0AR04038|ROSS, MICHAEL A|DEM|2004|AR|H|I|C00345710|33.806886|-93.36595|71857|PRESCOTT|AR
H0AR04046|HARRIS, BRUCE C|DEM|2000|AR|H|C|C00346874|34.20609675|-92.01493975|71603|PINE BLUFF|AR
H0AR04053|GRAHAM, CECIL DEWAYNE|DEM|2000|AR|H|C|C00348508|34.532516|-93.048397|71913|HOT SPRINGS|AR
H0AS00018|FALEOMAVAEGA, ENI|DEM|2004|AS|H|I|C00231092|38.89531540217391|-77.01958254710144|20026|Washington|DC
H0AZ01184|FLAKE, JEFF MR.|REP|2004|AZ|H|I|C00347260|33.38321239999999|-111.85587515|85205|Mesa|AZ
H0AZ01218|LIDDY, THOMAS PURCELL|REP|2000|AZ|H|O|C00349381|33.281833875000004|-111.904332375|85226|CHANDLER|AZ
H0AZ03222|HARTSTONE, ROGER D|DEM|2004|AZ|H|O|C00367813|35.485079999999996|-111.8656702|86002|FLAGSTAFF|AZ
H0AZ03248|SCHARER, GENE PAUL|DEM|2004|AZ|H|O|C00396507|33.49021461538462|-112.19915230769229|85302|GLENDALE|AZ
H0AZ03263|CALVERT, LINDA JOYCE|DEM|2002|AZ|H|O|C00356105|33.49021461538462|-112.19915230769229|85308|GLENDALE|AZ
H0AZ05037|RYAN, MARY JUDGE|DEM|2002|AZ|H|C|C00343723|32.15193782692308|-111.18440194230767|85710|TUCSON|AZ
H0CA01106|WIESNER, LAWRENCE R|REP|2004|CA|H|C|C00368100|38.44940955555556|-122.73874188888888|95404|SANTA ROSA|CA
H0CA01114|HITT, KENNETH ALLAN|REP|2000|CA|H|C|C00348995|38.257712999999995|-122.0694635|94585|FAIRFIELD|CA
H0CA01130|ELIZONDO, PAMELA|GRE|2004|CA|H|C||39.745588|-123.5223|95454|LAYTONVILLE|CA
H0CA07087|"MRAOVICH, NICHOLAS (""NICK"")"|REP|2000|CA|H|C|C00352245|37.8959565|-121.985046875|94521|CONCORD|CA
H0CA10057|KILIAN, DENNIS M|REP|2000|CA|H|C|C00350405|37.856683|-122.02488|94507|ALAMO|CA
H0CA11022|LANTOS, TOM|DEM|2004|CA|H|I|C00112250|37.44574133333333|-122.34432333333332|94011|Burlingame|CA
H0CA14042|DOOLITTLE, JOHN T REP|REP|2004|CA|H|I|C00242768|38.654803|-121.26529|95661|FAIR OAKS|CA
H0CA15031|CONDIT, GARY A|DEM|2002|CA|H|C|C00247544|37.584282|-120.95064|95307|CERES|CA
H0CA15114|PEACOCK, WILLIAM E|DEM|2000|CA|H|O|C00347278|37.374421|-122.213||PORTOLA VALLEY|CA
H0CA15148|HONDA, MIKE|DEM|2004|CA|H|I|C00351379|37.24389375806454|-121.78056964516126|95113|San Jose|CA
H0CA17045|DOOLEY, CALVIN M|DEM|2004|CA|H|I|C00236711|36.75393231666668|-119.67922220000001|93709|Fresno|CA
H0CA17078|ENGLER, CLINT|REP|2002|CA|H|C|C00372425|36.561719875|-121.45315925000001|93906|SALINAS|CA
H0CA18043|WILSON, STEVEN R|REP|2000|CA|H|C|C00354357|37.6421951|-120.97390659999999|95354|MODESTO|CA
H0CA19090|ROSENBERG, DANIEL J|DEM|2000|CA|H|C|C00350686|37.232047|-119.52006|93643|NORTH FORK|CA
H0CA20064|RODRIGUEZ, RICH|REP|2000|CA|H|C|C00353524|36.75393231666668|-119.67922220000001|93711|FRESNO|CA
H0CA23043|KALEMKARIAN, TIMOTHY CHARLES|REP|2004|CA|H|C|C00401844|33.987485666666664|-118.763014|91359|WESTLAKE VILLAGE|CA
H0CA23050|CASE, MICHAEL W|DEM|2000|CA|H|C|C00348466|34.401466|-119.30082|93022|OAK VIEW|CA
H0CA24082|DOYLE, JERRY|REP|2000|CA|H|C|C00351833|33.9600535|-118.481651|91302|CALABASAS|CA
H0CA27085|SCHIFF, ADAM|DEM|2004|CA|H|I|C00343871|33.94396584158416|-118.29928288118809|90017|Los Angeles|CA
H0CA28083|WEISSBUCH, RANDALL G.|LIB|2004|CA|H|C||34.0130485|-118.390451|91006|NORTH HILLS|CA
H0CA31087|SOLIS, HILDA|DEM|2004|CA|H|I|C00346296|33.930122250000004|-118.16264349999999|91731|El Monte|CA
H0CA32085|EVANS, MERVIN LEON|DEM|2004|CA|H|C|C00390385|33.94396584158416|-118.29928288118809|90071|LOS ANGELES|CA
H0CA32093|HENTSCHEL, NOEL IRWIN|REP|2001|CA|H|O|C00365049|33.94396584158416|-118.29928288118809|90077|LOS ANGELES|CA
H0CA37118|VAN, VERNON|REP|2004|CA|H|C|C00399899|33.79097913793104|-118.20857620689657|90803|LONG BEACH|CA
H0CA38066|SCHIPSKE, GERRIE|DEM|2002|CA|H|C|C00348136|33.79097913793104|-118.20857620689657|90815|LONG BEACH|CA
H0CA38074|SIMPSON, ROBERT M|DEM|2000|CA|H|C|C00349530|33.94396584158416|-118.29928288118809|90071|LOS ANGELES|CA
H0CA38082|GRUWELL, ERIN|DEM|2001|CA|H|C|C00366971|33.79097913793104|-118.20857620689657|90853|LONG BEACH|CA
H0CA39072|GANN, KEITH D.|LIB|2004|CA|H|C||33.65485133333333|-117.86437733333332|92627|COSTA MESA|CA
H0CA41110|FAVILA, RODOLFO GOMEZ|DEM|2000|CA|H|C|C00351163|34.3701802|-116.96610639999999|91762|ONTARIO|CA
H0CA42076|MORRELL, MICHAEL LAWRENCE|REP|2000|CA|H|C|C00342444|34.139753999999996|-117.58543499999999|91701|ALTA LOMA|CA
H0CA42092|BROWN, MARTA MACIAS|DEM|1999|CA|H|C|C00347765|34.53086955|-116.53620565000001|92404|SAN BERNARDINO|CA
H0CA42118|ESHLEMAN, DAVID R|DEM|1999|CA|H|C|C00348094|34.275253500000005|-117.08959024999999|92337|FONTANA|CA
H0CA43066|COLLEN, MARTIN|REP|2002|CA|H|C|C00351122|33.84355464705882|-116.68860723529411|92507|Riverside|CA
H0CA44080|GORDON, JON|DEM|2000|CA|H|C|C00345165|33.788903749999996|-116.4134535|92263|PALM SPRINGS|CA
H0CA44122|BARKER, JOHN CHARLES|REP|2004|CA|H|C|C00396457|33.647287|-115.65742900000001|92270|RANCHO MIRAGE|CA
H0CA45012|CUNNINGHAM, RANDY|REP|2004|CA|H|I|C00242446|38.89531540217391|-77.01958254710144|20515|WASHINGTON|DC
H0CA45038|CRISELL, TED|DEM|2000|CA|H|C|C00349175|33.677587499999994|-117.92697400000002|92647|HUNTINGTON BEACH|CA
H0CA46010|TUCHMAN, GLORIA MATTA|REP|2000|CA|H|C|C00346866|33.696992|-117.82648636363638|92705|SANTA ANA|CA
H0CA47034|GRAHAM, JOHN L|DEM|2004|CA|H|C|C00404889|33.675686642857144|-117.78497864285714|92612|IRVINE|CA
H0CA48024|ISSA, DARRELL E|REP|2004|CA|H|I|C00350520|33.136608|-117.10179866666665|92085|VISTA|CA
H0CA48032|MORROW, BILL|REP|2006|CA|H|O|C00383885|33.100922142857144|-117.04654057142857|92056|OCEANSIDE|CA
H0CA48040|DORNAN, MARK DOUGLAS|REP|2000|CA|H|O|C00352146|33.555323|-117.564|92693|SAN JUAN CAPISTRAN|CA
H0CA49030|SANDERS, WADE ROWLAND|DEM|2004|CA|H|C|C00344101|32.89411814814816|-116.99533772839506|92104|SAN DIEGO|CA
H0CA49055|DAVIS, SUSAN|DEM|2004|CA|H|I|C00344671|32.89411814814816|-116.99533772839506|92116|San Diego|CA
H0CA52018|BENOIT, MICHAEL|LIB|2004|CA|H|C||32.931869|-116.91793799999999|92071|SANTEE|CA
H0CO02092|KENNEDY, MICHAEL PAUL|REP|2004|CO|H|C|C00357046|40.062142875|-105.33811643749999|80308|BOULDER|CO
H0CO02126|HUME, SANDY|REP|2002|CO|H|C|C00358341|40.062142875|-105.33811643749999|80305|BOULDER|CO
H0CO03058|GOOD, VICTOR|REF|2000|CO|H|C|C00379321|37.534825|-108.65188|81327|LEWIS|CO
H0CT01027|RAPOPORT, MILES S|DEM|1998|CT|H|C|C00330357|41.75275|-72.7546|06107|WEST HARTFORD|CT
H0CT01050|BACKLUND, ROBERT|REP|2000|CT|H|C|C00348250|41.660899|-72.56887|06073|S GLASTONBURY|CT
H0CT02017|GEJDENSON, SAM|DEM|2000|CT|H|C|C00111633|41.543559|-72.17684|06334|BOZRAH|CT
H0CT02124|SIMMONS, ROBERT R|REP|2004|CT|H|I|C00343921|41.351307|-71.91317|06378|Stonington|CT
H0CT03072|DELAURO, ROSA|DEM|2004|CT|H|I|C00238865|41.348277384615386|-72.92185780769232|06511|New Haven|CT
H0CT04104|SANCHEZ, STEPHANIE HUNTER|DEM|2002|CT|H|C|C00359372|41.18111821052631|-73.45532831578949|06905|STAMFORD|CT
H0CT05085|FRANKS, GARY A|REP|1996|CT|H|C|C00303313|41.4373680625|-72.967961875|06723|WATERBURY|CT
H0DC00058|NORTON, ELEANOR HOLMES|DEM|2004|DC|H|I|C00244335|38.89531540217391|-77.01958254710144|20003|WASHINGTON|DC
H0DE00068|MILLER, MICHEAL CARLTON SR|DEM|2002|DE|H|C|C00353391|38.746207|-75.16282|19958|LEWES|DE
H0FL00015|COUTU, MARK STEVEN|DEM|2004|FL|H|C|C00404798|30.489898999999998|-87.01003333333334|32563|GULF BREEZE|FL
H0FL01054|CONDON, BOB|REP|2001|FL|H|O|C00358168|30.54065413157895|-87.27113260526316|32501|PENSACOLA|FL
H0FL02052|FREDERICK, THOMAS A JR|W|2004|FL|H|C||30.46455347058824|-84.30047100000002|32308|TALLAHASSEE|FL
H0FL03035|CARROLL, JENNIFER SANDRA|REP|2002|FL|H|C|C00346056|30.30522279245282|-81.65284611320754|32216|JACKSONVILLE|FL
H0FL04033|PUESCHEL, DEBORAH KATZ|REP|2004|FL|H|C|C00346767|30.30522279245282|-81.65284611320754|32256|JACKSONVILLE|FL
H0FL04041|SANDERS, KEVIN SCHAUN|DEM|2000|FL|H|O|C00346817|30.30522279245282|-81.65284611320754|32217|JACKSONVILLE|FL
H0FL04066|CRENSHAW, ANDER|REP|2004|FL|H|I|C00352849|30.30522279245282|-81.65284611320754|32210|JACKSONVILLE|FL
H0FL04074|QUIGGLE, DAN|REP|2000|FL|H|O|C00353441|30.0638035|-81.4013665|32082|PONTE VEDRA BEACH|FL
H0FL05089|KING, JAMES HENRY|REP|2000|FL|H|C|C00350587|29.178171|-83.02243|32625|CEDAR KEY|FL
H0FL07036|VAUGHEN, DANIEL RICHARD|DEM|2002|FL|H|C|C00353185|29.019609000000003|-81.30410366666666|32721|DELAND|FL
H0FL08042|KELLER, RICHARD ANTHONY|REP|2004|FL|H|I|C00345090|28.520516629032265|-81.28818522580643|32802|ORLANDO|FL
H0FL08067|HERING, ROBERT (BOB) NELSON JR|REP|2000|FL|H|O|C00347047|28.520516629032265|-81.28818522580643|32835|ORLANDO|FL
H0FL10022|HEINE, RANDY|NNE|2000|FL|H|C|C00357681|27.864512|-82.71571766666666|33780|PINELLAS PARK|FL
H0FL12010|SHAW, E CLAY JR|REP|2004|FL|H|I|C00117119|26.13405180434782|-80.27614473913044|33303|FORT LAUDERDALE|FL
H0FL12051|PUTNAM, ADAM H|REP|2004|FL|H|I|C00364117|27.9252085|-81.8890265|33831|Bartow|FL
H0FL13075|SALZBERG, ROBERT BARRY|DEM|2000|FL|H|C|C00356451|27.301105|-82.487153|34236|SARASOTA|FL
H0FL16011|BROWN, JEAN ELLIOTT|DEM|2000|FL|H|C|C00343418|26.877984|-80.16052|33418|PALM BEACH GARDENS|FL
H0FL18025|ROS-LEHTINEN, ILEANA|REP|2004|FL|H|I|C00280537|25.69783154166667|-80.34412848958333|33152|MIAMI|FL
H0FL23025|LAURIE, CHARLES LOUIS III|REP|2002|FL|H|C|C00381269|26.13405180434782|-80.27614473913044|33309|FORT LAUDERDALE|FL
H0GA01029|GRIGGS, JOYCE MARIE|DEM|2000|GA|H|C|C00359901|32.00549926086958|-81.08729143478263|31408|SAVANNAH|GA
H0GA01037|SMART, DON|DEM|2002|GA|H|C|C00358036|32.00549926086958|-81.08729143478263|31412|SAVANNAH|GA
H0GA03058|BORCIK, CHRISTOPHER DAVID|IND|2000|GA|H|C|C00360990|33.440110000000004|-84.469695|30215|FAYETTEVILLE|GA
H0GA04023|LINDER, JOHN|REP|2004|GA|H|I|C00255976|33.98126285714285|-84.0996522857143|30097|DULUTH|GA
H0GA07059|BEVERLY, ALFRED WILEY|REP|2004|GA|H|O|C00399741|33.94348485714285|-84.53430707142857|30062|MARIETTA|GA
H0GA07083|KAHN, ROGER F|DEM|2002|GA|H|O|C00344556|34.346142|-84.73232|30171|RYDAL|GA
H0GA08032|MARSHALL, JIM|DEM|2004|GA|H|I|C00347716|32.81715886956521|-83.67255700000001|31201|Macon|GA
H0HI01058|MATSUNAGA, MATTHEW MASAO|DEM|2003|HI|H|C|C00383562|23.99200566666667|-165.5305597777778|96816|HONOLULU|HI
H0HI01116|GABBARD, MIKE|REP|2004|HI|H|C|C00398560|21.3949|-157.74529|96734|KAILUA|HI
H0HI01132|MEYERS, PHILIP L|REP|2000|HI|H|C|C00360909|23.99200566666667|-165.5305597777778|96822|HONOLULU|HI
H0HI02072|DONOVAN, JAMES M|REP|2000|HI|H|C|C00354522|20.040191|-155.69999|96743|KAMUELA|HI
H0HI02080|FRANCIS, RUSSELL ROSS|REP|2000|HI|H|C|C00356980|21.3949|-157.74529|96734|KAILUA|HI
H0IA01059|SIMPSON, BOB|DEM|2000|IA|H|C|C00358069|41.6400535|-91.5654025|52240|IOWA CITY|IA
H0IA02040|NUSSLE, JIM|REP|2004|IA|H|I|C00238378|42.484297|-91.45231|52057|Manchester|IA
H0IA04053|HUSTON, MICHAEL L|DEM|2000|IA|H|C|C00353599|41.65428011864408|-93.58401089830507|50312|DES MOINES|IA
H0IA04087|MCCOY, MATT|DEM|2002|IA|H|O|C00366245|41.65428011864408|-93.58401089830507|50320|DES MOINES|IA
H0ID01139|OTTER, C.L. BUTCH|REP|2004|ID|H|I|C00345967|43.697658|-116.49155|83669|STAR|ID
H0IL01087|OBAMA, BARACK H|DEM|2000|IL|H|C|C00347583|41.85168971764706|-87.67981902352942|60615|CHICAGO|IL
H0IL01111|WARDINGLEY, RAYMOND G|REP|2004|IL|H|C||41.85168971764706|-87.67981902352942|60643|CHICAGO|IL
H0IL07084|DALLAS, ROBERT|DEM|2004|IL|H|C||41.86685025|-87.7651075|60302|OAK PARK|IL
H0IL08041|PRESSL, LANCE P|DEM|2000|IL|H|C|C00350306|42.07506|-88.02508|60008|ROLLING MEADOWS|IL
H0IL10120|KIRK, MARK STEVEN|REP|2004|IL|H|I|C00350785|42.181875|-87.80956|60035|Highland Park|IL
H0IL10237|GASH, LAUREN BETH|DEM|2000|IL|H|O|C00350413|42.181875|-87.80956|60035|HIGHLAND PARK|IL
H0IL15053|JOHNSON, TIM|REP|2004|IL|H|I|C00350421|40.112408333333335|-88.20453966666666|61803|Urbana|IL
H0IL15061|BRADY, WILLIAM E|REP|2000|IL|H|O|C00350496|40.526638375|-88.87731012500001|61704|BLOOMINGTON|IL
H0IL16085|MANZULLO, DONALD A|REP|2004|IL|H|I|C00252973|42.28805378571429|-89.09699892857142|61126|Rockford|IL
H0IL16150|HIPPIE, MARTIN VINCENT|IND|2000|IL|H|C|C00358473|42.298773|-90.17778|61028|ELIZABETH|IL
H0IN02133|ROCK, ROBERT W|DEM|2000|IN|H|O|C00350777|40.114892375|-85.680977875|46016|ANDERSON|IN
H0IN02141|GYURE, RONALD ALAN|DEM|2000|IN|H|O|C00350892|40.197930142857146|-85.403734|47304|MUNCIE|IN
H0IN03065|ROEMER, TIM|DEM|2002|IN|H|C|C00237479|41.658448549999996|-86.26316614999999|46617|SOUTH BEND|IN
H0IN04030|HELMKE, PAUL|REP|2002|IN|H|C|C00374736|41.088135795454555|-85.09969911363638|46807|FORT WAYNE|IN
H0IN06084|GRIESEY, DARIN PATRICK|DEM|2000|IN|H|C|C00356147|39.797402600000005|-86.1365729|46230|INDIANAPOLIS|IN
H0IN07074|KERNS, BRIAN|REP|2002|IN|H|C|C00353011|39.452883500000006|-87.39651033333332|47802|TERRE HAUTE|IN
H0IN08080|HAMILTON, JOHN MARK|DEM|2000|IN|H|C|C00347336|39.16472519999999|-86.5195193|47401|BLOOMINGTON|IN
H0IN09039|TERRY, LENDALL B|DEM|2004|IN|H|C|C00124172|39.1548|-85.30949|47037|OSGOOD|IN
H0IN09054|KELLEMS, KEVIN S|REP|2000|IN|H|C|C00345843|38.974841|-85.98335733333333|47250|MADISON|IN
H0IN10078|SAMUEL, ANTHONY A|REP|2000|IN|H|C|C00349605|39.797402600000005|-86.1365729|46254|INDIANAPOLIS|IN
H0IN10094|MCVEY, BROSE A|REP|2002|IN|H|C|C00365999|39.797402600000005|-86.1365729|46220|INDIANAPOLIS|IN
H0KS01081|WARNER, JACK|LIB|2004|KS|H|C||37.805301|-99.88021|67882|WRIGHT|KS
H0KS02097|HAWVER, IRA DENNIS|LIB|2004|KS|H|C|C00358002|39.201834|-95.44963|66070|OZAWKIE|KS
H0KS03053|COLYER, JEFFREY|REP|2002|KS|H|C|C00346858|38.924739|-94.70473|66210|OVERLAND PARK|KS
H0KS03061|MUSIL, GREGORY LYNNE|REP|2000|KS|H|C|C00348086|38.899634|-94.70758|66213|OVERLAND PARK|KS
H0KS03079|KLINE, PHILL D|REP|2000|KS|H|C|C00348169|39.020405|-94.70583|66203|SHAWNEE|KS
H0KS04036|NOLLA, CARLOS J|DEM|2002|KS|H|C|C00353847|37.682063225|-97.361390075|67226|WICHITA|KS
H0KY03119|JORDAN, ELEANOR|DEM|2000|KY|H|C|C00344358|38.20007860606061|-85.68525571212122|40211|LOUISVILLE|KY
H0KY04059|THONEY, ROGER NEIL|REP|2002|KY|H|C|C00354365|39.019185|-84.44204|41076|HIGHLAND HEIGHTS|KY
H0KY05015|ROGERS, HAROLD D|REP|2004|KY|H|I|C00116632|37.09371599999999|-84.520033|42501|SOMERSET|KY
H0LA01053|MONICA, MONICA L MD PHD|REP|2002|LA|H|C|C00381558|29.812622499999993|-90.12510250000001|70005|METAIRIE|LA
H0LA01079|VITTER, DAVID B|REP|2004|LA|H|I|C00342410|29.812622499999993|-90.12510250000001|70005|METAIRIE|LA
H0LA01087|SCALISE, STEPHEN J|REP|2004|LA|H|O|C00394957|29.960375|-90.156143|70121|JEFFERSON|LA
H0LA01095|DUKE, DAVID ERNEST|REP|1999|LA|H|O|C00343640|30.3923575|-90.025144|70471|MANDEVILLE|LA
H0LA02044|MORIAL, MARC H|DEM|1999|LA|H|C|C00244079|29.992950545454548|-89.96252163636365|70119|NEW ORLEANS|LA
H0LA02119|JEFFERSON, WILLIAM MR|DEM|2004|LA|H|I|C00251348|29.992950545454548|-89.96252163636365|70115|NEW ORLEANS|LA
H0LA03018|TAUZIN, WILBERT J II|REP|2004|LA|H|I|C00119040|29.686582333333334|-90.71261733333334|70301|THIBODAUX|LA
H0LA08017|HOLLOWAY, CLYDE C|REP|2002|LA|H|O|C00369165|31.050239|-92.52474|71430|FOREST HILL|LA
H0MA01024|ABAIR, PETER JON|REP|2000|MA|H|C|C00353375|42.186311|-72.614521|01040|HOLYOKE|MA
H0MA04036|FRANK, BARNEY|DEM|2004|MA|H|I|C00128868|42.40347920000001|-71.35779670000001|02466|NEWTON|MA
H0MA05041|LAPLANTE, MARC LEO|REP|2000|MA|H|C|C00358945|42.68626625|-71.09209575|01841|LAWRENCE|MA
H0MD01018|DEARMON, DONALD M|DEM|2002|MD|H|C|C00350264|39.42729666666667|-77.40794799999999|21701|FREDERICK|MD
H0MD01042|COLBURN, RICHARD FRANKLIN|REP|2004|MD|H|C|C00385617|38.768194|-76.129183|21601|EASTON|MD
H0MD01075|KREAMER, BARBARA OSBORN|DEM|1990|MD|H|C|C00239343|39.508177|-76.18066|21001|ABERDEEN|MD
H0MD02057|BENTLEY, HELEN DELICH|REP|2002|MD|H|O|C00377978|39.435789|-76.63614|21093|LUTHERVILLE|MD
H0MD08021|MORELLA, CONSTANCE A|REP|2002|MD|H|C|C00198614|38.89531540217391|-77.01958254710144|20515|WASHINGTON|DC
H0ME02034|CAMPBELL, RICHARD H|REP|2002|ME|H|O|C00371724|44.721393|-68.78905|04474|ORRINGTON|ME
H0MI00023|BYRUM, DIANNE YVONNE|DEM|2000|MI|H|C|C00344606|42.443387|-84.56022|49264|ONONDAGA|MI
H0MI02086|GRAESER, RONALD E.|UST|2004|MI|H|C||43.509626999999995|-85.875467|49412|FREMONT|MI
H0MI08042|ROGERS, MICHAEL J|REP|2004|MI|H|I|C00343863|42.537786499999996|-83.767215|48116|Brighton|MI
H0MI10071|CAMP, DAVID LEE|REP|2004|MI|H|I|C00347476|43.62015171428571|-84.300764|48642|Midland|MI
H0MI10113|CROPSEY, ALAN LEE|REP|1990|MI|H|C|C00241471|42.842438|-84.58612|48820|DEWITT|MI
H0MI10188|AMERICA, ANTHONY|NLP|2004|MI|H|C||42.9015345|-82.55462|48060|PORT HURON|MI
H0MI14149|HERTEL, DENNIS M|DEM|1992|MI|H|C|C00130096|42.438186|-82.9283|48225|HARPER WOODS|MI
H0MN00013|RAMSTAD, JAMES M|REP|2004|MN|H|I|C00244129|44.915413|-93.48443|55305|MINNETONKA|MN
H0MN02035|KENNEDY, MARK RAYMOND|REP|2004|MN|H|I|C00384032|44.955136|-93.84467|55388|WATERTOWN|MN
H0MN04031|COLEMAN, CHRISTOPHER BRIEN|DEM|2000|MN|H|O|C00354498|44.928315|-93.08876|55107|ST PAUL|MN
H0MN04049|MCCOLLUM, BETTY|DEM|2004|MN|H|I|C00354688|44.964815|-93.19581|55114|ST PAUL|MN
H0MN04056|ROSENTHAL, MARY FOSTER|DFL|2000|MN|H|O|C00355008|44.935315|-93.12049|55102|ST PAUL|MN
H0MN04072|NOVAK, STEVEN G (STEVE)|DEM|2000|MN|H|O|C00355321|45.076365|-93.19335|55112|NEW BRIGHTON|MN
H0MN04098|HARTNETT, CATHIE|DFL|2000|MN|H|O|C00356766|44.964852|-93.08397|55101|ST PAUL|MN
H0MN04106|FOLEY, THOMAS JAMES|IND|2000|MN|H|O|C00360461|44.964852|-93.08397|55101|ST PAUL|MN
H0MN07034|MENZE, GLEN R|REP|2000|MN|H|C|C00355537|45.578335|-95.55201|56381|STARBUCK|MN
H0MN08081|LEMEN, ROBERT N BOB|REP|2002|MN|H|C|C00360172|47.139542|-93.78961600000001|55744|GRAND RAPIDS|MN
H0MO00019|CARNAHAN, JOHN RUSSELL|DEM|2004|MO|H|O|C00386276|38.610701|-90.21362|63104|ST LOUIS|MO
H0MO01066|CLAY, WILLIAM LACY JR|DEM|2004|MO|H|I|C00346080|38.645484|-90.32888|63105|ST LOUIS|MO
H0MO01074|DOOLEY, CHARLIE A|DEM|2000|MO|H|O|C00347831|38.706301|-90.29609|63121|NORTHWOODS|MO
H0MO02106|FLOTRON, FRANCIS E|REP|2000|MO|H|O|C00343178|38.64410733333333|-90.532616|63017|CHESTERFIELD|MO
H0MO02130|MCNARY, GENE|REP|2000|MO|H|O|C00343319|38.645484|-90.32888|63105|CLAYTON|MO
H0MO02148|AKIN, WILLIAM TODD|REP|2004|MO|H|I|C00343475|38.662302|-90.45363|63141|ST LOUIS|MO
H0MO02163|COOPER, BARBARA J|REP|2000|MO|H|O|C00344176|38.576253|-90.53117|63021|MANCHESTER|MO
H0MO04078|NOLAND, JIM|REP|2004|MO|H|O|C00362087|37.93345|-93.17887|65732|PRESTON|MO
H0MO05083|LINDSEY, CHARLES|DEM|2002|MO|H|C|C00356600|39.095393654320986|-94.49784748148147|64110|KANSAS CITY|MO
H0MO06073|GRAVES, SAMUEL B  (SAM)|REP|2004|MO|H|I|C00359034|40.452497|-95.3661|64491|TARKIO|MO
H0MO06081|DANNER, STEVE|DEM|2000|MO|H|O|C00358648|39.389339|-94.56774|64089|SMITHVILLE|MO
H0MO07097|LAPHAM, RON|DEM|2002|MO|H|C|C00379339|37.616822|-93.40072|65613|BOLIVAR|MO
H0MO08020|WEBER, GEORGE D|DEM|2004|MO|H|C|C00119230|38.494203|-90.61304|63025|EUREKA|MO
H0MO09085|CARROLL, STEVEN R|DEM|2002|MO|H|C|C00357244|39.695798|-91.40084|63401|HANNIBAL|MO
H0MS04088|YOSTE, GEOFFREY|REP|2000|MS|H|C|C00354431|32.30845729411766|-90.2704443235294|39216|JACKSON|MS
H0MT00017|KEENAN, NANCY ANN|DEM|2000|MT|H|O|C00345736|46.765360875|-112.098012125|59601|HELENA|MT
H0MT00033|REHBERG, DENNIS R|REP|2004|MT|H|I|C00349431|45.91143657142858|-108.31023785714287|59106|BILLINGS|MT
H0NC01036|WILEY, ALBERT LEE JR|REP|2004|NC|H|O|C00353920|34.689821|-76.89242|27406|SALTER PATH|NC
H0NC11068|NEILL, SAM|DEM|2002|NC|H|C|C00353243|35.32219666666666|-82.47775433333332|28739|Hendersonville|NC
H0NC12033|COSGROVE, JOHN THOMAS|REP|2004|NC|H|O|C00387498|36.027101|-80.39312|27012|CLEMMONS|NC
H0ND00101|DORSO, JOHN|REP|2000|ND|H|C|C00349464|46.91068671428572|-97.09320092857145|58107|FARGO|ND
H0NE01039|JACOBSEN, ALAN|DEM|2000|NE|H|C|C00357475|40.739508|-96.84873|68339|DENTON|NE
H0NE02102|KIEL, SHELLEY|DEM|2000|NE|H|C|C00349142|41.27046787755102|-96.0905979591837|68132|OMAHA|NE
H0NE02128|GRAZIANO, JACK|LIB|2004|NE|H|O||41.27046787755102|-96.0905979591837|68154|OMAHA|NE
H0NE03035|BARRETT, WILLIAM E (BILL)|REP|1998|NE|H|C|C00237982|40.786048|-99.7424|68850|LEXINGTON|NE
H0NE03159|OSBORNE, THOMAS WILLIAM|REP|2004|NE|H|I|C00353979|40.904049666666666|-98.40683|68803|GRAND ISLAND|NE
H0NH01100|ZELIFF, WILLIAM H JR|REP|1996|NH|H|C|C00279935|44.166268|-71.18089|03846|JACKSON|NH
H0NH01175|CLARK, MARTHA FULLER|DEM|2002|NH|H|O|C00358788|43.0044378|-71.0327208|03801|PORTSMOUTH|NH
H0NH01183|BEVILL, ROBERT TILLMAN|REP|2004|NH|H|O|C00377630|42.858053|-71.51216|03054|MERRIMACK|NH
H0NH02017|BASS, CHARLES F|REP|2004|NH|H|I|C00302570|42.884919|-71.95133|03458|Peterborough|NH
H0NH02132|BRANNEN, BARNEY L III|DEM|2000|NH|H|C|C00347732|43.8256195|-72.136003|03768|LYME|NH
H0NH02140|JACKMAN, NORMAN H|DEM|2002|NH|H|C|C00359026|44.051981|-71.6606|03251|LINCOLN|NH
H0NJ01066|ANDREWS, ROBERT E|DEM|2004|NJ|H|I|C00243428|39.87913|-75.06599|08035|HADDON HEIGHTS|NJ
H0NJ01124|CATHCART, CHARLENE|REP|2000|NJ|H|C|C00363143|39.892213|-75.07212|08106|AUDUBON|NJ
H0NJ02098|ROZZO, COSTANTINO|SOC|2004|NJ|H|C|C00358846|39.409370333333335|-75.00549366666667|08360|VINELAND|NJ
H0NJ05083|MERCURIO, LINDA A|DEM|2000|NJ|H|C|C00357707|40.97514|-74.02725|07630|EMERSON|NJ
H0NJ07089|KEAN, THOMAS H JR|REP|2000|NJ|H|O|C00351742|40.591653|-74.31341|07067|COLONIA|NJ
H0NJ07097|MORRISEY, PATRICK J|REP|2000|NJ|H|O|C00351882|40.6574265|-74.32268099999999|07090|WESTFIELD|NJ
H0NJ07121|LAPOLLA, MICHAEL J|DEM|2000|NJ|H|O|C00352856|40.6574265|-74.32268099999999|07091|WESTFIELD|NJ
H0NJ08095|FORTUNATO, JOSEPH A.|GRE|2004|NJ|H|C|C00408278|40.844199|-74.20218|07043|UPPER MONTCLAIR|NJ
H0NJ10026|PAYNE, DONALD M|DEM|2004|NJ|H|I|C00225045|40.76504404166666|-74.22013475|07112|Newark|NJ
H0NJ10117|FLASH, ROCKY|REP|2000|NJ|H|C|C00354597|40.633953|-74.25339|07036|LINDEN|NJ
H0NM01114|PERLS, ROBERT A|DEM|2000|NM|H|C|C00343822|35.229614|-106.62141|87048|CORRALES|NM
H0NM01122|BREGMAN, SAM|DEM|2000|NM|H|C|C00352716|35.07455360000001|-106.63356884444445|87122|ALBUQUERQUE|NM
H0NM01130|KELLY, JOHN J|DEM|2000|NM|H|C|C00352732|35.07455360000001|-106.63356884444445|87106|ALBUQUERQUE|NM
H0NM02039|SKEEN, JOSEPH RICHARD|REP|2000|NM|H|C|C00136374|33.378525|-104.50890249999999|88202|ROSWELL|NM
H0NM02179|MONTOYA, MICHAEL A|DEM|2000|NM|H|C|C00352633|34.786133|-106.70536|87031|LOS LUNAS|NM
H0NM03029|LUTZ, LISA L|REP|2000|NM|H|C|C00355412|35.210105666666664|-106.67754766666667|87174|RIO RANCHO|NM
H0NV00054|JAMES, MARK||2000|NV|H|C||36.06223526153846|-115.10904812307692|89103|LAS VEGAS|NV
H0NV01078|PORTER, JON C SR|REP|2004|NV|H|I|C00367367|36.06223526153846|-115.10904812307692|89126|Las Vegas|NV
H0NY00030|WINTERS, GARY THOMAS|NNE|2000|NY|H|C|C00358077|42.21462625|-79.34033275|14702|JAMESTOWN|NY
H0NY01095|GRUCCI, FELIX J JR|REP|2004|NY|H|C|C00352690|40.770898|-73.00213|11772|E PATCHOGUE|NY
H0NY02077|BISHOP, DAVID A|DEM|2000|NY|H|O|C00356675|40.719249|-73.35829|11704|W BABYLON|NY
H0NY02085|ISRAEL, STEVE|DEM|2004|NY|H|I|C00358952|40.867498|-73.41146|11743|HUNTINGTON|NY
H0NY02093|JOHNSON, JOAN B|REP|2000|NY|H|O|C00359158|40.784874|-73.19924|11722|CENTRAL ISLIP|NY
H0NY02143|BOYLE, PHILIP M|REP|2002|NY|H|C|C00361071|40.734212|-73.21416|11751|ISLIP|NY
H0NY07027|MCCAFFREY, WALTER L|DEM|2000|NY|H|C|C00355560|40.742869|-73.90377|11377|WOODSIDE|NY
H0NY11045|CLARKE, UNA S|DEM|2000|NY|H|C|C00343848|40.65091198076924|-73.95300596153847|11225|BROOKLYN|NY
H0NY11052|CLEARY, SUSAN W|REP|2000|NY|H|C|C00361477|40.65091198076924|-73.95300596153847|11226|BROOKLYN|NY
H0NY13058|JOHNSTONE, KATINA M|DEM|2000|NY|H|C|C00357830|40.60787|-74.08991|10304|STATEN IS|NY
H0NY18065|SERRANO, JOSE E|DEM|2004|NY|H|I|C00240986|40.84928938461538|-73.87575261538461|10451|BRONX|NY
H0NY18081|BRAWLEY, KEVIN|CRV|2004|NY|H|C||40.84928938461538|-73.87575261538461|10461|BRONX|NY
H0NY22067|MCCALLION, KENNETH F|DEM|2000|NY|H|C|C00358424|42.086628|-73.6642|12502|ANCRAM|NY
H0NY23040|ENGLEBRECHT, RICHARD|DEM|2000|NY|H|C|C00348391|42.8737335|-75.52156099999999|13402|MADISON|NY
H0NY25037|HAWKINS, HOWIE|OTH|2004|NY|H|C||43.045532892857146|-76.16642753571429|13205|SYRACUSE|NY
H0OH01065|STEVENSON, RICHARD L|UNK|2004|OH|H|C||39.16559364383562|-84.49549378082193|45204|CINCINNATI|OH
H0OH07021|HOBSON, DAVID LEE|REP|2004|OH|H|I|C00239905|39.92746366666667|-83.810553|45502|SPRINGFIELD|OH
H0OH07070|MITCHEL, JOHN|REP|2004|OH|H|C|C00359273|39.674192|-84.11029|45440|BEAVERCREEK|OH
H0OH08029|BOEHNER, JOHN A|REP|2004|OH|H|I|C00237198|39.3923565|-84.48911799999999|45069|WEST CHESTER|OH
H0OH08078|PARKS, JOHN GORDON|DEM|2000|OH|H|C|C00347450|39.498751|-84.7407|45056|OXFORD|OH
H0OH11056|TURNER, JOEL CARL|LIB|2000|OH|H|C|C00352070|41.472881|-81.52209|44122|SHAKER HEIGHTS|OH
H0OH12054|O'SHAUGHNESSY, MARYELLEN|DEM|2002|OH|H|O|C00347757|39.98950240816327|-82.9981626734694|43215|COLUMBUS|OH
H0OH12062|TIBERI, PATRICK JOSEPH|REP|2004|OH|H|I|C00347492|39.98950240816327|-82.9981626734694|43229|COLUMBUS|OH
H0OH12070|HARMON, PHILLIP L|IND|2000|OH|H|O|C00349308|40.07568966666667|-82.94674300000001|43081|WESTERVILLE|OH
H0OH15057|GARCIA, IGNACIO J|DEM|2004|OH|H|C|C00343954|39.98950240816327|-82.9981626734694|43220|COLUMBUS|OH
H0OH17103|WALTER, RANDY D|UNK|2000|OH|H|C|C00355115|41.029666|-80.76396|44406|CANFIELD|OH
H0OK01063|KRYMSKI, JOHN|IND|2004|OK|H|C||36.13242035087719|-95.97262915789474|74145|TULSA|OK
H0OK02053|CARSON, BRAD|DEM|2004|OK|H|I|C00343616|36.335361|-95.608942|74018|CLAREMORE|OK
H0OK02087|MONEY, STEVE|REP|2000|OK|H|O|C00344762|35.74128866666667|-95.35031199999999|74402|MUSKOGEE|OK
H0OK02129|TROUTT, ERIC DEAN|REP|2000|OK|H|O|C00354746|36.008078499999996|-96.10654099999999|74066|SAPULPA|OK
H0OK02137|MAVIS, NEIL JAMES|IND|2002|OK|H|O|C00369017|36.13242035087719|-95.97262915789474|74104|TULSA|OK
H0OK04091|ODOM, JAMES WILLIAM|REP|2000|OK|H|C|C00354225|34.6210904|-98.4344164|73506|LAWTON|OK
H0OK04117|WEATHERFORD, LARRY PAUL|DEM|2000|OK|H|C|C00358044|35.551409|-97.407537|73153|MOORE|OK
H0OR03083|POLLOCK, JEFFERY L|REP|2000|OR|H|C|C00347898|45.52874850793652|-122.5663985079365|97294|PORTLAND|OR
H0OR03091|SWEENEY, JOHN|DEM|2004|OR|H|C|C00401364|45.52874850793652|-122.5663985079365|97214|PORTLAND|OR
H0OR04016|NEWKIRK, JOHN D|REP|1998|OR|H|C|C00263814|42.323997000000006|-122.857455|97501|MEDFORD|OR
H0OR05021|BOQUIST, BRIAN J|REP|2004|OR|H|C|C00370635|44.920815|-123.33432|97338|DALLAS|OR
H0PA01218|FOGLIETTA, THOMAS M|DEM|1996|PA|H|C|C00237941|39.99641823809524|-75.13775460714287|19106|PHILADELPHIA|PA
H0PA03180|MCCOLGAN, JOSEPH MARC|REP|2004|PA|H|O|C00388090|39.99641823809524|-75.13775460714287|19154|PHILADELPHIA|PA
H0PA04147|MANGINO, MATTHEW T|DEM|2000|PA|H|O|C00346072|40.99503416666667|-80.33014966666667|16101|NEW CASTLE|PA
H0PA04154|HART, MELISSA|REP|2004|PA|H|I|C00346114|40.617016|-80.05916|15090|WEXFORD|PA
H0PA04170|HART, ROYAL DEAN|DEM|2000|PA|H|O|C00349944|40.603966|-80.28776|15001|ALIQUIPPA|PA
H0PA04204|MACHEK, JACK|DEM|2002|PA|H|O|C00352260|40.325902|-79.71324|15642|NORTH HUNTINGDON|PA
H0PA04212|BELLISSIMO, JOSEPH S JR|DEM|2000|PA|H|O|C00353623|40.857663|-80.27534|16117|ELLWOOD CITY|PA
H0PA05052|MARTIN, THOMAS A.|LIB|2004|PA|H|C||40.896662|-77.91555|16844|JULIAN|PA
H0PA07066|LENNON, PETER A|DEM|2000|PA|H|C|C00354167|39.974378|-75.36083|19008|BROOMALL|PA
H0PA11050|KANJORSKI, PAUL E|DEM|2004|PA|H|I|C00180505|41.197908|-76.00325|18634|Nanticoke|PA
H0PA14039|COYNE, WILLIAM J|DEM|2002|PA|H|C|C00119701|40.443269|-79.95487|15213|PITTSBURG|PA
H0PA15085|O'BRIEN, EDWARD J|DEM|2002|PA|H|C|C00351718|40.61434644444445|-75.51798822222223|18103|Allentown|PA
H0PA19053|PLATTS, TODD R|REP|2004|PA|H|I|C00343376|39.965134375|-76.685146625|17403|YORK|PA
H0PA19129|PAOLETTA, MICHAEL L.|LIB|2004|PA|H|C||40.232741000000004|-77.000283|17055|MECHANICSBURG|PA
H0PR00051|HERNANDEZ-MAYORAL, JOSE A|DEM|2000|PR|H|C|C00344390|18.416992810810818|-66.06193945945944|00901|SAN JUAN|PR
H0PR00077|MORA, EDWIN IRIZARRY|NPP|2004|PR|H|C||18.210885666666666|-67.26296599999999|00681|MAYAGUEZ|PR
H0RI01040|RAPOSA, GREGORY|IND|2004|RI|H|C||41.6842|-71.26866|02809|BRISTOL|RI
H0RI02097|DRIVER, RODNEY D|REP|2002|RI|H|O|C00354951|41.50155|-71.58465|02892|WEST KINGSTON|RI
H0RI02139|LANGEVIN, JAMES R CONGRESSMAN|DEM|2004|RI|H|I|C00344697|41.710699250000005|-71.4524605|02888|WARWICK|RI
H0RI02147|COYNE-MCCOY, KATHLEEN|DEM|2000|RI|H|O|C00345330|41.83902|-71.6257|02857|N SCITUATE|RI
H0RI02196|HAYES, DORMAN J JR|IND|2004|RI|H|C||41.482509|-71.548965|02852|NORTH KINGSTOWN|RI
H0SC01071|BROWN, HENRY E JR.|REP|2004|SC|H|I|C00341529|32.88893433333333|-80.04458666666666|29419|North Charleston|SC
H0SC01147|THOMPSON, CHARLES E|REP|2000|SC|H|O|C00356170|32.857942421052634|-79.92915105263158|29412|CHARLESTON|SC
H0SC01170|BATCHELDER, BOB|REP|2004|SC|H|C||33.694757|-78.999862|29588|MYRTLE B EACH|SC
H0SC03036|BRIGHTHARP, GEORGE L|DEM|2002|SC|H|O|C00378273|33.548745000000004|-81.83793033333335|29861|NORTH AUGUSTA|SC
H0SD01045|SANDVEN, STEVEN DANIEL|DEM|2000|SD|H|C|C00358101|45.667565|-97.04528|57262|AGENCY VILLAGE|SD
H0TN02017|DUNAWAY, DAVID H|DEM|2004|TN|H|C|C00342691|36.388766|-84.08164|37766|LAFOLLETTE|TN
H0TX04037|HALL, RALPH MOODY|REP|2004|TX|H|I|C00120683|32.9004615|-96.447875|75087|ROCKWALL|TX
H0TX05059|COGGINS, REGINA MONTOYA|DEM|2000|TX|H|C|C00345421|32.785762754098364|-96.78275256557379|75214|DALLAS|TX
H0TX05067|BERNSTEIN, WILLIAM H|DEM|2004|TX|H|C|C00394247|32.785762754098364|-96.78275256557379|75228|DALLAS|TX
H0TX07030|BREWER, JOHN MARK|REP|2000|TX|H|O|C00342725|29.799726263736265|-95.41993828571431|77024|HOUSTON|TX
H0TX07055|CULBERSON, JOHN|REP|2004|TX|H|I|C00343236|29.799726263736265|-95.41993828571431|77095|Houston|TX
H0TX09077|STOCKMAN, STEVE|REP|1996|TX|H|C|C00270330|29.539581|-95.13467|77598|WEBSTER|TX
H0TX09093|WILLIAMS, PAUL|REP|2002|TX|H|C|C00374181|29.541285|-95.02996|77565|KEMAH|TX
H0TX11024|SHINE, HUGH D|REP|2004|TX|H|O|C00386441|31.067633|-97.39560333333334|76502|TEMPLE|TX
H0TX11065|FARLEY, RAMSEY W|REP|2004|TX|H|O|C00348565|31.067633|-97.39560333333334|76501|TEMPLE|TX
H0TX11073|GEER, RODNEY|REP|2000|TX|H|C|C00352492|31.073329|-97.48642|76513|BELTON|TX
H0TX11081|CURNOCK, ROBERT JOHN|REP|2002|TX|H|C|C00374496|31.552818000000002|-97.16431858823529|76710|WACO|TX
H0TX13046|CLINESMITH, CURTIS E|DEM|2000|TX|H|C|C00350769|33.21197066666667|-97.11996844444445|76201|DENTON|TX
H0TX18094|SPENCER, BEVERLY A|DEM|2004|TX|H|O|C00239442|29.83399|-95.434241|77411|ALIEF|TX
H0TX23045|GARZA, ISIDRO JR|DEM|2000|TX|H|C|C00348078|28.697624|-100.4794765|78852|EAGLE PASS|TX
H0TX24035|DAVIS, DANIEL LEE|REP|2002|TX|H|C|C00371443|32.98837833333334|-96.90507083333334|75007|CARROLLTON|TX
H0TX25024|REISER, THOMAS A|REP|2002|TX|H|O|C00342360|29.799726263736265|-95.41993828571431|77005|HOUSTON|TX
H0TX25032|SUDAN, PHIL|REP|2002|TX|H|O|C00347708|29.799726263736265|-95.41993828571431|77005|Houston|TX
H0TX25040|MESSINA, CLIFFORD LEE|LIB|2004|TX|H|O||29.799726263736265|-95.41993828571431|77034|HOUSTON|TX
H0TX27012|AHUMADA, PATRICIA M|REP|2002|TX|H|C|C00352096|25.997191200000003|-97.5401784|78521|BROWNSVILLE|TX
H0TX29026|VU, JOE|REP|2000|TX|H|C|C00354886|29.799726263736265|-95.41993828571431|77017|HOUSTON|TX
H0UT01015|HANSEN, JAMES V|REP|2000|UT|H|C|C00171348|40.988347|-111.88847|84025|FARMINGTON|UT
H0UT01056|COLLINWOOD, KATHLEEN MCCONKIE|DEM|2000|UT|H|C|C00357038|40.919929499999995|-111.994237|84010|BOUNTIFUL|UT
H0UT02096|MATHESON, JIM MR.|DEM|2004|UT|H|I|C00344721|40.70252124590164|-111.89052680327868|84108|Salt Lake City|UT
H0UT02138|SMITH, DEREK W|REP|2004|UT|H|C|C00356055|40.70252124590164|-111.89052680327868|84101|SALT LAKE CITY|UT
H0UT03078|ORTON, WILLIAM H|DEM|1996|UT|H|C|C00244194|41.314075|-111.96366|84414|NORTH OGDEN|UT
H0VA01045|JOST, PAUL C|REP|2000|VA|H|O|C00353987|37.2901705|-76.73053975|23185|WILLIAMSBURG|VA
H0VA01052|DAVIS, JO ANN S.|REP|2004|VA|H|I|C00354001|37.194292000000004|-76.49424|23692|Yorktown|VA
H0VA01110|SHORT, PHILIP GRANVILLE|REP|2000|VA|H|O|C00356246|38.207275|-77.64378|22553|SPOTSYLVANIA|VA
H0VA01144|CUNNINGHAM, ROBERT L|REP|2000|VA|H|O|C00357327|37.732696|-76.51554|22503|LANCASTER|VA
H0VA02035|SCHROCK, EDWARD LEE|REP|2004|VA|H|I|C00351288|36.81764222727272|-76.07293118181816|23455|VIRGINIA BEACH|VA
H0VA05020|BOYD, JOHN|DEM|2000|VA|H|C|C00357871|36.733874|-78.17287|23915|SOUTH HILL|VA
H0VA07042|CANTOR, ERIC|REP|2004|VA|H|I|C00355461|37.626365|-77.49297766666668|23059|Glen Allen|VA
H0VA07059|MARTIN, STEPHEN HOLLIDAY|REP|2000|VA|H|O|C00355578|37.53787187272727|-77.48557634545455|23236|RICHMOND|VA
H0VA08040|MORAN, JAMES P JR.|DEM|2004|VA|H|I|C00241349|38.87518503125|-77.09935687500001|22101|ARLINGTON|VA
H0VA08073|CRICKENBERGER, RON|IND|2002|VA|H|C|C00357442|38.868151714285716|-77.18873671428572|22042|FALLS CHURCH|VA
H0VA11036|"CORRIGAN, MICHAEL L ""MIKE"""|DEM|2000|VA|H|C|C00358929|38.88557085714286|-77.31352857142858|20190|RESTON|VA
H0WA02080|LARSEN, RICHARD RAY|DEM|2004|WA|H|I|C00345546|47.94525214285714|-122.13757657142858|98205|EVERETT|WA
H0WA02106|MORRIS, JEFF|DEM|2000|WA|H|O|C00346999|48.518653|-122.16545|98284|SEDRO WOOLLEY|WA
H0WA03104|MATSON, TRENT|REP|2002|WA|H|C|C00366286|47.01764236363636|-122.82289081818182|98512|OLYMPIA|WA
H0WA05042|BROKAW, WAYNE|DEM|2000|WA|H|C|C00351072|47.466974|-117.60575|99004|CHENEY|WA
H0WI05089|STAMPLEY,NATHANIEL J|DEM|2002|WI|H|C|C00365601|43.04538821276595|-87.90733217021277|53225|MILWAUKEE|WI
H0WI06061|PETRI, TOM|REP|2004|WI|H|I|C00107003|43.760881499999996|-88.46419175|54935|FOND DU LAC|WI
H0WV02096|HUMPHREYS, JAMES F|DEM|2002|WV|H|C|C00344515|38.321258106382984|-81.57999429787233|25301|CHARLESTON|WV
H0WV02112|WALKER, MARTHA YEAGER|DEM|2000|WV|H|O|C00345769|38.321258106382984|-81.57999429787233|25314|CHARLESTON|WV
H0WV02120|AMORES, JON|DEM|2000|WV|H|O|C00346338|38.321258106382984|-81.57999429787233|25301|CHARLESTON|WV
H0WV02138|CAPITO, SHELLEY MOORE|REP|2004|WV|H|I|C00347849|38.321258106382984|-81.57999429787233|25314|CHARLESTON|WV
H0WY00103|STOCK, LEWIS|LIB|2004|WY|H|C||42.935874|-105.37303|82633|DOUGLAS|WY
H2AL00012|LIPSCOMB, ALBERT|REP|2002|AL|H|O|C00376392|30.427641|-87.796011|36555|MAGNOLIA SPRINGS|AL
H2AL01051|YOUNG, TOM|REP|2002|AL|H|O|C00374249|30.67357146511628|-88.1529814883721|36633|MOBILE|AL
H2AL01069|WHETSTONE, JOHN DAVID|REP|2002|AL|H|O|C00375139|30.263800500000002|-87.678883|36542|GULF SHORES|AL
H2AL01077|BONNER, JOSIAH ROBINS JR.|REP|2004|AL|H|I|C00375220|30.646415|-88.23657|36695|Mobil|AL
H2AL01085|PRINGLE, CHRIS|REP|2002|AL|H|C|C00375477|30.67357146511628|-88.1529814883721|36606|MOBILE|AL
H2AL01093|GLOVER, BENJAMIN N RUSTY III|REP|2002|AL|H|O|C00375485|30.76635|-88.26553|36575|SEMMES|AL
H2AL01101|GORDON, JAMES OLIVER|DEM|2002|AL|H|O|C00376418|30.676814999999998|-87.91847|36527|SPANISH FORT|AL
H2AL01119|BELK, JUDY MCCAIN|DEM|2004|AL|H|C|C00375840|31.0753|-88.2633|36522|CITRONELLE|AL
H2AL01127|CHAMBERLAIN, DONALD|DEM|2002|AL|H|O|C00376285|30.620594|-87.88312|36526|DAPHNE|AL
H2AL01135|JORDAN, JOE BUZZ|DEM|2002|AL|H|O|C00376459|30.67357146511628|-88.1529814883721|36609|MOBILE|AL
H2AL01150|FOSTER, J. DON|DEM|2002|AL|H|O|C00376897|30.67357146511628|-88.1529814883721|36608|MOBILE|AL
H2AL02067|EVERETT, TERRY|REP|2004|AL|H|I|C00265298|31.191197199999998|-85.3992864|36302|Dothan|AL
H2AL03032|ROGERS, MICHAEL|REP|2004|AL|H|I|C00367862|33.693883142857146|-85.81986085714287|36201|Anniston|AL
H2AL03040|GHEE, MARSHALL DOUGLAS|DEM|2002|AL|H|O|C00371096|33.693883142857146|-85.81986085714287|36202|ANNISTON|AL
H2AL03057|DIAL, JASON|REP|2002|AL|H|O|C00374728|33.693883142857146|-85.81986085714287|36207|ANNISTON|AL
H2AL03065|FINK, JEFFREY JOHN|REP|2002|AL|H|O|C00375188|33.693883142857146|-85.81986085714287|36207|ANNISTON|AL
H2AL03073|BURNETT, WILLIE|DEM|2002|AL|H|O|C00378612|33.693883142857146|-85.81986085714287|36201|ANNISTON|AL
H2AL05060|ENGEL, STEPHEN P.|REP|2004|AL|H|C|C00373894|34.80681975|-87.00417225000001|35613|Athens|AL
H2AL05078|WILLIAMS, MICHAEL L.|DEM|2004|AL|H|C|C00375501|34.624533|-86.47069|35763|OWENS CROSS ROADS|AL
H2AL06035|BACHUS, SPENCER T.|REP|2004|AL|H|I|C00260547|33.52148017567568|-86.87121170270271|35213|BIRMINGHAM|AL
H2AL07041|HILLIARD, EARL F|DEM|2002|AL|H|C|C00262816|33.52148017567568|-86.87121170270271|35214|BIRMINGHAM|AL
H2AL07140|WIGGINS, SAMUEL III|DEM|2002|AL|H|C|C00376426|33.52148017567568|-86.87121170270271|35215|BIRMINGHAM|AL
H2AR01022|LINCOLN, BLANCHE LAMBERT|DEM|1996|AR|H|C|C00255463|34.757797833333335|-92.34247691666667|72203|LITTLE ROCK|AR
H2AR01048|ROBINSON, TOMMY|REP|2002|AR|H|C|C00375972|34.867846|-91.19271|72021|BRINKLEY|AR
H2AR02038|BAKER, JIM|DEM|2002|AR|H|C|C00374637|35.090174000000005|-92.39706650000001|72032|CONWAY|AR
H2AR02046|GARNER, ED|REP|2004|AR|H|C|C00394478|34.757797833333335|-92.34247691666667|72221|LITTLE ROCK|AR
H2AR03143|HENDREN, JAMES PAUL|REP|2001|AR|H|O|C00366567|36.484548|-94.46911|72768|SULPHUR SPRINGS|AR
H2AR03150|HATHORN, MICHAEL CARL|DEM|2001|AR|H|O|C00366674|36.1161|-93.68605|72740|HUNTSVILLE|AR
H2AR03168|CARSON, JO ELLEN|DEM|2002|AR|H|O|C00367391|35.263636230769244|-94.31083338461538|72901|FORT SMITH|AR
H2AR03176|BOOZMAN, JOHN NICHOLS|REP|2004|AR|H|I|C00367979|36.340277333333326|-94.111093|72758|ROGERS|AR
H2AR03192|DELAY, ROBERT GUNNER|REP|2001|AR|H|O|C00368845|35.263636230769244|-94.31083338461538|72901|FORT SMITH|AR
H2AR03200|CATES, C BRAD|REP|2001|AR|H|O|C00368423|35.896307|-94.19661|72774|WEST FORK|AR
H2AR04067|DICKEY, JAY W JR|REP|2002|AR|H|C|C00267997|34.20609675|-92.01493975|71611|PINE BLUFF|AR
H2AR04075|STEARNS, DAVID E|REP|2002|AR|H|C|C00377093|34.038226|-94.33597|71832|DEQUEEN|AR
H2AS00048|LANGKILDE, FAGAFAGA DANIEL|DEM|2002|AS|H|C|C00382085|-7.209975|-170.7716|96799|PAGO PAGO|AS
H2AZ00034|OLIVAS, MIGUEL A|REP|2002|AZ|H|O|C00367300|32.597198|-110.60293||SAN MANUEL|AZ
H2AZ00059|PRESCOTT, DIANE|DEM|2004|AZ|H|O|C00388207|34.718836|-111.90168|86325|CORNVILLE|AZ
H2AZ00067|BRAUN, ALAN|DEM|2002|AZ|H|C|C00373670|33.406690705128206|-112.12873824358972|85011|PHOENIX|AZ
H2AZ01149|HAY, SYDNEY|REP|2002|AZ|H|O|C00369892|34.9372|-111.62931|86017|MUNDS PARK|AZ
H2AZ01156|MARTINEZ, SAM C|DEM|2002|AZ|H|O|C00370304|35.485079999999996|-111.8656702|86001|FLAGSTAFF|AZ
H2AZ01164|STAFFORD, DAVID|REP|2002|AZ|H|O|C00370981|33.4782445|-110.784745|85502|GLOBE|AZ
H2AZ01172|RENZI, RICHARD GEORGE|REP|2004|AZ|H|I|C00370874|35.485079999999996|-111.8656702|86004|FLAGSTAFF|AZ
H2AZ01180|WHITING, RICHARD BRUCE|REP|2002|AZ|H|O|C00371369|34.2505175|-111.28456|85541|PAYSON|AZ
H2AZ01198|UDALL, STEPHEN G|DEM|2002|AZ|H|O|C00371468|34.558663|-109.40254|85936|ST JOHNS|AZ
H2AZ01206|WATCHMAN, DERRICK B|DEM|2002|AZ|H|O|C00371864|35.672842|-109.06495|86515|WINDOW ROCK|AZ
H2AZ01214|TENNEY, LEWIS NOBLE|REP|2002|AZ|H|O|C00372177|34.563994|-110.55929|85928|HEBER|AZ
H2AZ01222|EVERETT, ALAN|REP|2002|AZ|H|O|C00373019|34.809930200000004|-111.8936964|86339|SEDONA|AZ
H2AZ01230|DUVAL, FRED|DEM|2002|AZ|H|O|C00373944|35.485079999999996|-111.8656702|86002|FLAGSTAFF|AZ
H2AZ01255|FERNANDEZ, ANDY|LIB|2002|AZ|H|O|C00379313|35.485079999999996|-111.8656702|86004|FLAGSTAFF|AZ
H2AZ02014|KOLBE, JIM|REP|2004|AZ|H|I|C00144857|32.15193782692308|-111.18440194230767|85751|TUCSON|AZ
H2AZ02055|PASTOR, EDWARD L|DEM|2004|AZ|H|I|C00251918|33.406690705128206|-112.12873824358972|85013|PHOENIX|AZ
H2AZ02170|SCARMARDO, SALVATORE LUKE (SAM)|REP|2002|AZ|H|O|C00373597|34.77643175|-114.1459305|86404|LAKE HAVASU CITY|AZ
H2AZ02188|ATKINS, LISA ANN|REP|2002|AZ|H|O|C00378588|33.50835|-112.40523|85340|LITCHFIELD PARK|AZ
H2AZ02196|BUNDGAARD, SCOTT|REP|2002|AZ|H|O|C00377770|33.529445|-112.22594400000001|85385|PEORIA|AZ
H2AZ02212|KEEGAN, JOHN CHARLES|REP|2002|AZ|H|O|C00379099|33.529445|-112.22594400000001|85381|PEORIA|AZ
H2AZ02220|CAMACHO, RANDY ROBERT|DEM|2004|AZ|H|C|C00380832|33.430922|-112.38482|85338|GOODYEAR|AZ
H2AZ02246|CRUM, WILLIAM|UNK|2004|AZ|H|C||33.453368499999996|-112.29023499999998|85374|SURPRISE|AZ
H2AZ03053|FARLEY, ELIZABETH M|DEM|2002|AZ|H|O|C00368977|33.529445|-112.22594400000001|85382|PEORIA|AZ
H2AZ03079|JOVICIC, DUSKO|REP|2002|AZ|H|O|C00374678|33.406690705128206|-112.12873824358972|85018|PHOENIX|AZ
H2AZ04093|BARNERT, JONATHAN|REP|2002|AZ|H|C|C00382341|33.406690705128206|-112.12873824358972|85067|PHOENIX|AZ
H2AZ04101|KARG, DON|REP|2004|AZ|H|C||33.406690705128206|-112.12873824358972|85019|PHOENIX|AZ
H2AZ05090|KING, LAWRENCE C|DEM|2002|AZ|H|C|C00373985|33.5084924375|-111.962746125|85271|SCOTTSDALE|AZ
H2AZ05108|COLUMBUS, CRAIG|DEM|2002|AZ|H|C|C00373852|33.5084924375|-111.962746125|85259|SCOTTSDALE|AZ
H2AZ05116|MAYNARD, RONALD E.|DEM|2004|AZ|H|C||33.281833875000004|-111.904332375|85226|CHANDLER|AZ
H2AZ06106|THOMAS, DEBORAH|DEM|2002|AZ|H|C|C00372912|33.281833875000004|-111.904332375|85246|CHANDLER|AZ
H2AZ07013|HIEB, ROSS JOSEPH|REP|2002|AZ|H|O|C00370510|32.6841618|-114.45761259999999|85365|YUMA|AZ
H2AZ07021|ROMO, JESUS|DEM|2002|AZ|H|O|C00371278|32.15193782692308|-111.18440194230767|85701|TUCSON|AZ
H2AZ07039|RICHARDSON, ELAINE|DEM|2002|AZ|H|O|C00371831|32.15193782692308|-111.18440194230767|85705|TUCSON|AZ
H2AZ07054|FLEISHER, MARK|DEM|2002|AZ|H|O|C00373993|32.15193782692308|-111.18440194230767|85701|TUCSON|AZ
H2AZ07062|GUTIERREZ, JAIME P|DEM|2002|AZ|H|O|C00373613|32.15193782692308|-111.18440194230767|85745|TUCSON|AZ
H2AZ07070|GRIJALVA, RAUL M|DEM|2004|AZ|H|I|C00374058|32.15193782692308|-111.18440194230767|85702|TUCSON|AZ
H2AZ07088|PINA, ALBERT R|REP|2002|AZ|H|O|C00374744|32.15193782692308|-111.18440194230767|85719|TUCSON|AZ
H2AZ07104|SMITH, SHERRY LYNN|DEM|2002|AZ|H|O|C00377473|32.654701|-114.40884|85367|YYMA|AZ
H2AZ07112|LUSTIG, LORI JEANNE|REP|2002|AZ|H|O|C00376962|32.417144|-110.96354|85737|ORO VALLEY|AZ
H2AZ07120|QUINT, RICHARD|DEM|2002|AZ|H|O|C00379032|32.15193782692308|-111.18440194230767|85718|TUCSON|AZ
H2AZ08011|CORDOVA, GEORGE ADAM|DEM|2002|AZ|H|O|C00369371|35.485079999999996|-111.8656702|86002|FLAGSTAFF|AZ
H2CA00088|SINGH, SUKHMANDER|DEM|2002|CA|H|C|C00372672|37.571246200000004|-121.9727576|94539|FREMONT|CA
H2CA01045|WOOLSEY, LYNN C|DEM|2004|CA|H|I|C00260265|38.35729383333333|-122.82139533333333|94952|PETALUMA|CA
H2CA01102|BASTIAN, KEVIN|LIB|2002|CA|H|C|C00371179|40.788475|-124.13094666666666|95501|EUREKA|CA
H2CA02076|JOHNSON, MICHAEL DAVID|DEM|2004|CA|H|C|C00379578|39.753492|-121.7665425|95973|CHICO|CA
H2CA03074|DAWA, ROBERT|DEM|2002|CA|H|C|C00370338|38.401637|-121.41391633333335|95758|ELK GROVE|CA
H2CA04072|KIRBY, WILLIAM WARNER|IND|2004|CA|H|O|C00370866|38.997576333333335|-120.90238733333335|95603|AUBURN|CA
H2CA05061|FRANKHUIZEN, RICHARD|REP|2004|CA|H|C|C00371492|38.524769000000006|-121.3011295|95630|FOLSOM|CA
H2CA06101|NATION, JOE|DEM|2006|CA|H|C|C00384198|38.028693833333335|-122.60435966666665|94901|San Rafael|CA
H2CA06234|ERICKSON, PAUL L|REP|2004|CA|H|C|C00372995|38.44940955555556|-122.73874188888888|95403|SANTA ROSA|CA
H2CA07091|HARGRAVE, CHARLES R.|REP|2004|CA|H|C||37.972623|-122.33873|94806|SAN PABLO|CA
H2CA08081|MCCONNELL, PAUL GREGORY|DEM|2002|CA|H|C|C00371922|37.77660142253521|-122.6107330704225|94133|SAN FRANCISCO|CA
H2CA09055|BOCK, AUDIE ELIZABETH|DEM|2002|CA|H|C|C00370239|37.680181|-121.921498|94611|PIEDMONT|CA
H2CA09063|GREENE, KEVIN ARTHUR|DEM|2002|CA|H|C|C00370742|37.678531|-122.13199|94580|SAN LORENZO|CA
H2CA09097|EYER, JAMES M.|LIB|2004|CA|H|C||37.755087999999986|-122.12827513793107|94602|OAKLAND|CA
H2CA10137|NEIL, DAVE|REP|2002|CA|H|C|C00379131|37.714179|-121.92567|94568|DUBLIN|CA
H2CA11051|POMBO, RICHARD|REP|2004|CA|H|I|C00261370|37.780668666666664|-121.37499766666667|95377|TRACY|CA
H2CA11119|BENIGNO, THOMAS ANTHONY|IND|2004|CA|H|C|C00396606|37.714179|-121.92567|94568|DUBLIN|CA
H2CA11127|SHAW, ELAINE|DEM|2002|CA|H|C|C00370973|37.807869999999994|-121.94924499999999|94526|DANVILLE|CA
H2CA12158|ABU-GHAZALAH, MAAD H H|DEM|2004|CA|H|C|C00374264|37.497474999999994|-122.4085575|94044|PACIFICA|CA
H2CA13065|MAHMOOD, SYED R|REP|2002|CA|H|C|C00374629|37.592184|-122.04577|94587|UNION CITY|CA
H2CA13073|STROBERG, MARK W.|LIB|2004|CA|H|C||37.704761999999995|-122.14641|94578|SAN LEANDRO|CA
H2CA14105|GRASSIA, THOMAS J|REP|2002|CA|H|C|C00365304|37.290779166666674|-121.89282016666665|94040|MOUNTAIN VIEW|CA
H2CA14113|NIXON, JOSEPH H|REP|2002|CA|H|C|C00370734|36.988762666666666|-122.02187933333333|95060|SANTA CRUZ|CA
H2CA15060|MOELLER, SCOTT R|REP|2002|CA|H|C|C00367193|37.20479875|-121.90769674999999|95030|LOS GATOS|CA
H2CA16076|HERMANN, LINDA RAE|REP|2002|CA|H|C|C00366369|37.24389375806454|-121.78056964516126|95133|SAN JOSE|CA
H2CA16084|MCNEA, DOUGLAS ADAMS|REP|2002|CA|H|C|C00378679|37.24389375806454|-121.78056964516126|95123|SAN JOSE|CA
H2CA17025|MCCAMPBELL, BILL|REP|1998|CA|H|C|C00258178|36.475269499999996|-121.51536025|93940|MONTEREY|CA
H2CA17066|VELAZQUEZ, IGNACIO|REP|2002|CA|H|C|C00369793|36.8583365|-121.3959845|95023|HOLLISTER|CA
H2CA17074|GLOCK-GRUENEICH, RAY|GRE|2004|CA|H|C||37.007916|-121.95072|95073|SOQUEL|CA
H2CA18056|CARDOZA, DENNIS|DEM|2004|CA|H|I|C00383794|38.430597276190475|-121.44452857142855|95814|Sacramento|CA
H2CA18064|CICCARELLI, TOM|DEM|2002|CA|H|C|C00370437|37.797806|-121.00179|95320|ESCALON|CA
H2CA18106|HOUSE, GEORGE|REP|2002|CA|H|C|C00372417|37.59471|-120.86419|95326|HUGHSON|CA
H2CA18114|CRIPE, KEVIN H|AIP|2002|CA|H|C|C00373860|37.6421951|-120.97390659999999|95355|MODESTO|CA
H2CA19054|RADANOVICH, GEORGE|REP|2004|CA|H|I|C00326975|36.75393231666668|-119.67922220000001|93711|FRESNO|CA
H2CA20052|SALAZAR, JERALD CLINTON|REP|2002|CA|H|C|C00367839|36.75393231666668|-119.67922220000001|93722|FRESNO|CA
H2CA20060|MINUTH, ANDRE NICOLAI|REP|2002|CA|H|C|C00370528|36.75393231666668|-119.67922220000001|93726|FRESNO|CA
H2CA20078|MARTIN, RICK|REP|2002|CA|H|C|C00372482|36.201595|-119.81151799999999|93230|HANFORD|CA
H2CA21100|PATTERSON, NORWOOD JAMES JR|REP|2002|CA|H|O|C00369413|36.75393231666668|-119.67922220000001|93711|FRESNO|CA
H2CA21118|LAPERE, DAVID G.|DEM|2002|CA|H|O|C00375311|36.0441235|-119.0116075|93257|PORTERVILLE|CA
H2CA21126|INGLES, GREGORY D|REP|2002|CA|H|O|C00372342|36.3082346|-119.1683074|93291|VISALIA|CA
H2CA21142|WRIGHT, THOMAS C|REP|2002|CA|H|O|C00373241|36.3082346|-119.1683074|93277|VISALIA|CA
H2CA22116|REGAN, DONALD ERNEST|REP|2004|CA|H|C|C00366484|35.233999499999996|-120.5374325|93433|GROVER BEACH|CA
H2CA22124|CORVERA, JAIME A|DEM|2002|CA|H|C|C00373035|35.652713|-120.6748|93446|PASO ROBLES|CA
H2CA23080|ROGERS, BETH|REP|2002|CA|H|C|C00370247|34.127125142857146|-119.16309057142857|93033|OXNARD|CA
H2CA25028|WYMAN, PHILLIP D|REP|1992|CA|H|C|C00257915|35.213539|-118.7064915|93581|TEHACHAPI|CA
H2CA25036|MCKEON, HOWARD P|REP|2004|CA|H|I|C00258244|34.125415833333335|-118.34070050000001|91321|SANTA CLARITA|CA
H2CA26026|BERMAN, HOWARD L|DEM|2004|CA|H|I|C00147686|33.8939026|-118.3411961333333|91411|Van Nuys|CA
H2CA27016|LEVINE, MEL|DEM|1994|CA|H|C|C00275040|33.904162916666664|-118.39307408333332|90402|SANTA MONICA|CA
H2CA27107|HARMAN, JANE|DEM|2004|CA|H|I|C00255141|33.811667799999995|-118.31364399999998|90507|Torrance|CA
H2CA27180|LEVY, ROBERT M|REP|2004|CA|H|C|C00398149|33.9921655|-118.473316|91307|WEST HILLS|CA
H2CA28097|HERNANDEZ, DAVID RAYMOND JR|REP|2004|CA|H|C|C00372953|34.208142|-118.4011|91605|NO HOLLYWOOD|CA
H2CA28105|ROSS, KELLEY L.|LIB|2004|CA|H|C||33.96983225|-118.373376|91401|SHERMAN OAKS|CA
H2CA30028|MARTINEZ, MATTHEW GILBERT JR|DEM|2000|CA|H|C|C00167437|33.96317033333333|-118.18616733333333|91755|MONTEREY PARK|CA
H2CA30077|QUEZADA, LETICIA|DEM|1992|CA|H|C|C00260943|33.94396584158416|-118.29928288118809|90017|LOS ANGELES|CA
H2CA30143|BECERRA, XAVIER|DEM|2004|CA|H|I|C00264101|33.94396584158416|-118.29928288118809|90026|LOS ANGELES|CA
H2CA30218|FELDMAN, KEVIN|DEM|2002|CA|H|C|C00370700|33.93807199999999|-118.30750738461536|91502|BURBANK|CA
H2CA31075|PANTAZIS, DINO G|REP|2002|CA|H|C|C00371906|34.07871|-118.2161|90031|LA|CA
H2CA31083|VEGA, LUIS|REP|2004|CA|H|C||33.94396584158416|-118.29928288118809|90026|LOS ANGELES|CA
H2CA32073|MURRAY, KEVIN|DEM|2001|CA|H|O|C00364026|33.94396584158416|-118.29928288118809|90043|LOS ANGELES|CA
H2CA32081|TERRELL, LEO JAMES|DEM|2001|CA|H|O|C00364141|33.9577728|-118.3576128|90211|BEVERLY HILLS|CA
H2CA32099|WATSON, DIANE E|DEM|2004|CA|H|I|C00364331|33.94396584158416|-118.29928288118809|90043|LOS ANGELES|CA
H2CA32123|LOWE, PHILIP A|DEM|2001|CA|H|O|C00364661|33.94396584158416|-118.29928288118809|90056|LOS ANGELES|CA
H2CA32131|TAYLOR, BLAIR HAMILTON|DEM|2001|CA|H|O|C00364802|33.94396584158416|-118.29928288118809|90056|LOS ANGELES|CA
H2CA32156|BAGNERIS, JULES|DEM|2001|CA|H|C|C00365395|33.94396584158416|-118.29928288118809|90019|LOS ANGELES|CA
H2CA32172|JAMES, WANDA|DEM|2001|CA|H|O|C00365288|33.94396584158416|-118.29928288118809|90008|LOS ANGELES|CA
H2CA32180|FOSTER, EZOLA|REF|2001|CA|H|O|C00365437|33.94396584158416|-118.29928288118809|90066|LOS ANGELES|CA
H2CA33048|ROYBAL-ALLARD, LUCILLE|DEM|2004|CA|H|I|C00259143|33.93807199999999|-118.30750738461536|91502|BURBANK|CA
H2CA33113|TATE, CHARLES|LIB|2004|CA|H|C||33.94396584158416|-118.29928288118809|90035|LOS ANGELES|CA
H2CA35092|MOEN, ROSS|REP|2004|CA|H|C|C00371252|33.94396584158416|-118.29928288118809|90045|LOS ANGELES|CA
H2CA36090|FLORES, JOAN MILKE|REP|1992|CA|H|C|C00260307|33.760568500000005|-118.29940099999999|90732|SAN PEDRO|CA
H2CA36215|DAVIS, GLORIA ELYSE|REP|2004|CA|H|C|C00367169|33.976373|-118.45458|90292|MARINA DEL RAY|CA
H2CA36223|JOHNSON, SHELBIN V STUART|REP|2002|CA|H|C|C00371419|33.837787|-118.35200599999999|90266|MANHATTAN BEACH|CA
H2CA37023|CALVERT, KENNETH S MR.|REP|2004|CA|H|I|C00257337|33.8009454|-116.93921680000001|92882|CORONA|CA
H2CA37213|TUCKER, WALTER R III|DEM|1994|CA|H|C|C00261289|33.853547000000006|-118.2548448|90220|COMPTON|CA
H2CA37247|VELASCO, OSCAR AMORANTO|REP|2002|CA|H|C|C00372508|33.83372825|-118.26890425|90745|CARSON|CA
H2CA37254|PETERS, HERB|LIB|2004|CA|H|C||33.83372825|-118.26890425|90745|CARSON|CA
H2CA38062|MATHEWS, PETER|DEM|2004|CA|H|C|C00259374|33.79097913793104|-118.20857620689657|90814|LONG BEACH|CA
H2CA38161|HAVICE, SALLY|DEM|2002|CA|H|O|C00365114|33.868314|-118.06754|90703|Cerritos|CA
H2CA38187|BRIGGS, MIKE EARL|REP|2002|CA|H|O|C00368852|36.89668066666667|-119.62701133333333|93611|CLOVIS|CA
H2CA38195|SALCIDO, GREGORY|DEM|2002|CA|H|C|C00370478|33.837198750000006|-118.2462765|90660|PICO RIVERA|CA
H2CA39078|SANCHEZ, LINDA|DEM|2004|CA|H|I|C00384057|33.93807199999999|-118.30750738461536|91502|BURBANK|CA
H2CA39086|DE LA TORRE, HECTOR|DEM|2002|CA|H|O|C00369439|33.944264|-118.1949|90280|SOUTH GATE|CA
H2CA39102|ESCOBAR, TIM|REP|2004|CA|H|C|C00370494|33.86484566666667|-118.10885633333332|90638|LA MIRADA|CA
H2CA39110|RAHDER, HELEN MCKENNA|DEM|2002|CA|H|O|C00373258|33.881555999999996|-118.1516309090909|90601|WHITTIER|CA
H2CA40050|JOHNSON, KEITH ALAN|DEM|2002|CA|H|C|C00367185|34.242567|-117.28654|92325|CRESTLINE|CA
H2CA41066|KIM, JAY C|REP|2000|CA|H|C|C00354555|34.030714|-117.31174|92313|GRAND TERRACE|CA
H2CA41108|CRAIG, KEVIN|LIB|2002|CA|H|C|C00379925|33.928337|-116.44719|92240|DESERT HOT SPRINGS|CA
H2CA42023|HUNTER, DUNCAN|REP|2004|CA|H|I|C00126961|32.89516425|-116.9308555|91941|La Mesa|CA
H2CA43047|PACKARD, RONALD C|REP|2000|CA|H|C|C00149732|33.100922142857144|-117.04654057142857|92056|OCEANSIDE|CA
H2CA43245|TAKANO, MARK|DEM|1994|CA|H|C|C00286666|33.94396584158416|-118.29928288118809|90057|LOS ANGELES|CA
H2CA43351|NEIGHBOR, WENDY C.|REP|2002|CA|H|C|C00372359|34.110009|-117.71973|91711|CLAREMONT|CA
H2CA44110|KURPIEWSKI, ELLE|DEM|2002|CA|H|C|C00370148|33.93807199999999|-118.30750738461536|91502|BURBANK|CA
H2CA44128|VANDENBERG, LOUIS|DEM|2004|CA|H|C|C00403154|33.93807199999999|-118.30750738461536|91502|BURBANK|CA
H2CA46099|CORONADO, ALEXANDRIA A DR|REP|2004|CA|H|C|C00368589|33.817481|-118.0399|90630|CYPRESS|CA
H2CA47048|JOHNSON, MARK C|REP|2002|CA|H|C|C00366302|33.94396584158416|-118.29928288118809|90071|LOS ANGELES|CA
H2CA47055|CAMPBELL, WILLIAM (BILL) J|REP|2002|CA|H|C|C00366351|33.71365654545454|-117.80123745454543|92868|ORANGE|CA
H2CA47063|CHAVEZ, JEFF|REP|2002|CA|H|C|C00370197|33.696992|-117.82648636363638|92706|SANTA ANA|CA
H2CA49176|KANE, TIMOTHY JOSEPH|REP|2002|CA|H|C|C00366591|32.89411814814816|-116.99533772839506|92126|SAN DIEGO|CA
H2CA49184|VAN DE WEGHE, G WILLIAM (BILL) JR|REP|2002|CA|H|C|C00367490|32.89411814814816|-116.99533772839506|92106|SAN DIEGO|CA
H2CA49200|BYRON, MICHAEL|DEM|2004|CA|H|C|C00382135|33.100922142857144|-117.04654057142857|92054|OCEANSIDE|CA
H2CA50026|VARGAS, JUAN|DEM|2006|CA|H|C|C00408161|32.89411814814816|-116.99533772839506|92169|SAN DIEGO|CA
H2CA50034|FILNER, BOB|DEM|2004|CA|H|I|C00261388|32.89411814814816|-116.99533772839506|92112|SAN DIEGO|CA
H2CA50109|STEWART, DEL G.|DEM|2002|CA|H|C|C00382879|33.081394714285715|-116.98090542857143|92025|ESCONDIDO|CA
H2CA51131|RAMIREZ, DANIEL C.|DEM|2004|CA|H|C||32.931869|-116.91793799999999|92071|SANTEE|CA
H2CA51149|GARCIA, MARIA GUADALUPE|REP|2002|CA|H|C|C00378984|32.78016975|-116.9451885|91911|CHULA VISTA|CA
H2CO00019|COFFMAN, MIKE|REP|2002|CO|H|O|C00367441|39.71124715789474|-104.67132821052633|80014|AURORA|CO
H2CO00027|ROGERS, JOSEPH BERNARD|REP|2002|CO|H|O|C00371963|39.74108270666667|-104.83527397333336|80207|DENVER|CO
H2CO01066|MARTINEZ, RAMONA ELIZABETH|DEM|2002|CO|H|C|C00364869|39.74108270666667|-104.83527397333336|80219|DENVER|CO
H2CO01074|CHICAS, ROLAND F|REP|2004|CO|H|C|C00398057|39.71124715789474|-104.67132821052633|80013|AURORA|CO
H2CO01082|CHLOUBER, KEN|REP|2002|CO|H|C|C00376889|39.74108270666667|-104.83527397333336|80218|DENVER|CO
H2CO01108|LILLY, GEORGE C.|CST|2004|CO|H|C||39.74108270666667|-104.83527397333336|80237|DENVER|CO
H2CO02106|VEHAR, ROBERT M|REP|2002|CO|H|C|C00377721|39.835189400000004|-104.793335|80031|WESTMINSTER|CO
H2CO02122|OLSEN, NORM|LIB|2004|CO|H|C|C00401638|39.903043|-104.9544|80233|NORTHGLENN|CO
H2CO03054|MCINNIS, SCOTT|REP|2004|CO|H|I|C00266734|39.07566033333334|-108.54275066666666|81506|GRAND JUNCTION|CO
H2CO04037|BEDINGFIELD, JEFFREY THOMAS|REP|2002|CO|H|O|C00370379|40.430362428571435|-104.62026228571429|80631|GREELEY|CO
H2CO04045|MUSGRAVE, MARILYN N|REP|2004|CO|H|I|C00371880|40.226357|-103.80625|80701|FORT MORGAN|CO
H2CO04052|WAAK, PATRICIA ANN|DEM|2002|CO|H|O|C00372649|40.051051|-105.02767|80516|ERIE|CO
H2CO04060|MATSUNAKA, STANLEY|DEM|2004|CO|H|C|C00402180|40.40188033333334|-105.11804233333332|80538|LOVELAND|CO
H2CO04078|MARTINEZ, RANDOLPH R (RAY)|REP|2002|CO|H|O|C00374975|34.882362|-83.4156|30525|FT COLLINS|CO
H2CO05042|BAKER, BIFF LELAND|LIB|2002|CO|H|C|C00379438|38.839994|-104.67319639215685|80919|COLORADO SPRINGS|CO
H2CO06107|WRIGHT, LANCE|DEM|2002|CO|H|C|C00375303|39.515506333333335|-104.74350833333334|80138|PARKER|CO
H2CO07014|BAISLEY, MARK|REP|2002|CO|H|O|C00372813|39.668576|-105.09191|80227|LAKEWOOD|CO
H2CO07030|FEELEY, MICHAEL FRANCIS|DEM|2002|CO|H|O|C00374967|39.688278|-105.14558|80228|LAKEWOOD|CO
H2CO07048|THOMAS, DAVID|DEM|2004|CO|H|C|C00374561|39.736492428571424|-105.14826857142857|80005|ARVADA|CO
H2CO07055|O'DONNELL, RICK|REP|2002|CO|H|O|C00374777|39.65191899999999|-105.240955|80401|GOLDEN|CO
H2CO07063|BEAUPREZ, ROBERT LOUIS|REP|2004|CO|H|I|C00376152|39.736492428571424|-105.14826857142857|80004|ARVADA|CO
H2CO07071|YUGEL, STEPHEN|REP|2002|CO|H|O|C00377242|39.736492428571424|-105.14826857142857|80004|ARVADA|CO
H2CT01114|STEELE, PHILIP LEE|REP|2002|CT|H|C|C00380493|41.786130416666666|-72.70431316666667|06106|HARTFORD|CT
H2CT01130|MASULLO, MIRIAM J DR|REP|2002|CT|H|C|C00377879|41.148621|-73.493573|06840|NEW CANAAN|CT
H2CT02054|SULLIVAN, JAMES M|DEM|2004|CT|H|C|C00364265|41.533848|-72.06232|06360|NORWICH|CT
H2CT02062|COLLINS, GARY|DEM|2002|CT|H|C|C00364752|41.909097|-72.54393|06016|BROAD BROOK|CT
H2CT02070|FISHER, SHAWN R|DEM|2002|CT|H|C|C00365874|41.895108|-72.17674|06278|ASHFORD|CT
H2CT02088|SPELLMAN, STEVEN|DEM|2002|CT|H|C|C00367482|41.351307|-71.91317|06378|STONINGTON|CT
H2CT02096|BENEDICT, JEFFREY R|DEM|2002|CT|H|C|C00368282|41.319649|-72.21064|06357|NIANTIC|CT
H2CT02104|MCNALLY, SHAUN M|DEM|2004|CT|H|C|C00388520|41.37934|-72.44578|06417|DEEP RIVER|CT
H2CT02112|COURTNEY, JOSEPH D|DEM|2004|CT|H|C|C00369199|41.841615|-72.46708|06066|VERNON|CT
H2CT03052|ELSER, H RICHTER|REP|2004|CT|H|C|C00367359|41.348277384615386|-72.92185780769232|06515|NEW HAVEN|CT
H2CT03060|PILLSBURY, CHARLES A|UNK|2002|CT|H|C|C00374942|41.348277384615386|-72.92185780769232|06511|NEW HAVEN|CT
H2CT05115|GENGARELLY, WALTER J|LIB|2002|CT|H|C|C00382051|41.398462|-73.31474|06470|NEWTOWN|CT
H2CT06014|JOHNSON, NANCY L|REP|2004|CT|H|I|C00145607|41.6695865|-72.78511025|06052|NEW BRITAIN|CT
H2DE00072|CASTLE, MICHAEL N|REP|2004|DE|H|I|C00254938|39.64413388888888|-75.58563588888889|19806|WILMINGTON|DE
H2DE00122|BIENER, STEVEN LOUIS|DEM|2002|DE|H|C|C00373191|39.64413388888888|-75.58563588888889|19810|WILMINGTON|DE
H2FL00250|FEENEY, TOM|REP|2004|FL|H|I|C00368951|28.680134|-81.18419999999999|32765|Oviedo|FL
H2FL00268|BETANCOURT, ANNIE|DEM|2002|FL|H|O|C00369546|25.69783154166667|-80.34412848958333|33176|MIAMI|FL
H2FL00276|DIAZ, EDDIE|DEM|2002|FL|H|C|C00374397|28.724513|-81.3043775|32779|LONGWOOD|FL
H2FL01092|KNEPPER, RANDOLPH LEROY|REP|2001|FL|H|O|C00366724|30.54065413157895|-87.27113260526316|32504|PENSACOLA|FL
H2FL01100|MILLER, JEFFERSON B.|REP|2004|FL|H|I|C00366757|30.54065413157895|-87.27113260526316|32591|Pensacola|FL
H2FL01126|BRIESE, STEVE|DEM|2001|FL|H|O|C00367557|30.489898999999998|-87.01003333333334|32563|GULF BREEZE|FL
H2FL01134|FRANCISCO, MICHAEL CABELL|REP|2002|FL|H|O|C00373100|30.414932|-86.61992|32548|FT WALTON BEACH|FL
H2FL01159|REVELL, KENNETH WAYNE|REP|2001|FL|H|O|C00367565|30.361248|-86.18759|32459|SANTA ROSA BEACH|FL
H2FL01183|ORAM, ALBERT F JR|DEM|2002|FL|H|C|C00380808|30.627637|-87.16724|32571|PACE|FL
H2FL02074|MCGURK, THOMAS D|REP|2002|FL|H|C|C00378992|30.46455347058824|-84.30047100000002|32312|TALLAHASSEE|FL
H2FL03056|BROWN, CORRINE|DEM|2004|FL|H|I|C00272732|30.30522279245282|-81.65284611320754|32202|JACKSONVILLE|FL
H2FL04070|FOWLER, TILLIE K|REP|2000|FL|H|C|C00270058|30.30522279245282|-81.65284611320754|32210|JACKSONVILLE|FL
H2FL05127|BROWN-WAITE, VIRGINIA|REP|2004|FL|H|I|C00367680|28.531020444444444|-82.4385828888889|34602|BROOKSVILLE|FL
H2FL05135|GESSNER, DONALD R|REP|2002|FL|H|C|C00371013|28.854031|-82.494887|34461|LECANTO|FL
H2FL05143|MOORE, BRIAN PATRICK|DEM|2004|FL|H|C|C00380295|28.5028644|-82.5264526|34606|SPRING HILL|FL
H2FL05150|WERDER|W|2004|FL|H|C||28.5028644|-82.5264526|34608|SPRING HILL|FL
H2FL06067|THURMAN, KAREN L|DEM|2002|FL|H|C|C00254870|28.82311575|-82.3304725|34450|INVERNESS|FL
H2FL06091|BRUDERLY, DAVID E.|DEM|2004|FL|H|C|C00381210|29.666233722222223|-82.36053305555555|32607|GAINESVILLE|FL
H2FL07107|HOGAN, WAYNE|DEM|2002|FL|H|C|C00380410|30.30522279245282|-81.65284611320754|32207|JACKSONVILLE|FL
H2FL08055|MICA, JOHN L|REP|2004|FL|H|I|C00283051|28.5846075|-81.295909|32789|Winter Park|FL
H2FL09012|BILIRAKIS, MICHAEL|REP|2004|FL|H|I|C00153213|28.055935666666667|-82.74810866666667|34688|TARPON SPRINGS|FL
H2FL09079|KALOGIANIS, CHUCK|DEM|2002|FL|H|C|C00364729|28.2632966|-82.6392372|34652|NEW PORT RICHEY|FL
H2FL09087|WRIGHT, JAMES LEO|DEM|2002|FL|H|C|C00365353|28.2632966|-82.6392372|34655|NEW PORT RICHEY|FL
H2FL09095|PASAYAN, ANDREW|W|2004|FL|H|C||28.1901205|-82.742155|34691|HOLIDAY|FL
H2FL11067|ISAACSON, PHILLIP LEE|REP|2002|FL|H|C|C00371971|27.933675672131137|-82.45895295081968|33634|TAMPA|FL
H2FL11075|FLASH, ROCKY|REP|2004|FL|H|C|C00354597|28.007329|-82.45256549999999|33559|LUTZ|FL
H2FL13105|MCKENZIE, CHARLES S JR|DEM|2002|FL|H|O|C00368944|27.301105|-82.487153|34234|SARASOTA|FL
H2FL13113|HARRIS, KATHERINE|REP|2004|FL|H|I|C00369447|27.301105|-82.487153|34277|Sarasota|FL
H2FL13121|MCELYEA, CANDICE BROWN|DEM|2002|FL|H|O|C00373555|27.301105|-82.487153|34233|SARASOTA|FL
H2FL13139|SCHNEIDER, JAN|DEM|2004|FL|H|C|C00392183|27.301105|-82.487153|34236|SARASOTA|FL
H2FL13154|HILL, JOHN CHARLES|REP|2002|FL|H|O|C00379347|27.301105|-82.487153|34232|SARASOTA|FL
H2FL13162|FEHELEY, PATRICK J.|DEM|2002|FL|H|O|C00381236|27.301105|-82.487153|34239|SARASOTA|FL
H2FL13170|GENTHNER, WAYNE RICHARD|REP|2002|FL|H|C|C00382176|27.444231461538457|-82.50348653846154|34281|BRADENTON|FL
H2FL14087|COY, ANDY|REP|2004|FL|H|O|C00390328|26.6260695|-81.96521337499999|33990|CAPE CORAL|FL
H2FL14095|KREEGEL, PAIGE MD|REP|2002|FL|H|C|C00369157|26.922108428571423|-81.99967057142858|33982|PUNTA GORDA|FL
H2FL15035|SHERIDAN, CHUCK|REP|2002|FL|H|C|C00365163|28.324128|-80.68147866666668|32952|MERRITT ISLAND|FL
H2FL15050|TSO, JIM|DEM|2002|FL|H|C|C00377226|27.6604871|-80.4776564|32965|VERO BEACH|FL
H2FL16041|DEUTSCH, PETER R|DEM|2004|FL|H|I|C00406272|26.030448538461542|-80.26729107692307|33081|HOLLYWOOD|FL
H2FL16066|EGGLESTON, KEN|DEM|2002|FL|H|C|C00374413|26.719596|-80.22077|33411|ROYAL PALM BEACH|FL
H2FL16074|MCLAIN, JOHN (JACK) I|CST|2004|FL|H|C|C00404855|26.878653800000002|-80.1888298|33478|JUPITER|FL
H2FL17023|MEEK, CARRIE|DEM|2002|FL|H|C|C00257014|25.69783154166667|-80.34412848958333|33147|MIAMI|FL
H2FL17056|MEEK, KENDRICK B|DEM|2004|FL|H|I|C00379727|25.69783154166667|-80.34412848958333|33169|MIAMI|FL
H2FL19037|DIAZ-BALART, LINCOLN|REP|2004|FL|H|I|C00264028|25.69783154166667|-80.34412848958333|33173|Miami|FL
H2FL19078|MERKL, JACK|REP|2002|FL|H|C|C00373407|26.464207866666666|-80.23758366666667|33433|BOCA RATON|FL
H2FL22049|XUNA, JOHN (AKA JUAN)|IND|2002|FL|H|C|C00373522|26.236792|-80.09594|33062|HILLSBORO BEACH|FL
H2FL22056|ROBERTS, CAROL A|DEM|2002|FL|H|C|C00375907|26.710145095238097|-80.19626185714284|33416|WEST PALM BEACH|FL
H2FL22064|SMILAN, STAN|DEM|2004|FL|H|C|C00397042|26.577744|-80.24159957142855|33474|BOYNTON BEACH|FL
H2FL23021|HASTINGS, ALCEE L|DEM|2004|FL|H|I|C00269837|38.89531540217391|-77.01958254710144|20515|WASHINGTON|DC
H2FL24011|JACOBS, HARRY NATHAN|DEM|2002|FL|H|O|C00375766|28.724513|-81.3043775|32779|LONGWOOD|FL
H2FL24029|MCLAIN, DARYL G|REP|2002|FL|H|O|C00377804|28.793457333333333|-81.27138533333333|32771|SANFORD|FL
H2FL25018|DIAZ-BALART, MARIO|REP|2004|FL|H|I|C00376087|25.69783154166667|-80.34412848958333|33173|Miami|FL
H2GA00019|HECHT, GREGORY KEITH|DEM|2002|GA|H|O|C00367532|33.507507333333336|-84.35448433333335|30236|JONESBORO|GA
H2GA00027|HERMAN, ALLAN|GRE|2002|GA|H|C|C00368324|33.80200675|-84.19094750000001|30033|DECATUR|GA
H2GA01157|KINGSTON, JOHN HEDDENS|REP|2004|GA|H|I|C00261958|32.00549926086958|-81.08729143478263|31406|SAVANNAH|GA
H2GA02031|BISHOP, SANFORD D JR|DEM|2004|GA|H|I|C00266940|31.5672663|-84.16817029999999|31707|Albany|GA
H2GA03070|COLLINS, MICHAEL A|REP|2004|GA|H|I|C00265942|33.507507333333336|-84.35448433333335|30237|Jonesboro|GA
H2GA03096|"BYRD, CHARLES W (""CHUCK"")"|DEM|2002|GA|H|O|C00369603|32.460791|-83.73541|31069|PERRY|GA
H2GA03104|CLAY, CALDER B III|REP|2004|GA|H|C|C00366716|32.81715886956521|-83.67255700000001|31209|MACON|GA
H2GA03112|"DAYAN, SIGFRIED ""SIG"""|DEM|2002|GA|H|O|C00373134|32.81715886956521|-83.67255700000001|31210|MACON|GA
H2GA04102|DAVIS, CATHERINE|REP|2004|GA|H|O|C00372623|33.98126285714285|-84.0996522857143|30096|DULUTH|GA
H2GA04110|MAJETTE, DENISE L|DEM|2004|GA|H|I|C00373290|33.81660425|-84.14582999999999|30088|Stone Mountain|GA
H2GA04128|VAN AUKEN, CYNTHIA L|REP|2002|GA|H|C|C00374546|33.942751|-84.31769|30338|DUNWOODY|GA
H2GA04136|PEREIRA, BARBARA BRUNNER|REP|2002|GA|H|C|C00379958|33.942751|-84.31769|30338|DUNWOODY|GA
H2GA05109|DURANT, JOHN CHRISTOPHER|REP|2002|GA|H|C|C00373399|33.975564|-84.39239333333333|30075|ROSWELL|GA
H2GA05117|HARRIS, JAMES EDWARD||2002|GA|H|C|C00382929|33.828458666666684|-84.40236618918924|30312|ATLANTA|GA
H2GA06057|CENTER, TONY|DEM|2004|GA|H|O|C00373886|32.00549926086958|-81.08729143478263|81401|SAVANNAH|GA
H2GA06065|PELPHREY, GARY R|UNK|2004|GA|H|O|C00338434|33.94348485714285|-84.53430707142857|30067|MARIETTA|GA
H2GA06081|WEISBERGER, JEFFREY K|DEM|2002|GA|H|C|C00379586|33.828458666666684|-84.40236618918924|30329|ATLANTA|GA
H2GA07055|BERLON, MICHAEL R|DEM|2002|GA|H|C|C00379255|33.823809|-83.89423|30052|LOGANVILLE|GA
H2GA09036|DEAL, NATHAN|REP|2004|GA|H|I|C00263608|34.305405666666665|-83.8595845|30503|GAINESVILLE|GA
H2GA09119|DARNELL, TONY|REP|2002|GA|H|C|C00366815|33.99606133333334|-84.325964|30004|ALPHARETTA|GA
H2GA09135|IRWIN, BARRY GORDON|DEM|2002|GA|H|C|C00379966|34.041416|-83.21997|30628|COLBERT|GA
H2GA11016|MCKINNEY, CYNTHIA A|DEM|2004|GA|H|O|C00256354|33.80200675|-84.19094750000001|30037|DECATUR|GA
H2GA11040|LOVETT, WOODROW|REP|2002|GA|H|O|C00263442|32.969028|-81.79396|30456|SARDIS|GA
H2GA11123|COX, JOHN CLAYTON|REP|2002|GA|H|O|C00365387|33.916362|-84.0772045|30047|LILBURN|GA
H2GA11131|STATON, CECIL POPE JR|REP|2002|GA|H|O|C00369926|33.94348485714285|-84.53430707142857|30061|MARIETTA|GA
H2GA11149|GINGREY, J. PHILLIP|REP|2004|GA|H|I|C00370783|33.94348485714285|-84.53430707142857|30064|MARIETTA|GA
H2GA12022|FINCH, ROBERT DEAN|DEM|2004|GA|H|C|C00370833|33.95374808333333|-83.38985975|81011|ATHENS|GA
H2GA12030|WALKER, CHARLES W JR|DEM|2002|GA|H|O|C00370445|33.4206345|-82.08491662499999|30909|AUGUSTA|GA
H2GA12048|ALLEN, BENJAMIN|DEM|2002|GA|H|O|C00373514|33.4206345|-82.08491662499999|30901|AUGUSTA|GA
H2GA12055|SMITH, MARC ANTHONY|DEM|2002|GA|H|O|C00374991|32.00549926086958|-81.08729143478263|31404|SAVANNAH|GA
H2GA12071|SCOTT, MERWYN|DEM|2002|GA|H|O|C00375535|33.4206345|-82.08491662499999|30906|AUGUSTA|GA
H2GA12089|DOOLEY, BARBARA M|REP|2002|GA|H|O|C00378307|33.95374808333333|-83.38985975|30603|ATHENS|GA
H2GA12097|BURNS, O MAXIE|REP|2004|GA|H|I|C00378448|32.754635|-81.63543|30467|SYLVANIA|GA
H2GA13012|SCOTT, DAVID ALBERT|DEM|2004|GA|H|I|C00369801|33.828458666666684|-84.40236618918924|30307|ATLANTA|GA
H2GA13020|JAMES, DONZELLA J|DEM|2002|GA|H|O|C00371005|33.61541|-84.49033|30349|COLLEGE PARK|GA
H2GA13038|COIT, WILLIAM|REP|2002|GA|H|O|C00377499|33.828458666666684|-84.40236618918924|30350|ATLANTA|GA
H2GA13046|MALONE, EMBRY|DEM|2002|GA|H|O|C00378729|33.81660425|-84.14582999999999|30087|STONE MOUNTAIN|GA
H2GU00025|UNDERWOOD, ROBERT A|DEM|2002|GU|H|C|C00265363|||96932|AGANA|GU
H2GU00033|BORDALLO, MADELEINE Z|DEM|2004|GU|H|I|C00369686|||96932|HAGATNA|GU
H2GU00041|WON PAT, JUDITH T PEREZ|DEM|2002|GU|H|C|C00377788|||96932|HAGATNA|GU
H2GU00058|ADA, JOSEPH F|REP|2002|GU|H|C|C00378539|||96932|HAGATNA|GU
H2HI01047|WHITE, OPASSI|REP|2002|HI|H|C|C00378547|23.99200566666667|-165.5305597777778|96822|HONOLULU|HI
H2HI02102|MCDERMOTT, ROBERT CHARLES|REP|2002|HI|H|C|C00367318|23.99200566666667|-165.5305597777778|96818|HONOLULU|HI
H2HI02110|HANABUSA, COLLEEN WAKAKO|DEM|2003|HI|H|C|C00382663|23.99200566666667|-165.5305597777778|96813|HONOLULU|HI
H2HI02128|CASE, EDWARD E|DEM|2004|HI|H|I|C00382978|21.457652000000003|-157.842505|96744|KANEOHE|HI
H2HI02136|SOLOMON, MALAMA|DEM|2002|HI|H|C|C00382705|20.040191|-155.69999|96743|KAMUELA|HI
H2HI02144|REYES, ARTURO PACHEO|DEM|2002|HI|H|C|C00382739|21.403487|-158.01389|96797|WAIPAHU|HI
H2HI02243|CARROLL, JOHN STANLEY|REP|2002|HI|H|C|C00383455|20.089087|-155.51679|96727|HONOKAA|HI
H2HI02292|KALOI, KIMO|REP|2002|HI|H|C|C00382812|19.675386|-155.97588|96740|KANILUA-KONA|HI
H2HI02474|WAIHEE, JOHN|DEM|2003|HI|H|C|C00383273|23.99200566666667|-165.5305597777778|96812|HONOLULU|HI
H2HI02490|MARUMOTO, BARBARA C|REP|2004|HI|H|C|C00383646|23.99200566666667|-165.5305597777778|96821|HONOLULU|HI
H2IA01014|GLUBA, WILLIAM E|DEM|2004|IA|H|C|C00391151|41.56673811111111|-90.59274911111112|52804|DAVENPORT|IA
H2IA01030|HUTCHINSON, ANN|DEM|2002|IA|H|C|C00370080|41.551883|-90.48975|52722|BETTENDORF|IA
H2IA01048|HEATH, DENNY|DEM|2004|IA|H|C|C00401745|41.874290333333335|-90.41814266666667|52732|CLINTON|IA
H2IA02038|THOMAS, JULIANNE HILDA|DEM|2002|IA|H|C|C00370965|42.057094428571425|-91.64422478571427|52403|CEDAR RAPIDS|IA
H2IA02046|LITTEN, KEVIN|LIB|2004|IA|H|C||42.057094428571425|-91.64422478571427|52411|CEDAR RAPIDS|IA
H2IA03028|NAGLE, DAVID R|DEM|2002|IA|H|C|C00374793|42.46836366666667|-92.31821666666667|50704|WATERLOO|IA
H2IA04067|THOMPSON, STANLEY J|REP|2004|IA|H|C|C00366443|41.65428011864408|-93.58401089830507|50312|DES MOINES|IA
H2IA04075|NORRIS, JOHN ROBERT|DEM|2002|IA|H|C|C00366625|42.02913099999999|-93.60630499999999|50010|AMES|IA
H2IA05031|BALLENGER, JEFFREY A|REP|2002|IA|H|O|C00367854|41.25863833333333|-95.82087|51503|COUNCIL BLUFFS|IA
H2IA05049|SIEGRIST, JOHN B|REP|2002|IA|H|O|C00368225|41.25863833333333|-95.82087|51503|COUNCIL BLUFFS|IA
H2IA05056|SHOMSHOR, PAUL CHARLES JR|DEM|2002|IA|H|O|C00368837|41.25863833333333|-95.82087|51501|COUNCIL BLUFFS|IA
H2IA05072|KING, STEVEN A|REP|2004|IA|H|I|C00373563|42.204515|-95.30928|51448|KIRON|IA
H2ID01085|RICHARDSON, BETTY|DEM|2002|ID|H|C|C00370536|43.51203700000001|-116.23286|83713|BOISE|ID
H2ID02117|KINGHORN, EDWARD|DEM|2002|ID|H|C|C00382044|43.787366666666664|-111.73050466666666|83440|REXBURG|ID
H2IL00051|KOPROWSKI, GENE|LIB|2004|IL|H|O|C00371740|41.85168971764706|-87.67981902352942|60610|CHICAGO|IL
H2IL01042|RUSH, BOBBY LEE|DEM|2004|IL|H|I|C00257121|41.85168971764706|-87.67981902352942|60653|CHICAGO|IL
H2IL02107|WILLIAMS, ANTHONY W.|DEM|2004|IL|H|C||41.626839|-87.59865|60419|DOLTON|IL
H2IL02115|NELSON, DOUG|REP|2002|IL|H|C|C00376202|41.85168971764706|-87.67981902352942|60628|CHICAGO|IL
H2IL02123|WILLIAMS, YVONNE CHRISTIAN|DEM|2002|IL|H|C|C00374215|41.609078|-87.66264|60426|DIXMOOR|IL
H2IL04111|CASTRO, MARTIN R|DEM|2002|IL|H|C|C00365056|41.85168971764706|-87.67981902352942|60622|CHICAGO|IL
H2IL05019|LIPINSKI, WILLIAM O|DEM|2004|IL|H|I|C00148585|41.85168971764706|-87.67981902352942|60638|CHICAGO|IL
H2IL05035|HOLOWINSKI, JOHN JOSEPH|DEM|2002|IL|H|C|C00369264|41.85168971764706|-87.67981902352942|60618|CHICAGO|IL
H2IL05076|KASZAK, NANCY|DEM|2002|IL|H|O|C00368662|41.85168971764706|-87.67981902352942|60613|CHICAGO|IL
H2IL05092|EMANUEL, RAHM|DEM|2004|IL|H|I|C00368829|41.85168971764706|-87.67981902352942|60613|CHICAGO|IL
H2IL05100|DAGHER, PETER ALEXANDER|DEM|2002|IL|H|O|C00369074|41.85168971764706|-87.67981902352942|60613|CHICAGO|IL
H2IL05126|AUGUSTI, MARK A|REP|2002|IL|H|O|C00369736|41.85168971764706|-87.67981902352942|60657|CHICAGO|IL
H2IL05134|URBASZEWSKI, EUGENE RICHARD|REP|2002|IL|H|O|C00372656|41.85168971764706|-87.67981902352942|60641|CHICAGO|IL
H2IL05142|FREDRICKSON, MARK ARNOLD|DEM|2002|IL|H|O|C00372946|41.85168971764706|-87.67981902352942|60630|CHICAGO|IL
H2IL07080|TUNNEY, MARK|REP|2002|IL|H|C|C00377614|41.86685025|-87.7651075|60302|OAK PARK|IL
H2IL08039|GUTIERREZ, LUIS V|DEM|2004|IL|H|I|C00254581|41.85168971764706|-87.67981902352942|60622|CHICAGO|IL
H2IL08088|BEAN, MELISSA L|DEM|2004|IL|H|C|C00369710|42.241802500000006|-87.8811815|60010|BARRINGTON|IL
H2IL09102|DURIC, NICHOLAS M|REP|2002|IL|H|C|C00383067|42.01183|-87.84158|60068|PARK RIDGE|IL
H2IL10043|PERRITT, HENRY H JR|DEM|2002|IL|H|C|C00369223|42.130976|-87.76252||GLENCOE|IL
H2IL11090|VAN DUYNE, KEITH S|DEM|2002|IL|H|C|C00373282|41.298186|-88.1464|60481|WILMINGTON|IL
H2IL14060|QUICK, LAURENCE J|DEM|2002|IL|H|C|C00380899|41.83345371428572|-88.27595714285714|60506|AURORA|IL
H2IL15034|EWING, THOMAS W|REP|1998|IL|H|C|C00250555|40.884053|-88.63376|61764|PONTIAC|IL
H2IL15067|HARTKE, JOSHUA T|DEM|2002|IL|H|C|C00379107|40.123907833333334|-88.26052083333333|61820|CHAMPAIGN|IL
H2IL15075|ESTABROOK, CARL|GRE|2002|IL|H|C|C00379214|40.123907833333334|-88.26052083333333|61820|CHAMPAIGN|IL
H2IL16032|KUTSCH, JOHN|DEM|2002|IL|H|C|C00374553|42.424338|-88.61431|60033|HARVARD|IL
H2IL17048|CALDERONE, PETER|REP|2002|IL|H|C|C00377747|40.94014|-90.291561|61401|GALESBURG|IL
H2IL19010|EVANS, LANE A|DEM|2004|IL|H|I|C00146779|41.5174374|-90.586047|61201|ROCK ISLAND|IL
H2IL20042|SHIMKUS, JOHN M|REP|2004|IL|H|I|C00258855|38.679282|-89.99407|62234|Collinsville|IL
H2IN00018|MELTON, JEFF|GRE|2002|IN|H|C|C00376764|39.16472519999999|-86.5195193|47402|BLOOMINGTON|IN
H2IN01065|HUERTER, C YRIL B. (CY)|REP|2004|IN|H|C||41.549851|-87.45806|46322|HIGHLAND|IN
H2IN02147|ALEXA, WILLIAM E|DEM|2002|IN|H|O|C00369231|41.48286233333333|-87.07347800000001|46383|VALPARAISO|IN
H2IN03061|BERNACCHI, DOUG ALLEN|REP|1992|IN|H|C|C00254102|41.7055395|-86.8970485|46350|MICHIGAN CITY|IN
H2IN03111|CHOCOLA, J CHRISTOPHER|REP|2004|IN|H|I|C00384958|41.658448549999996|-86.26316614999999|46660|SOUTH BEND|IN
H2IN03129|RIGDON, JAY|DEM|2002|IN|H|C|C00368274|41.328153|-85.6852|46555|NORTH WEBSTER|IN
H2IN03145|LARSEN, WILLIAM|REP|2004|IN|H|C||41.088135795454555|-85.09969911363638|46845|FORT WAYNE|IN
H2IN04077|YOUNG, R MICHAEL|REP|2002|IN|H|C|C00371377|39.795593|-86.25409|46224|INDPLS|IN
H2IN04101|ABBOTT, WILLIAM ANTHONY|DEM|2004|IN|H|C|C00378265|39.245995|-86.62275|47429|ELLETTSVILLE|IN
H2IN05025|BUYER, STEVE|REP|2004|IN|H|I|C00255471|40.777036|-86.75982|47960|MONTICELLO|IN
H2IN05033|BRINEGAR, MIKE|DEM|2004|IN|H|C|C00372185|39.898378|-85.9159|46055|MCCORDSVILLE|IN
H2IN05041|HALL, JERRY HOWARD|DEM|2002|IN|H|C|C00375683|40.556039999999996|-85.66123|46952|MARION|IN
H2IN05058|CARR, KATHERINE FOX|DEM|2004|IN|H|C|C00380287|39.797402600000005|-86.1365729|46239|INDIANAPOLIS|IN
H2IN06023|BURTON, DANNY L|REP|2004|IN|H|I|C00145862|39.797402600000005|-86.1365729|46236|INDIANAPOLIS|IN
H2IN06148|FOX, MELINA|DEM|2004|IN|H|C|C00398651|39.333248|-85.47579|47240|Greensburg|IN
H2IN07088|HORNING, ANDREW|REP|2004|IN|H|C|C00396283|39.797402600000005|-86.1365729|46226|INDIANAPOLIS|IN
H2IN08060|HARTKE, BRYAN LANE|DEM|2002|IN|H|C|C00371716|38.0106465|-87.31259700000001|46730|NEWBURGH|IN
H2IN09084|SODREL, MICHAEL E|REP|2004|IN|H|C|C00387399|38.327155250000004|-85.72382575|47131|JEFFERSONVILLE|IN
H2IN09100|ELLINGTON, JEFF|REP|2002|IN|H|C|C00376053|39.16472519999999|-86.5195193|47403|BLOOMINGTON|IN
H2IN09126|COX, ALAN|LIB|2004|IN|H|C||39.199357|-86.2395|47448|NASHVILLE|IN
H2KS02101|LYKINS, DAN|DEM|2002|KS|H|C|C00380246|39.041098899999994|-95.74326307499999|66601|TOPEKA|KS
H2KS03133|TAFF, ADAM|REP|2004|KS|H|C|C00371567|39.021629|-94.78107|66217|LAKE QUIVIRA|KS
H2KS03141|BLY, DAWN LOUISE|REF|2002|KS|H|C|C00373456|38.959606|-94.68189|66212|OVERLAND PARK|KS
H2KS03158|MARTIN, DOUGLAS WILLIAM|LIB|2002|KS|H|C|C00379222|37.682063225|-97.361390075|67210|WICHITA|KS
H2KS04065|QUANEY, PATRICK EUGENE|DEM|2002|KS|H|C|C00380485|37.682063225|-97.361390075|67205|WICHITA|KS
H2KY01051|ALEXANDER, KLINT|DEM|2002|KY|H|C|C00366708|36.882458|-87.48634949999999|42240|HOPKINSVILLE|KY
H2KY02075|TABB, PETE|DEM|2004|KY|H|C|C00400754|37.52025|-85.8807|42776|SONORA|KY
H2KY03156|CONWAY, JOHN WILLIAM|DEM|2002|KY|H|C|C00366690|38.20007860606061|-85.68525571212122|40205|LOUISVILLE|KY
H2KY04071|DAVIS, GEOFFREY C|REP|2004|KY|H|O|C00369470|39.0805|-84.68754|41048|HEBRON|KY
H2KY05136|WILSON, BILLY RAY|REP|2004|KY|H|O|C00395665|37.12836675|-84.09665262499999|40744|LONDON|KY
H2KY06076|BAESLER, HENRY SCOTT|DEM|2000|KY|H|C|C00349019|38.028650139999996|-84.48421994|40509|LEXINGTON|KY
H2LA02040|DIXON, IRMA MUSE|DEM|2002|LA|H|C|C00381822|29.992950545454548|-89.96252163636365|70118|NEW ORLEANS|LA
H2LA02057|HUNT, CLARENCE|DEM|2002|LA|H|C|C00382986|29.992950545454548|-89.96252163636365|70170|NEW ORLEANS|LA
H2LA03048|IWANCIO, DAVID|OTH|2002|LA|H|C|C00381657|29.907162|-90.35142|70070|LULING|LA
H2LA04103|MILKOVICH, JOHN CHARLES|DEM|2002|LA|H|C|C00367060|32.309864|-93.87089|71047|KEITHVILLE|LA
H2LA05068|FLETCHER, DEWEY LEE|REP|2002|LA|H|O|C00364406|32.503948|-92.1101497|71201|MONROE|LA
H2LA05076|BARHAM, ROBERT J|REP|2002|LA|H|O|C00371708|32.601149|-91.79917|71264|OAK RIDGE|LA
H2LA05084|ALEXANDER, RODNEY|REP|2004|LA|H|I|C00376749|32.341112|-92.72027|71268|QUITMAN|LA
H2LA05092|WRIGHT, THOMAS D TOMMY|DEM|2002|LA|H|O|C00379602|31.654792|-92.12872|71342|JENA|LA
H2LA05100|WRIGHT, JACK|REP|2002|LA|H|C|C00382887|32.49125166666667|-92.16733799999999|71291|WEST MONROE|LA
H2MA01020|OLVER, JOHN WALTER|DEM|2004|MA|H|I|C00250860|42.37723566666667|-72.550801|01002|Amherst|MA
H2MA01186|KINNAMAN, MATHEW W|REP|2002|MA|H|C|C00376921|42.299263|-73.2327|01238|LEE|MA
H2MA03133|O'FLAHERTY, TIMOTHY|REP|2002|MA|H|C|C00368290|42.2974944375|-71.83905100000001|01613|WORCESTER|MA
H2MA05054|MEEHAN, MARTIN T|DEM|2004|MA|H|I|C00270041|42.634199|-71.39322|01863|North Chelmsford|MA
H2MA05096|FREEDMAN, ILANA|REP|2004|MA|H|C|C00366765|42.573592|-71.2911|01862|NORTH BILLERICA|MA
H2MA05104|FINEGOLD, BARRY R|DEM|2002|MA|H|C|C00366955|42.6447916|-71.1166058|01810|ANDOVER|MA
H2MA05112|MCCARTHY, CHARLES J JR|REP|2002|MA|H|C|C00373977|42.671356|-71.50292|01827|DUNSTABLE|MA
H2MA06045|TORKILDSEN, PETER G|REP|1998|MA|H|C|C00267278|42.569756|-70.94322|01923|DANVERS|MA
H2MA06060|SMITH, MARK C|REP|2002|MA|H|C|C00367466|42.476379|-71.32974250000001|01803|BURLINGTON|MA
H2MA07084|HALL, JAMES O.|IND|2004|MA|H|C||42.41797866666667|-71.16701433333334|02476|ARLINGTON|MA
H2MA09064|JOYCE, BRIAN A|DEM|2001|MA|H|O|C00365577|42.253074|-71.07496|02186|Milton|MA
H2MA09072|LYNCH, STEPHEN F|DEM|2004|MA|H|I|C00366948|42.33499|-71.04562|02127|SOUTH BOSTON|MA
H2MA09080|PACHECO, MARC R|DEM|2001|MA|H|O|C00366963|41.830551|-71.084971|02780|TAUNTON|MA
H2MA09106|TAYLOR, JOHN EMMETT|DEM|2001|MA|H|O|C00367508|42.279432|-71.1598|02132|WEST ROXBURY|MA
H2MA09122|SPRAGUE, JO ANN|REP|2001|MA|H|O|C00367656|42.145237|-71.25375|02081|WALPOLE|MA
H2MA09148|SINNOTT, WILLIAM F|DEM|2001|MA|H|O|C00367938|42.252198|-71.12593|02136|HYDE PARK|MA
H2MA10104|GONZAGA, LUIZ|REP|2002|MA|H|C|C00367870|41.654741|-70.2895|02601|HYANNIS|MA
H2MA11060|DELAHUNT, WILLIAM D|DEM|2004|MA|H|I|C00268938|42.245583499999995|-71.031665|02171|QUINCY|MA
H2MA11086|YANCEY, CHARLES CALVIN|DEM|1998|MA|H|C|C00337071|42.34437557407409|-71.0031983888889|02105|BOSTON|MA
H2MD01113|TAMLYN, ANN D.|DEM|2004|MD|H|C||39.049697|-76.05309|21617|CENTREVILLE|MD
H2MD01121|FISCHER, DAVID W|REP|2002|MD|H|C|C00378430|39.435789|-76.63614|21093|TIMONIUM|MD
H2MD02152|BENGUR, O.R. OZ|DEM|2002|MD|H|O|C00375022|39.30939096078431|-76.61851498039216|21204|BALTIMORE|MD
H2MD02160|RUPPERSBERGER, C.A. DUTCH|DEM|2004|MD|H|I|C00376673|39.438964|-76.592139|21094|TIMONIUM|MD
H2MD03119|CONWELL, SCOTT|REP|2002|MD|H|C|C00378851|39.040159|-76.68408|21054|GAMBRILLS|MD
H2MD04190|ANDERSON, FLOYD W JR|REP|2002|MD|H|C||38.833563|-76.877743|20775|KETTERING|IL
H2MD05155|HOYER, STENY HAMILTON|DEM|2004|MD|H|I|C00140715|38.753264|-76.89913|20735|CLINTON|MD
H2MD05361|WYNN, ALBERT|DEM|2004|MD|H|I|C00253377|38.844212799999994|-76.88348440000001|20791|Capitol Heights|MD
H2MD05445|AUERBACH, BOB S|GRE|2004|MD|H|C|C00405274|38.89034533333333|-76.878512|20770|GREENBELT|MD
H2MD05452|CRAWFORD, JOSEPH T.|REP|2004|MD|H|C||39.543905|-76.67|21152|SPARKS|MD
H2MD06054|BARTLETT, ROSCOE G JR|REP|2004|MD|H|I|C00255190|38.89531540217391|-77.01958254710144|20515|WASHINGTON|DC
H2MD06096|MCPEEK, CHARLES C SR|DEM|2004|MD|H|C|C00386599|39.144807|-76.78767|20794|JESSUP|MD
H2MD06104|DEEM, MICHAEL WAYNE|REP|2006|MD|H|C|C00378653|39.409861|-79.39015|21550|OAKLAND|MD
H2MD06112|SHAFFER, KEVIN M.|DEM|2004|MD|H|C||39.646587|-78.77398|21502|LAVALE|MD
H2MD08100|SHAPIRO, IRA S|DEM|2002|MD|H|C|C00364554|39.0895035|-77.2037835|20854|POTOMAC|MD
H2MD08118|SHRIVER, MARK KENNEDY|DEM|2004|MD|H|C|C00365700|39.07524977777778|-77.165865|20817|BETHESDA|MD
H2MD08126|VAN HOLLEN, CHRISTOPHER|DEM|2004|MD|H|I|C00366096|39.027259|-77.07745|20895|KENNSINGTON|MD
H2MD08134|BASSETT, STEPHEN GERALD|IND|2004|MD|H|C|C00374579|39.178737|-77.19564|20886|MONTGOMERY VILLAGE|MD
H2ME01107|JOYCE, STEVEN|REP|2002|ME|H|C|C00372276|43.38551|-70.54707|04043|KENNEBANK|ME
H2ME02063|NUTTING, JOHN M VII|DEM|2002|ME|H|O|C00365924|44.283844|-70.11254|04263|LEEDS|ME
H2ME02071|RAYE, KEVIN L|REP|2002|ME|H|O|C00366906|44.78696|-68.7547|04412|BREWER|ME
H2ME02089|WOODCOCK, TIMOTHY C|REP|2002|ME|H|O|C00367342|45.1688185|-68.718468|04401|BANGOR|ME
H2ME02097|MICHAUD, MICHAEL H|DEM|2004|ME|H|I|C00367821|44.552095|-69.663074|04901|WATERVILLE|ME
H2ME02105|FAIRCLOTH, SEAN|DEM|2002|ME|H|O|C00367748|45.1688185|-68.718468|04401|BANGOR|ME
H2ME02139|MENDROS, STAVROS J|REP|2002|ME|H|O|C00368779|44.16293033333334|-70.22346|04240|LEWISTON|ME
H2ME02147|HANDRAHAN, LORI|DEM|2002|ME|H|O|C00370775|44.577934|-68.4297785|04605|ELLSWORTH|ME
H2MI00037|MCCOTTER, THADDEUS G MR.|REP|2004|MI|H|I|C00365841|42.333966200000006|-83.2802752|48152|LIVONIA|MI
H2MI01068|STUPAK, BART|DEM|2004|MI|H|I|C00270140|45.1431|-87.60897|49858|MENOMINEE|MI
H2MI01092|HOOPER, DON|REP|2004|MI|H|C|C00377580|46.2649415|-88.78993449999999|49935|IRON RIVER|MI
H2MI02066|HOEKSTRA, PETER|REP|2004|MI|H|I|C00270249|42.85824866666667|-86.225817|49423|HOLLAND|MI
H2MI02108|WRISLEY, JEFFREY ARTHUR|DEM|2002|MI|H|C|C00379248|43.791699|-86.40276|49449|PENTWATER|MI
H2MI03106|LUCEY, RICHARD E|REF|2002|MI|H|C|C00382762|42.794914|-85.55091|49316|ALASKA|MI
H2MI03114|LYNNES, KATHRYN DIANTHA|DEM|2002|MI|H|C|C00379503|42.988566307692295|-85.5972746923077|49504|GRAND RAPIDS|MI
H2MI04021|SMITH, NICK|REP|2004|MI|H|I|C00265157|41.992765|-84.3329|49220|ADDISON|MI
H2MI04229|CHIA, JR., AL|LIB|2004|MI|H|C||43.42090159999999|-83.9961826|48603|SAGINAW|MI
H2MI05051|BARCIA, JAMES A|DEM|2002|MI|H|C|C00269506|43.64288133333333|-83.909409|48707|BAY CITY|MI
H2MI05085|MOFFITT, THOMAS|REP|2002|MI|H|C|C00374827|43.00962215789474|-83.71120415789473|48504|FLINT|MI
H2MI05101|MIKKELSON, HARLEY GENE|GRE|2002|MI|H|C|C00381111|43.490117|-83.3881|48723|CARO|MI
H2MI06042|SHUGARS, DALE L|REP|2002|MI|H|C|C00371237|42.19970333333333|-85.59837799999998|49024|PORTAGE|MI
H2MI06059|HAM, GLORIA KRUEGER|REP|2002|MI|H|C|C00377358|42.2845357|-85.5707457|49048|KALAMAZOO|MI
H2MI06067|GIGUERE, JR., GARY C.|DEM|2002|MI|H|C|C00379743|42.216541|-85.61773|49024|WEST PORTAGE|MI
H2MI07073|PROCTOR, KEN|LIB|2004|MI|H|O||42.580076|-84.8228|48813|CHARLOTTE|MI
H2MI07081|SIMPSON, MICHAEL ANTHONY|DEM|2002|MI|H|C|C00376772|41.992765|-84.3329|49220|ADDISON|MI
H2MI08063|MANGOPOULOS, JOHN|UST|2004|MI|H|O||42.650656|-84.39571649999999|48864|OKEMOS|MI
H2MI08071|MCALPINE, FRANK DOUGLAS|DEM|2002|MI|H|C|C00382259|42.6991935|-84.4468445|48823|EAST LANSING|MI
H2MI08089|TIRRELL, STEPHEN ALAN|DEM|2002|MI|H|C|C00378513|42.67509583333333|-84.52129325|48912|LANSING|MI
H2MI09095|FINK, DAVID HOWARD|DEM|2002|MI|H|C|C00368340|42.5922585|-83.383285|48324|WEST BLOOMFIELD|MI
H2MI09103|SCHUBRING, ROBERT|LIB|2004|MI|H|C||42.58454042857142|-83.16261371428571|48084|TROY|MI
H2MI10069|SWITALSKI, MICHAEL NORBERT|DEM|2002|MI|H|O|C00366831|42.503285|-82.93851|48066|ROSEVILLE|MI
H2MI10077|MARLINGA, CARL J|DEM|2002|MI|H|O|C00368217|42.600528000000004|-83.005385|48314|STERLING HEIGHTS|MI
H2MI11042|KNOLLENBERG, JOSEPH K|REP|2004|MI|H|I|C00266767|42.55582033333334|-83.22913|48073|ROYAL OAK|MI
H2MI11083|HAGERTY, DAVID C|REP|2002|MI|H|O|C00376723|42.310112000000004|-83.47488000000001|48188|CANTON|MI
H2MI11091|KELLEY, KEVIN|DEM|2002|MI|H|O|C00377564|42.4028605|-83.29651|48239|REDFORD|MI
H2MI12081|DEAN, HARVEY RICHARD|REP|2002|MI|H|C|C00373928|42.52000842857142|-83.00544057142858|48093|WARREN|MI
H2MI12099|FRANGIE, CHARLES|REP|2002|MI|H|C|C00375493|42.603172|-82.94459|48038|CLINTON TWP|MI
H2MI12115|FUNDARSKI, MARIO NESR (MARIO FUNDARO)|DEM|2004|MI|H|C||42.47835725|-83.48105875|48376|NOVI|MI
H2MI15092|STEMPFLE, GREGORY|LIB|2004|MI|H|C||42.306537500000005|-83.271595|48125|DEARBORN HEIGHTS|MI
H2MI17023|LEVIN, SANDER|DEM|2004|MI|H|I|C00156612|42.55582033333334|-83.22913|48067|ROYAL OAK|MI
H2MN01108|ANDREASEN, STEVEN PETER|DFL|2002|MN|H|C|C00374785|44.01889066666667|-92.47794083333332|55901|ROCHESTER|MN
H2MN01116|RASMUSSEM, TODD A|DEM|2002|MN|H|C|C00376095|44.033867|-91.65106|55987|WINONA|MN
H2MN01124|MIKKELSON, GREGORY|GRE|2004|MN|H|C|C00380436|44.128212|-94.23883|56055|LAKE CRYSTAL|MN
H2MN04078|BILLINGTON, CLYDE EUGENE JR|REP|2002|MN|H|C|C00369314|45.010632|-93.01845|55109|MAPLEWOOD|MN
H2MN04086|CARDINAL, ROBERT J|IND|2004|MN|H|C|C00403873|45.010632|-93.01845|55109|MAPLEWOOD|MN
H2MN05117|DAVIS, TIMOTHY A|GRE|2002|MN|H|C|C00380444|44.988124797101456|-93.35478904347828|55412|MINNEAPOLIS|MN
H2MN05125|MATHIAS, DANIEL JOHN NIELSEN|REP|2004|MN|H|C|C00380881|44.988124797101456|-93.35478904347828|55417|MINNEAPOLIS|MN
H2MN06073|LUTHER, BILL|DEM|2004|MN|H|C|C00165449|44.988124797101456|-93.35478904347828|55445|Minneapolis|MN
H2MN06156|REICHOW, DAVID PAUL|REP|2002|MN|H|C|C00373167|44.896938|-92.90241|55129|WOODBURY|MN
H2MN06164|ROBERT, JANET M|DEM|2004|MN|H|C|C00378208|45.0377835|-92.904768|55082|STILLWATER|MN
H2MN07014|PETERSON, COLLIN CLARK|DFL|2004|MN|H|I|C00253187|46.871962999999994|-95.76508749999999|56501|DETROIT LAKES|MN
H2MN07063|MONSON, BRADLEY|REP|2002|MN|H|C|C00370429|46.871962999999994|-95.76508749999999|56501|DETROIT LAKES|MN
H2MN08087|STEVENS, DAN|REP|2002|MN|H|C|C00370601|45.897003|-93.29452|55051|MORA|MN
H2MO01153|SCHWADRON, RICHARD|REP|2002|MO|H|C|C00378299|38.688585|-90.44689|63146|ST LOUIS|MO
H2MO02086|HOGAN, JOHN P|IND|2004|MO|H|C||38.72926|-90.65332|63304|ST CHARLES|MO
H2MO02094|MALONEY, DARLA R.|LIB|2004|MO|H|C||38.808583|-90.50687|63301|ST. CHARLES|MO
H2MO03092|BRAM, MICHAEL ROBERT|DEM|2002|MO|H|C|C00375642|38.469953|-90.32161|63129|ST LOUIS|MO
H2MO03100|STEGER, MICHAEL J|REP|2002|MO|H|C|C00376079|38.549452|-90.32525|63123|ST LOUIS|MO
H2MO03118|ENZ, CATHERINE S|REP|2002|MO|H|C|C00376954|38.549452|-90.32525|63123|ST LOUIS|MO
H2MO05154|LEA, JOYCE PADGETT|REP|2002|MO|H|C|C00377796|39.095393654320986|-94.49784748148147|64112|KANSAS CITY|MO
H2MO05329|ZAPIEN-PINA, ANNALISA|REP|2004|MO|H|O|C00380188|39.095393654320986|-94.49784748148147|64141|KANSAS CITY|MO
H2MO06103|BAILEY, JEFF|DEM|2004|MO|H|O||39.202654|-94.51816|64119|GLADSTONE|MO
H2MO06160|RINEHART, CATHY|DEM|2002|MO|H|C|C00377762|39.270638999999996|-94.41187533333334|64068|LIBERTY|MO
H2MO06178|BUCK, ERIK|LIB|2004|MO|H|O||39.270638999999996|-94.41187533333334|64068|LIBERTY|MO
H2MO09115|DEICHMAN, DONALD M|DEM|2002|MO|H|C|C00376731|39.249616|-91.64872|63352|LADDONIA|MI
H2MS01064|BLACKBURN, BRENDA|REF|2002|MS|H|C|C00376475|31.325437|-89.37926|39402|HARRIESBURG|MS
H2MS02096|LESUEUR, CLINTON B|REP|2004|MS|H|C|C00394304|33.3755955|-90.9987025|38704|GREENVILLE|MS
H2MS02104|IRVIN, GEORGE E SR|DEM|2002|MS|H|C|C00374140|32.30845729411766|-90.2704443235294||JACKSON|MS
H2MS03060|GRANTHAM, CARROLL B|REF|2002|MS|H|C|C00376293|31.247335500000005|-89.3209818333333|39404|HATTIESBURG|MS
H2MS03086|GILES, JIM|IND|2002|MS|H|C|C00381830|32.30845729411766|-90.2704443235294|39288|JACKSON|MS
H2MS04159|HUFFMASTER, THOMAS RANDOLPH|REF|2002|MS|H|C|C00376277|31.247335500000005|-89.3209818333333|39404|HATTIESBURG|MS
H2MS05040|O'HARA, SHAWN RICHARD|REF|2004|MS|H|C|C00399139|31.247335500000005|-89.3209818333333|39404|HATTIESBURG|MS
H2NC01065|CLAYTON, EVA MCPHERSON|DEM|2000|NC|H|C|C00257543|36.451785|-77.90383|27850|LITTLETON|NC
H2NC01081|JONES, WALTER B|REP|2004|NC|H|I|C00305052|35.598204|-77.59066|27828|FARMVILLE|NC
H2NC01131|BALLANCE, FRANK W JR|DEM|2004|NC|H|I|C00372300|36.378439|-78.13903|27589|WARRENTON|NC
H2NC01149|DAVIS, SAMUEL SYKES III|DEM|2004|NC|H|O|C00373233|36.28786866666667|-76.23517199999999|27909|ELIZABETH CITY|NC
H2NC01156|COLE, JANICE MCKENZIE|DEM|2002|NC|H|O|C00373274|36.157292|-76.4275|27944|HERTFORD|NC
H2NC01164|FITCH, CHRISTINE L.|DEM|2002|NC|H|O|C00379552|35.72992725|-77.9256335|27893|WILSON|NC
H2NC01172|DORITY, GREG|REP|2004|NC|H|O|C00401042|35.560439|-77.03459|27889|WASHINGTON|NC
H2NC01180|RUFF, MIKE|LIB|2002|NC|H|C|C00380915|35.591056|-77.371126|27858|GREENVILLE|NC
H2NC02147|ELLEN, JOSEPH L|REP|2002|NC|H|C|C00377929|35.41080133333333|-79.19497233333334|27330|SANFORD|NC
H2NC04069|NGUYEN, TUAN A.|REP|2002|NC|H|C|C00382945|35.7855464|-78.7732802|27611|CARY|NC
H2NC05074|BURR, RICHARD|REP|2002|NC|H|C|C00256115|36.027482|-80.20728|27113|Winston-Salem|NC
H2NC05116|CRAWFORD, DAVID RUDOLF|DEM|2002|NC|H|C|C00380147|36.49376|-80.62336|27030|MT AIRY|NC
H2NC06015|BRITT, CHARLES ROBIN SR|DEM|2002|NC|H|O|C00374207|36.0831189642857|-79.93603567857141|27408|GREENSBORO|NC
H2NC08102|KOURI, CHRISTOPHER HENRY|DEM|2004|NC|H|C|C00370460|35.24106722077923|-80.81472076623379|28205|CHARLOTTE|NC
H2NC08110|RICHARDSON, WILLIAM ODUM|DEM|2002|NC|H|C|C00372151|35.05378755555555|-78.91604177777778|28314|FAYETTEVILLE|NC
H2NC08128|WARREN, RAYMOND A|DEM|2002|NC|H|C|C00369587|35.24106722077923|-80.81472076623379|28236|CHARLOTTE|NC
H2NC08136|HELMS, WILLIAM FRANKLIN III|DEM|2002|NC|H|C|C00376715|34.99317966666666|-80.552321|28111|MONROE|NC
H2NC10041|DAUGHERTY, RONALD TYLER|DEM|2002|NC|H|C|C00371955|35.7467045|-81.705771|28655|MORGANTON|NC
H2NC12021|WATT, MELVIN L|DEM|2004|NC|H|I|C00260604|35.24106722077923|-80.81472076623379|28202|CHARLOTTE|NC
H2NC12138|KISH, JEFFREY BRYANT|REP|2002|NC|H|C|C00371294|35.24106722077923|-80.81472076623379|28212|CHARLOTTE|NC
H2NC12146|HOLLEY, KIMBERLY ANN|DEM|2002|NC|H|C|C00379701|35.24106722077923|-80.81472076623379|28269|CHARLOTTE|NC
H2NC13029|MILLER, RALPH BRADLEY|DEM|2004|NC|H|I|C00371211|35.81289577777778|-78.63090008888891|27605|Raleigh|NC
H2NC13037|DAVIS, EGBERT LAWRENCE III|DEM|2002|NC|H|O|C00371310|35.81289577777778|-78.63090008888891|27608|RALEIGH|NC
H2NC13045|"ANSLEY, JAMES RONALD ""RONNIE"""|DEM|2002|NC|H|O|C00372581|35.972324|-78.486582|27587|WAKE FOREST|NC
H2NC13052|GRANT, CAROLYN W|REP|2002|NC|H|O|C00373324|35.81289577777778|-78.63090008888891|27612|RALEIGH|NC
H2NC13060|MARTIN, WILLIAM NELSON|DEM|2002|NC|H|O|C00374686|36.0831189642857|-79.93603567857141|27420|GREENSBORO|NC
H2NC13078|BOYD, GRAHAM|REP|2004|NC|H|O|C00375550|35.81289577777778|-78.63090008888891|27614|RALEIGH|NC
H2NC13086|SMITH, PAUL WAYNE|REP|2002|NC|H|C|C00381764|35.81289577777778|-78.63090008888891|27612|RALEIGH|NC
H2ND00057|POMEROY, EARL RALPH|DEM|2004|ND|H|I|C00266619|46.877277285714285|-100.68709442857143|58502|BISMARCK|ND
H2ND00081|CLAYBURGH, RICK|REP|2002|ND|H|C|C00372631|46.877277285714285|-100.68709442857143|58502|BISMARCK|ND
H2NE02017|SIMON, JAMES ROBERT|DEM|2002|NE|H|C|C00373548|41.27046787755102|-96.0905979591837|68132|OMAHA|NE
H2NE02033|PATERSON, DOUGLAS LISTER|GRE|2002|NE|H|C|C00377440|41.27046787755102|-96.0905979591837|68104|OMAHA|NE
H2NH00017|CAHILL, WILLIAM P|REP|2002|NH|H|O|C00366260|42.97778|-70.83055|03862|NORTH HAMPTON|NH
H2NH01122|MAHONEY, SEAN|REP|2002|NH|H|O|C00370320|43.0044378|-71.0327208|03801|PORTSMOUTH|NH
H2NH01130|BRADLEY, JOSEPH E MR III|REP|2004|NH|H|I|C00371021|43.596233|-71.19552|03894|WOLFEBORO|NH
H2NH01148|WENDELBOE, FRANCINE|REP|2002|NH|H|O|C00372870|43.60768|-71.64372|03256|NEW HAMPTON|NH
H2NH01155|HOFFMAN, GARY|REP|2002|NH|H|O|C00376061|42.942551|-71.51993|03110|BEDFORD|NH
H2NH01163|STEPHEN, JOHN|REP|2002|NH|H|O|C00377127|42.97060722222222|-71.541694|03104|MANCHESTER|NH
H2NH01171|BARROWS, WAYNE|REP|2002|NH|H|O|C00377655|42.973783|-70.97665|03833|EXETER|NH
H2NH02138|DOUGLASS, EUGENE F|REP|2004|NH|H|C|C00372250|43.255295000000004|-71.58903475|03303|CONCORD|NH
H2NH02146|SWETT, KATRINA|DEM|2002|NH|H|C|C00376780|43.144614|-71.53576|03304|BOW|NH
H2NJ00015|MCCANN, JOHN|REP|2002|NJ|H|C|C00371682|40.92169|-73.96482|07670|TENAFLY|NJ
H2NJ02037|LOBIONDO, FRANK A.|REP|2004|NJ|H|I|C00269340|39.342299|-74.48192|08406|Ventnor|NJ
H2NJ02094|FARKAS, STEVEN A|DEM|2002|NJ|H|C|C00382788|39.471263|-74.502457|08205|SMITHVILLE|NJ
H2NJ04116|BRENNAN, MARY SIOBHAN|DEM|2002|NJ|H|C|C00377408|40.14821|-74.65125|08515|CROSSWICKS|NJ
H2NJ05014|FRELINGHUYSEN, RODNEY P|REP|2004|NJ|H|I|C00299404|40.8266405|-74.52123125|07960|MORRISTOWN|NJ
H2NJ05022|SCOLLO, JOHN P.|DEM|2000|NJ|H|C|C00363465|41.014497|-74.33021|07403|BLOOMINGDALE|NJ
H2NJ05188|RUSSO, DAVID C|REP|2002|NJ|H|O|C00370544|40.9660255|-74.0988055|07450|RIDGEWOOD|NJ
H2NJ05196|CARDINALE, GERALD|REP|2002|NJ|H|O|C00371153|40.955603|-73.96044|07627|DEMAREST|NJ
H2NJ05238|YOSRI, AKRAM|REP|2002|NJ|H|O|C00373183|40.32315|-74.78364|08534|UPPER SADDLE RIVER|NJ
H2NJ05246|SUMERS, ANNE RICKS|DEM|2002|NJ|H|O|C00373654|41.054568|-74.09616|07458|UPPER SADDLE|NJ
H2NJ05261|CINO, MICHAEL J.|REP|2004|NJ|H|C||40.955603|-73.96044|07627|DEMAREST|NJ
H2NJ06053|SMITH, ROBERT G|DEM|2002|NJ|H|C|C00303552|40.4926805|-74.439142|08854|PISCATAWAY|NJ
H2NJ06145|MEDROW, RIC|REP|2002|NJ|H|C|C00377895|40.5142444|-74.38633580000001|08817|EDISON|NJ
H2NJ06160|LYDEN, MAC DARA FRANCIS X.|OTH|2004|NJ|H|C||40.410213|-74.11718|07748|MIDDLETOWN|NJ
H2NJ07127|ROSS, TYRONE CASS|DEM|2002|NJ|H|C|C00376368|40.690076|-74.33149599999999|07901|SUMMIT|NJ
H2NJ07143|CARDEN, TIMOTHY|DEM|2002|NJ|H|C|C00375626|40.707505|-74.65657|07977|PEAPACK|NJ
H2NJ09099|GLASS, JOSEPH|REP|2002|NJ|H|C|C00379941|40.919509|-74.0471905|07666|TEANECK|NJ
H2NJ10121|WIRTZ, ANDREW B H|REP|2002|NJ|H|C|C00377077|40.729075615384616|-74.06528215384614|07305|JERSEY CITY|NJ
H2NJ11095|PAWAR, VIJAYANT|DEM|2002|NJ|H|C|C00377838|40.8266405|-74.52123125|07960|MORRISTOWN|NJ
H2NJ12044|MAYER, CARL J|GRE|2000|NJ|H|C|C00314799|40.3244262|-74.6770994|08540|PRINCETON|NJ
H2NJ12085|SOARIES, DEFOREST B JR|REP|2002|NJ|H|C|C00372920|40.591653|-74.31341|07067|COLONIA|NJ
H2NJ12101|ABRAMS, THOMAS D.|LIB|2004|NJ|H|C||40.449171|-74.84979|08551|RINGOES|NJ
H2NJ13075|MENENDEZ, ROBERT|DEM|2004|NJ|H|I|C00264564|40.744851|-74.03294|07030|HOBOKEN|NJ
H2NM01086|ROMERO, RICHARD M.|DEM|2004|NM|H|C|C00372169|35.07455360000001|-106.63356884444445|87103|Albuquerque|NM
H2NM02084|ANDERSON, PHELPS|REP|2002|NM|H|O|C00366583|33.378525|-104.50890249999999|88201|ROSWELL|NM
H2NM02092|MARTINEZ, LEO|REP|2002|NM|H|O|C00370627|33.340267|-105.679846|88355|RUIDOSO|NM
H2NM02100|SMITH, JOHN ARTHUR|DEM|2002|NM|H|O|C00371260|32.231419|-107.72662|88031|DEMING|NM
H2NM02118|GREER, CLIFTON EARL|REP|2002|NM|H|O|C00371807|33.252863|-107.69183|87943|WINSTON|NM
H2NM02126|PEARCE, STEVE|REP|2004|NM|H|I|C00373118|32.7571255|-103.2406|88241|HOBBS|NM
H2NM02134|TINSLEY, EDWARD R|REP|2002|NM|H|O|C00373332|33.722955|-105.41326|88316|CAPITAN|NM
H2NM02159|SMITH, RUBEN ARMANDO|DEM|2002|NM|H|O|C00374272|32.31777466666667|-106.78557255555558|88005|LAS CRUCES|NM
H2NV01124|MCDONALD, LYNETTE BOGGS|REP|2002|NV|H|C|C00369769|36.06223526153846|-115.10904812307692|89144|LAS VEGAS|NV
H2NV02197|SOUZA, TRAVIS|DEM|2002|NV|H|C|C00378505|39.910358454545445|-119.7081178181818|89503|RENO|NV
H2NV02205|HANSEN, JANINE|IAP|2004|NV|H|C||39.9588056|-119.6668396|89431|SPARKS|NV
H2NV02213|TRAINOR, BRENDAN|LIB|2004|NV|H|C||39.910358454545445|-119.7081178181818|89502|RENO|NV
H2NV03013|HERRERA, DARIO|DEM|2002|NV|H|O|C00367086|36.06223526153846|-115.10904812307692|89120|LAS VEGAS|NV
H2NV03021|O'NEIL, PETE ANTHONY|IND|2002|NV|H|O|C00368514|36.06223526153846|-115.10904812307692|89156|LAS VEGAS|NV
H2NV03047|BUDETICH, MARK JOHN JR|DEM|2004|NV|H|C|C00381350|35.948257999999996|-114.9028005|89005|BOULDER CITY|NV
H2NY00010|VELAZQUEZ, NYDIA M|DEM|2004|NY|H|I|C00271312|40.65091198076924|-73.95300596153847|11231|Brooklyn|NY
H2NY00028|MANNING, PATRICK|REP|2002|NY|H|C|C00367797|41.573253|-73.79347|12533|HOPEWELL JUNCTION|NY
H2NY01042|VILORIA-FISHER, VIVIAN M|DEM|2002|NY|H|C|C00373159||||SETAUKET|NY
H2NY01059|GROSS, FELICIA|DEM|2002|NY|H|C|C00374900|40.953261|-72.8368|11792|WADING RIVER|NY
H2NY01067|BISHOP, TIMOTHY|DEM|2004|NY|H|I|C00375618|40.83469|-73.0386|11738|FARMINGVILLE|NY
H2NY02057|LAZIO, RICK A|REP|2000|NY|H|C|C00323618|40.720746|-73.26614|11718|BRIGHTWATERS|NY
H2NY02065|GARGANO, FRANK|REP|2002|NY|H|C|C00366518|40.821698|-73.37553|11746|DIX HILLS|NY
H2NY03071|BINDER, ALLAN|REP|2002|NY|H|C|C00378455|40.821698|-73.37553|11746|DIX HILLS|NY
H2NY03089|KING, PETER T|REP|2004|NY|H|I|C00272211|40.679752|-73.48959|11783|SEAFORD|NY
H2NY03105|FINZ, STUART LEE|DEM|2002|NY|H|C|C00380501|40.823957|-73.60415|11545|BROOKVILLE|NY
H2NY04053|LEVY, DAVID A|CRV|1994|NY|H|C|C00272971|40.654112|-73.6095|11510|BALDWIN|NY
H2NY04079|FRISA, DANIEL|REP|2002|NY|H|C|C00338608|40.75506299999999|-73.5964896|11590|WESTBURY|NY
H2NY04111|SKORSKI, ALAN|REP|2002|NY|H|C|C00368118|40.6949|-73.65394|11552|WEST HEMPSTEAD|NY
H2NY04129|O'GRADY, MARILYN F|REP|2004|NY|H|C|C00375071|40.719420400000004|-73.63771339999998|11530|GARDEN CITY|NY
H2NY04137|OGRADY, MARILYN F|UNK|2004|NY|H|C||||||
H2NY04145|IRACE, STEVEN|REP|2002|NY|H|C|C00381335|40.719420400000004|-73.63771339999998|11530|GARDEN CITY|NY
H2NY04152|DERHAM, TIMOTHY B|GRE|2002|NY|H|C|C00381525|40.74498|-73.673774|11002|FLORAL PARK|NY
H2NY05068|FINLEY, JOSEPH P|REP|2002|NY|H|C|C00378596|40.905647|-73.33114|11768|NORTH PORT|NY
H2NY06066|GOLAR, SIMEON|DEM|2004|NY|H|C|C00272955|40.714144|-73.79324|11432|QUEENS|NY
H2NY08088|FARRIN, JAMES|REP|2002|NY|H|C|C00379206|40.76633930120482|-73.97691936746988|10023|NEW YORK|NY
H2NY11017|TOWNS, EDOLPHUS|DEM|2004|NY|H|I|C00197285|40.65091198076924|-73.95300596153847|11207|BROOKLYN|NY
H2NY12023|OWENS, MAJOR ROBERT|DEM|2004|NY|H|I|C00253047|40.65091198076924|-73.95300596153847|11238|BROOKLYN|NY
H2NY13054|MATTSSON, ARNE|DEM|2002|NY|H|C|C00381103|40.586373071428575|-74.14627007142857|10307|STATEN ISLAND|NY
H2NY14037|MALONEY, CAROLYN B|DEM|2004|NY|H|I|C00273169|40.76633930120482|-73.97691936746988|10128|NEW YORK|NY
H2NY14078|BRAUER, JEFF JACOB|DEM|2002|NY|H|C|C00373878|40.76633930120482|-73.97691936746988|10022|NEW YORK|NY
H2NY14086|SRDANOVIC, ANTON|REP|2004|NY|H|C|C00378935|40.76633930120482|-73.97691936746988|10128|NEW YORK|NY
H2NY15067|FIELDS, JESSIE|IND|2002|NY|H|C|C00382408|40.76633930120482|-73.97691936746988|10025|NEW YORK|NY
H2NY17071|NADLER, JERROLD LEWIS|DEM|2004|NY|H|I|C00290825|40.76633930120482|-73.97691936746988|10023|NEW YORK|NY
H2NY17097|VANDERHOEF, C SCOTT|REP|2002|NY|H|C|C00379826|41.062779|-73.96016|10913|BLAUVELT|NY
H2NY17105|SHANKLIN, ELIZABETH|GRE|2002|NY|H|C|C00379982|40.84928938461538|-73.87575261538461|10463|BRONX|NY
H2NY17113|HOLLAND, JOSEPH H|REP|2002|NY|H|C|C00381079|40.76633930120482|-73.97691936746988|10031|NEW YORK|NY
H2NY19051|SELENDY, JANINE MARY HARDCASTLE|DEM|2004|NY|H|C|C00378877|41.32797|-73.61306|10560|NORTH SALEM|NY
H2NY19069|WRIGHT, JONATHAN M|GRE|2002|NY|H|C|C00380451|41.215541|-73.88543|10520|CROTON-ON-HUDSON|NY
H2NY20075|STOPPENBACH, FRANK|DEM|2002|NY|H|C|C00381426|42.002691|-73.8442|12571|RED HOOK|NY
H2NY21073|REDLICH, WARREN|REP|2004|NY|H|C|C00372490|42.81300672727272|-73.9679959090909|12303|SCHENECTADY|NY
H2NY21081|ROSENSTEIN, CHARLES B.|REP|2002|NY|H|C|C00382614|42.646978|-73.87151|12159|SLINGERLANDS|NY
H2NY22071|HALL, ERIC REED|REP|2002|NY|H|C|C00379412|42.182237|-75.14627|13856|WALTON|NY
H2NY23079|TERRY, RANDALL A|RTL|1998|NY|H|C|C00327825|42.070228|-75.63584|13865|WINDSOR|NY
H2NY24036|MCHUGH, JOHN M|REP|2004|NY|H|I|C00272153|43.73345|-76.054313|13674|PIERREPONT MANOR|NY
H2NY24085|WALRATH, DAVID LANGDON|REP|2004|NY|H|C|C00398958|43.08300033333333|-76.52598466666667|13021|AUBURN|NY
H2NY25017|BOEHLERT, SHERWOOD L|REP|2004|NY|H|I|C00157529|43.067169|-75.28767|13413|NEW HARTFORD|NY
H2NY25058|ALDERSLEY, STEPHANIE RUTH|DEM|2002|NY|H|C|C00380238|43.21979855319149|-77.64726129787233|14622|ROCHESTER|NY
H2NY26080|HINCHEY, MAURICE D.|DEM|2004|NY|H|I|C00272633|41.905558|-74.18413699999999|12402|Kingston|NY
H2NY26114|NARIMAN, AYESHA F|DEM|2002|NY|H|C|C00381772|42.977456|-78.73356|14221|WILLIAMSVILLE|NY
H2NY26122|FALLON, PAUL E|GRE|2002|NY|H|C|C00381087|42.968057|-78.80047|14226|AMHERST|NY
H2NY27070|CROTTY, PETER|DEM|2004|NY|H|O|C00382697|42.86095690909091|-78.84706422727274|14220|BUFFALO|NY
H2NY27088|CASEY, THOMAS P|DEM|2004|NY|H|O|C00388058|42.759917|-78.75294|14127|ORCHARD PARK|NY
H2NY28102|WOJTASZEK, HENRY F|REP|2002|NY|H|C|C00380089|43.048156|-78.86338|14120|NORTH TONAWANDA|NY
H2NY29043|NAAB, WILLIAM R|REP|2002|NY|H|C|C00376160|42.968707|-78.8745|14217|KENMORE|NY
H2NY30041|QUINN, JACK|REP|2004|NY|H|I|C00271171|42.86095690909091|-78.84706422727274|14205|Buffalo|NY
H2OH01137|HARRIS, GREG|DEM|2004|OH|H|C|C00375774|39.16559364383562|-84.49549378082193|45220|CINCINNATI|OH
H2OH02069|STEPHENS, TONY|DEM|2002|OH|H|C|C00376012|39.046079|-83.06459|45661|PIKETON|OH
H2OH02077|CONDIT, JR., JIM|UNK|2004|OH|H|C||39.16559364383562|-84.49549378082193|45247|CINCINNATI|OH
H2OH03067|TURNER, MIKE|REP|2004|OH|H|I|C00373001|39.74654581632654|-84.20972132653061|45402|Dayton|OH
H2OH03075|BROWN, ROY|REP|2002|OH|H|O|C00374223|39.60828|-84.16413|45458|CENTERVILLE|OH
H2OH04032|OXLEY, MICHAEL G|REP|2004|OH|H|I|C00142000|41.015294|-83.648237|45840|FINDLAY|OH
H2OH04123|CLARK, STEVEN J (JIM)|DEM|2002|OH|H|C|C00379172|40.56914|-84.17288|45895|WAPAKONETA|OH
H2OH05013|ANDERSON, ROGER C.|DEM|2002|OH|H|C|C00378463|41.3904345|-83.65347299999999|43402|BOWLING GREEN|OH
H2OH06052|BROWN, CHARLES ROBERT|DEM|2002|OH|H|C|C00375014|40.152615|-80.70789|43971|YORKVILLE|OH
H2OH06060|HALLECK, MIKE|REP|2002|OH|H|C|C00376913|40.898658|-80.86094|44460|SALEM|OH
H2OH07126|SCHAEFER, STEVEN RICHARD|REP|2002|OH|H|C|C00373936|39.808909|-84.01972|45324|FAIRBORN|OH
H2OH07134|ANASTASIO, KARA MARIE|DEM|2004|OH|H|C|C00380162|39.797227|-83.89239|45387|YELLOW SPRINGS|OH
H2OH07159|DODEN, FRANK ARLAN|GRE|2002|OH|H|C|C00378943|39.797227|-83.89239|45387|YELLOW SPRINGS|OH
H2OH08058|HARDENBROOK, JEFF|DEM|2004|OH|H|C|C00375956|39.74654581632654|-84.20972132653061|45403|DAYTON|OH
H2OH09031|KAPTUR, MARCY|DEM|2004|OH|H|I|C00154625|41.6749844857143|-83.52541554285715|43697|TOLEDO|OH
H2OH11144|PAPPANO, PATRICK A.|REP|2002|OH|H|C|C00378869|41.513752|-81.47281|44124|LYNDHURST|OH
