CAND_ID|CAND_NAME|CAND_PTY_AFFILIATION|CAND_ELECTION_YEAR|CAND_ELECTION_STATE|CAND_ELECTION_TYPE|CAND_INCUMBENT_STATUS|CAND_PCC|CAND_LAT|CAND_LONG|CAND_ZIP|CAND_CITY|CAND_STATE
H0AK00097|COX, JOHN ROBERT|REP|2012|AK|H|C|C00525261|59.798363|-151.73566|99556|ANCHOR POINT|AK
H0AL00016|BOZEMAN, MARTHA RENEE|UNK|2010|AL|H|O|C00464040|33.52148017567568|-86.87121170270271|35201|BIRMINGHAM|AL
H0AL01030|GOUNARES, PETER HUNTER|REP|2012|AL|H|C|C00459495|30.291503|-87.56198|36561|ORANGE BEACH|AL
H0AL02087|ROBY, MARTHA|REP|2012|AL|H|I|C00462143|32.293839742857145|-86.24048460000002|36106|MONTGOMERY|AL
H0AL05049|"CRAMER, ROBERT E ""BUD"" JR"|DEM|2008|AL|H||C00239038|34.720885333333335|-86.56898125|35804|HUNTSVILLE|AL
H0AL05155|PHILLIP, LESTER S|REP|2010|AL|H|C|C00462481|34.707268666666664|-86.76429|35758|MADISON|AL
H0AL05163|BROOKS, MO|REP|2012|AL|H|I|C00464149|34.720885333333335|-86.56898125|35802|HUNTSVILLE|AL
H0AL05189|SHEPARD, TAZEWELL|DEM|2010|AL|H|C|C00477026|34.720885333333335|-86.56898125|35801|HUNTSVILLE|AL
H0AL05197|RABY, STEPHEN WALKER|DEM|2010|AL|H|C|C00478297|34.90267|-86.71367|35773|TOREY|AL
H0AL06088|COOKE, STANLEY KYLE|REP|2010|AL|H|C|C00464222|33.77109|-86.80672|35091|KIMBERLY|AL
H0AL07060|DAVIS, ARTUR GENESTRE|DEM|2010|AL|H|C|C00347872|33.52148017567568|-86.87121170270271|35201|BIRMINGHAM|AL
H0AL07086|SEWELL, TERRYCINA ANDREA|DEM|2012|AL|H|I|C00458976|33.52148017567568|-86.87121170270271|35201|BIRMINGHAM|AL
H0AL07094|HILLIARD, EARL FREDERICK JR|DEM|2010|AL|H|O|C00460410|33.52148017567568|-86.87121170270271|35202|BIRMINGHAM|AL
H0AL07177|CHAMBERLAIN, DON|REP|2012|AL|H|C|C00482059|32.42272366666666|-87.046876|36701|SELMA|AL
H0AL07185|SALTER, CHRIS|REP|2010|AL|H|O|C00482091|33.52148017567568|-86.87121170270271|35206|BIRMINGHAM|AL
H0AR01083|CRAWFORD, ERIC ALAN RICK|REP|2012|AR|H|I|C00462374|35.81646325|-90.696573|72404|JONESBORO|AR
H0AR01091|GREGORY, JAMES CHRISTOPHER|DEM|2010|AR|H|O|C00472126|35.810466500000004|-89.9422445|72315|BLYTHEVILLE|AR
H0AR01109|CAUSEY, CHAD|DEM|2010|AR|H|O|C00475384|35.81646325|-90.696573|72401|JONESBORO|AR
H0AR01117|WOOLRIDGE, TYMOTHE (TIM) LYNN|DEM|2010|AR|H|O|C00476432|36.076593|-90.51728733333334|72450|PARAGOULD|AR
H0AR01125|SMITH, PRINCELLA D|REP|2010|AR|H|O|C00480905|35.229779|-90.83237|72396|WYNNE|AR
H0AR01133|COOK, DAVID RAY|DEM|2010|AR|H|O|C00477554|36.279796|-91.37245|72482|WILLIFORD|AR
H0AR01141|BRYLES, STEVE MARK|DEM|2010|AR|H|O|C00477570|35.810466500000004|-89.9422445|72316|BLYTHEVILLE|AR
H0AR02107|GRIFFIN, JOHN TIMOTHY|REP|2012|AR|H|I|C00468116|34.757797833333335|-92.34247691666667|72217|LITTLE ROCK|AR
H0AR02115|WALLACE, SCOTT|REP|2010|AR|H|O|C00468934|34.757797833333335|-92.34247691666667|72223|LITTLE ROCK|AR
H0AR02123|WILLS, ROBERT DALE JR|DEM|2010|AR|H|O|C00474700|35.090174000000005|-92.39706650000001|72034|CONWAY|AR
H0AR02131|ELLIOTT, JOYCE ANN|DEM|2010|AR|H|O|C00475764|34.757797833333335|-92.34247691666667|72204|LITTLE ROCK|AR
H0AR02149|ADAMS, JOHN|DEM|2010|AR|H|O|C00477380|34.757797833333335|-92.34247691666667|72201|LITTLE ROCK|AR
H0AR02156|BOLING, DAVID ALAN|DEM|2010|AR|H|O|C00477315|34.757797833333335|-92.34247691666667|72225|LITTLE ROCK|AR
H0AR02164|KENNEDY, PATRICK|DEM|2010|AR|H|O|C00478628|34.757797833333335|-92.34247691666667|72202|LITTLE ROCK|AR
H0AR03022|SKOCH, BERNARD KURT 'BERNIE'|REP|2010|AR|H|O||35.970492|-93.94296|72727|ELKINS|AR
H0AR03030|WHITAKER, DAVID JEFFREY|DEM|2010|AR|H|O|C00468033|36.05964325|-94.17956425|72702|FAYETTEVILLE|AR
H0AR03048|MADDOX, KURT E|REP|2010|AR|H|O|C00476465|36.412233|-94.45226|72736|GRAVETTE|AR
H0AR03055|WOMACK, STEVE|REP|2012|AR|H|I|C00477745|36.340277333333326|-94.111093|72756|ROGERS|AR
H0AR03063|BLEDSOE, CECILE H|REP|2010|AR|H|O|C00478172|36.340277333333326|-94.111093|72756|ROGERS|AR
H0AR03071|MOORE, MIKE C|REP|2010|AR|H|O|C00477901|36.2960985|-93.108002|72601|HARRISON|AR
H0AR03089|LOWRY, STEVE MR.|REP|2010|AR|H|O|C00480095|36.107078|-94.11592|72703|FAYETTEVILLE|AP
H0AR03097|MATAYO, DOUG|REP|2010|AR|H|O|C00478727|36.133759250000004|-94.16884725|72762|SPRINGDALE|AR
H0AR04038|ROSS, MICHAEL AVERY|DEM|2012|AR|H|I|C00345710|33.806886|-93.36595|71857|PRESCOTT|AR
H0AR04079|RANKIN, BETH ANNE|REP|2012|AR|H|O|C00478636|33.2460895|-93.217115|71753|MAGNOLIA|AR
H0AS00018|FALEOMAVAEGA, ENI|DEM|2012|AS|H|I|C00231092|38.89531540217391|-77.01958254710144|20026|WASHINGTON|DC
H0AZ01184|FLAKE, JEFF MR.|REP|2012|AZ|H|I|C00347260|33.38321239999999|-111.85587515|85205|MESA|AZ
H0AZ01259|GOSAR, PAUL ANTHONY|REP|2012|AZ|H|I|C00461806|32.972634|-111.3211675|85132|FLORENCE|AZ
H0AZ01267|BEAUCHAMP, BRADLEY DON|REP|2010|AZ|H|C|C00463885|33.421919|-110.81268|85502|GLOBE |AZ
H0AZ01275|BOWERS, RUSSELL WESLEY|REP|2010|AZ|H|C|C00467506|33.28591|-111.11015|85173|SUPERIOR|AZ
H0AZ01283|MEHTA, STEVE|REP|2010|AZ|H|C|C00474940|34.2847595|-110.0359725|85901|SHOW LOW|AZ
H0AZ01333|GRESSLEY, FORREST DAYL|REP|2010|AZ|H|C|C00481267|33.31612320000001|-111.84427620000001|85296|GILBERT|AZ
H0AZ02141|BLACK, CHARLES ROLAND|REP|2012|AZ|H|C|C00474528|35.261249500000005|-114.00795049999999|86401|KINGMAN|AZ
H0AZ03248|SCHARER, GENE PAUL|DEM|2012|AZ|H|C|C00518381|33.354418|-112.56941|85396|BUCKEYE|AZ
H0AZ03305|HULBURD, JON|DEM|2010|AZ|H|O|C00468686|33.406690705128206|-112.12873824358972|85018|PHOENIX|AZ
H0AZ03321|PARKER, VERNON|REP|2012|AZ|H|C|C00474916|33.544596|-111.95645|85253|PARADISE VALLEY|AZ
H0AZ03339|GORMAN, PAMELA DIANE|REP|2010|AZ|H|O|C00474056|33.831866|-112.06339|85086|ANTHEM|AZ
H0AZ03354|MORRIS, PAULINA VASQUEZ|REP|2010|AZ|H|O|C00475806|33.406690705128206|-112.12873824358972|85001|PHOENIX|AZ
H0AZ03362|QUAYLE, BEN|REP|2012|AZ|H|I|C00475863|33.406690705128206|-112.12873824358972|85028|PHOENIX|AZ
H0AZ03388|BRANCH, ROBERT ALLEN|REP|2010|AZ|H|O|C00478156|33.406690705128206|-112.12873824358972|85053|PHOENIX|AZ
H0AZ03396|MOAK, STEVEN CARL|REP|2010|AZ|H|O|C00478453|33.544596|-111.95645|85253|PARADISE VALLEY|AZ
H0AZ03404|SCOTT, BRIAN ALAN|IND|2010|AZ|H|O|C00478735|33.406690705128206|-112.12873824358972|85053|PHOENIX|AZ
H0AZ03412|BAKER, SCOTT|REP|2010|AZ|H|O|C00480053|33.406690705128206|-112.12873824358972|85022|PHOENIX|AZ
H0AZ04485|HILL, BRIAN|IND|2010|AZ|H|C|C00472068|33.406690705128206|-112.12873824358972|85005|PHOENIX|AZ
H0AZ04493|CONTRERAS, JANET L|REP|2010|AZ|H|C|C00474007|33.406690705128206|-112.12873824358972|85041|PHOENIX|AZ
H0AZ04501|PENALOSA, JOSE|IND|2012|AZ|H|C|C00485995|33.406690705128206|-112.12873824358972|85012|PHOENIX|AZ
H0AZ05078|WARD, JIM|REP|2010|AZ|H|C|C00462432|33.5084924375|-111.962746125|85255|SCOTTSDALE|AZ
H0AZ05086|WNUCK, ERIC|REP|2010|AZ|H|C|C00468694|33.5084924375|-111.962746125|85260|SCOTTSDALE|AZ
H0AZ05094|SMITH, JEFFREY W|REP|2010|AZ|H|C|C00471730|33.31612320000001|-111.84427620000001|85234|GILBERT|AZ
H0AZ05102|SALVINO, CHRIS|REP|2010|AZ|H|C|C00471912|33.5084924375|-111.962746125|85255|SCOTTSDALE|AZ
H0AZ05110|SPINKS, MARK VINCENT|REP|2010|AZ|H|C|C00474866|33.406690705128206|-112.12873824358972|85045|PHOENIX|AZ
H0AZ05128|HILL, JONATHON RYAN|REP|2010|AZ|H|C|C00481028|33.363527500000004|-111.994716625|85281|TEMPE|AZ
H0AZ06043|KELSEY, EASTON CLINT|REP|2010|AZ|H|C|C00472746|33.31612320000001|-111.84427620000001|85297|GILBERT|AZ
H0AZ07017|MCCLUNG, RUTH CRAWFORD|REP|2010|AZ|H|C|C00462309|32.15193782692308|-111.18440194230767|85745|TUCSON|AZ
H0AZ07025|MYERS, TERRY LON|REP|2010|AZ|H|C|C00481069|32.15193782692308|-111.18440194230767|85745|TUCSON|AZ
H0AZ07033|FLOWERS, CHRISTOPHER JOHN|REP|2012|AZ|H|C||33.426423|-112.28299|85353|TOLLESON|AZ
H0AZ08015|KELLY, JESSE|REP|2012|AZ|H|C|C00460808|32.15193782692308|-111.18440194230767|85743|TUCSON|AZ
H0AZ08031|MILLER, BRIAN ALLAN|REP|2010|AZ|H|C|C00462721|32.15193782692308|-111.18440194230767|85708|TUCSON|AZ
H0AZ08056|PATON, JONATHAN|REP|2012|AZ|H|C|C00474270|32.15193782692308|-111.18440194230767|85710|TUCSON|AZ
H0CA00074|SHAH, JAYENDRA ARVINDLAL DR|IND|2012|CA|H|C|C00476937|33.79097913793104|-118.20857620689657|90803|LONG BEACH|CA
H0CA00082|PORTANTINO, ANTHONY|DEM|2012|CA|H|C|C00479188|33.94396584158416|-118.29928288118809|90071|LOS ANGELES|CA
H0CA00090|RAY, EUGENE|REP|2012|CA|H|C|C00479287|38.35783266666667|-121.95119133333333|95688|VACAVILLE|CA
H0CA00108|COTTON, STANLEY S|DEM|2010|CA|H|C|C00480624|33.647287|-115.65742900000001|92270|RANCHO MIRAGE|CA
H0CA01148|HANKS, LOREN L|REP|2010|CA|H|C|C00481440|38.277661|-121.9192|94536|TRAVIS AFB|CA
H0CA02120|STIGLICH, PETER VINCENT|REP|2012|CA|H|C|C00509208|40.373127999999994|-122.3075895|96022|COTTONWOOD|CA
H0CA02138|REED, JAMES E|DEM|2012|CA|H|C|C00502146|41.056097|-121.49021|96028|FALL RIVER MILLS|CA
H0CA03078|BERA, AMERISH|DEM|2012|CA|H|C|C00461061|38.401637|-121.41391633333335|95758|ELK GROVE|CA
H0CA03110|FAVIS, STEVE DONALD|IND|2010|CA|H|C|C00483008|38.639353|-121.327117|95608|CARMICHAEL|CA
H0CA04134|CURTIS, CLINT|DEM|2010|CA|H|C|C00475566|38.49198325|-121.3387495|95670|RANCHO CORDOVA|CA
H0CA04142|BABICH, MICHAEL|REP|2010|CA|H|C|C00478461|38.997576333333335|-120.90238733333335|95603|AUBURN|CA
H0CA04159|EMERY, BENJAMIN 'BEN'|GRE|2010|CA|H|C|C00490581|39.299405|-120.95144|95959|NEVADA CITY|CA
H0CA05073|SMITT, ERIK|REP|2012|CA|H|O|C00478651||||SACRAMENTO|
H0CA06121|ROBERTS, DANIEL |REP|2012|CA|H|O|C00502781|37.892476|-122.47541|94920|TIBURON|CA
H0CA07103|TUBBS, RICHARD STEPHEN II|REP|2012|CA|H|C|C00503334|38.35783266666667|-121.95119133333333|95687|VACAVILLE|CA
H0CA07111|FITZGERALD, JOHN|DEM|2012|CA|H|C|C00516591|37.8959565|-121.985046875|94518|CONCORD|CA
H0CA08069|DENNIS, JOHN|REP|2012|CA|H|C|C00515932||||SAN FRANCISCO|
H0CA08077|SHIELDS, SUMMER J|DEM|2012|CA|H|C|C00471680|37.77660142253521|-122.6107330704225|94107|SAN FRANCISCO|CA
H0CA10073|DESAULNIER, MARK|DEM|2010|CA|H|C|C00460162|37.8959565|-121.985046875|94524|CONCORD|CA
H0CA10115|VANGUNDY, GINO|UNK|2009|CA|H|O|C00461392|38.257712999999995|-122.0694635||FAIRFIELD|CA
H0CA10123|HARMER, DAVID|REP|2010|CA|H|C|C00461657|37.75735|-121.95213|94582|SAN RAMON|CA
H0CA10131|ATTWOOD, TIFFANY|DEM|2010|CA|H|C|C00461947|37.807869999999994|-121.94924499999999|94526|DANVILLE|CA
H0CA10149|GARAMENDI, JOHN|DEM|2012|CA|H|I|C00462697|33.79097913793104|-118.20857620689657|90807|LONG BEACH|CA
H0CA10164|CLOWARD, JEREMY|GRE|2009|CA|H|O|C00463224|37.951672|-122.07317|94523|PLEASANT HILL|CA
H0CA10172|PETERSON, DAVID|DEM|2012|CA|H|C|C00463257|37.77660142253521|-122.6107330704225|94104|SAN FRANCISCO|CA
H0CA10206|TOTH, JOHN RICHARD|REP|2010|CA|H|C|C00464636|37.8959565|-121.985046875|94520|CONCORD|CA
H0CA11022|LANTOS, TOM|DEM|2008|CA|H|C|C00112250|37.4401595|-122.3006875|94070|SAN CARLOS|CA
H0CA11303|GOEHRING, BRAD|REP|2010|CA|H|C|C00463059|38.200193|-121.23505|95220|ACAMPO|CA
H0CA12103|HARDING, JOSEPH MICHAEL|W|2010|CA|H|C|C00490425|37.562385|-122.251078|94494|FOSTER CITY|CA
H0CA13085|GARCIA, LUIS 'COACH'|REP|2010|CA|H|C|C00477562|37.571246200000004|-121.9727576|94538|FREMONT|CA
H0CA13093|JELINCIC, JUSTIN|DEM|2012|CA|H|C|C00481564|37.704761999999995|-122.14641|94577|SAN LEANDRO|CA
H0CA13119|PAREJA, CHRISTOPHER JAMES|UNK|2012|CA|H|C|C00485961|37.674313999999995|-121.881965|94588|PLEASANTON|CA
H0CA14042|DOOLITTLE, JOHN|REP|2008|CA|H|C|C00242768|38.89531540217391|-77.01958254710144|20515|WASHINGTON|DC
H0CA14075|CHAPMAN, DAVE|DEM|2012|CA|H|O||37.336603399999994|-122.0546887|94302|PALO ALTO|CA
H0CA15148|HONDA, MIKE|DEM|2012|CA|H|I|C00351379|37.24389375806454|-121.78056964516126|95112|SAN JOSE|CA
H0CA15171|SIMITIAN, S JOSEPH|DEM|2012|CA|H|C|C00458117|37.256743|-121.92312|95124|SAN JOSE|
H0CA15205|KIRKLAND, SCOTT SPENCER|REP|2010|CA|H|C|C00476770|37.24389375806454|-121.78056964516126|95128|SAN JOSE|CA
H0CA16096|GONZALEZ, EDWARD M|LIB|2010|CA|H|C|C00473983|37.24389375806454|-121.78056964516126|95125|SAN JOSE|CA
H0CA16104|SAHAGUN, DANIEL|REP|2010|CA|H|C|C00484139|37.24389375806454|-121.78056964516126|95131|SAN JOSE|CA
H0CA17110|ARNOLD, GARY RICHARD|REP|2010|CA|H|C|C00479485|36.9761|-121.95316|95010|CAPITOLA|CA
H0CA17151|PETERSEN, ERIC|GRE|2012|CA|H|C||36.561719875|-121.45315925000001|93902|SALINAS|CA
H0CA17169|CHANDLER, WILLIAM THARON|IND|2010|CA|H|C|C00481077|36.9761|-121.95316|95010|CAPITOLA|CA
H0CA17185|KABAT, RONALD P.|NPA|2012|CA|H|C|C00522367|36.53859|-121.91395833333333|93921|CARMEL|CA
H0CA18050|BERRYHILL, MICHAEL CLARE SR|REP|2012|CA|H|O|C00466508|37.584282|-120.95064|95307|CERES|CA
H0CA19082|HERNANDEZ, JOHN S|DEM|2012|CA|H|C|C00511451|36.75393231666668|-119.67922220000001|93722|FRESNO|CA
H0CA19124|MARSDEN, LES|W|2010|CA|H|O|C00459917|37.505484|-119.92527|95338|MARIOPSA |CA
H0CA19132|GOODWIN, LORAINE|DEM|2012|CA|H|C|C00502567|37.02230566666666|-120.03016500000001|93637|MADERA|CA
H0CA19173|DENHAM, JEFF|REP|2012|CA|H|I|C00473272|37.53881366666667|-120.880204|95381|TURLOCK|CA
H0CA20080|MILLER, JOSHUA THOMAS COULSTON|REP|2010|CA|H|C|C00459727|36.201595|-119.81151799999999|93277|HANFORD|CA
H0CA20098|VIDAK, JAMES ANDREW|REP|2010|CA|H|C|C00469312|36.3082346|-119.1683074|93230|VISALIA|CA
H0CA20106|QUINTANAR, SERAFIN|REP|2010|CA|H|C|C00474437|36.75393231666668|-119.67922220000001|93727|FRESNO|CA
H0CA20114|LAKE, RICHARD DAVID GEORGE|REP|2010|CA|H|C|C00473595|36.75393231666668|-119.67922220000001|93720|FRESNO|CA
H0CA23043|KALEMKARIAN, TIMOTHY CHARLES|REP|2012|CA|H|O|C00520742|33.987485666666664|-118.763014|91359|WESTLAKE VILLAGE|CA
H0CA23068|GOLDBERG, ALBERT MAXWELL|DEM|2012|CA|H|O|C00517029|34.168066375|-119.172226|93005|VENTURA|CA
H0CA23092|STOCKDALE, DAVID R|REP|2010|CA|H|C|C00471102|34.9191274|-120.3920556|93455|SANTA MARIA|CA
H0CA23100|DAVIDSON, JOHN|REP|2010|CA|H|C|C00473124|34.144008|-118.94827333333335|91360|THOUSAND OAKS|CA
H0CA23118|WATSON, THOMAS C|REP|2012|CA|H|C|C00478164|34.421895|-119.60084|93067|SUMMERLAND|CA
H0CA23126|VANDEVENTER, CLARK|REP|2010|CA|H|C|C00477869|34.9191274|-120.3920556|93455|SANTA MARIA|CA
H0CA23159|HAGER, JOHN VICTOR|IND|2010|CA|H|C|C00486902|34.35092894117647|-119.79754082352942|93101|SANTA BARBARA|CA
H0CA24108|STERN, SHAWN|DEM|2010|CA|H|C|C00459446|33.93807199999999|-118.30750738461536|91502|BURBANK|CA
H0CA24116|ALLISON, TIMOTHY JAMES|DEM|2010|CA|H|C|C00464347|34.35092894117647|-119.79754082352942|93140|SANTA BARBARA|CA
H0CA26087|MILLER, DAVID LAWRENCE|REP|2012|CA|H|C|C00479956|||||
H0CA26111|BROWN, ROBERT|NNE|2010|CA|H|C|C00485318|34.129726|-117.85592|91740|GLENDORA|CA
H0CA27085|SCHIFF, ADAM|DEM|2012|CA|H|I|C00343871|33.94396584158416|-118.29928288118809|90017|LOS ANGELES|CA
H0CA27101|REED, MARK |REP|2012|CA|H|C|C00462317|34.0239075|-118.30876599999999|91041|SUNLAND|CA
H0CA27119|DARIAN, BRUCE HARRY|FED|2010|CA|H|C|C00477307|33.866314|-118.39968|90254|HERMOSA BEACH|CA
H0CA28091|FROYD, ERIK MERLIN|REP|2010|CA|H|C|C00469361|33.93807199999999|-118.30750738461536|91510|BURBANK|CA
H0CA28109|WORMAN, JENNY|REP|2012|CA|H|C|C00513663|34.090975|-118.3813|90069|W HOLLYWOOD|CA
H0CA28117|VALDEZ, RICHARD|DEM|2012|CA|H|C|C00481895|34.032121000000004|-118.399566|91344|GRANADA HILLS|CA
H0CA29099|COLBERT, JOHN|REP|2010|CA|H|C|C00473850|33.94396584158416|-118.29928288118809|90017|LOS ANGELES|CA
H0CA29107|CUSHING, WILLIAM  (BILL) P|LIB|2010|CA|H|C|C00480079|33.99960307142856|-118.27321657142855||GLENDALE|CA
H0CA30063|DAVID, ARI|REP|2010|CA|H|C|C00464164|33.957579|-118.60462066666666|90265|MALIBU|CA
H0CA30071|FLUTIE, ROBERT A MR|REP|2010|CA|H|C|C00469734|33.94396584158416|-118.29928288118809|90017|LOS ANGELES|CA
H0CA30089|BENNING, DAVID|REP|2012|CA|H|C|C00471128|33.9388468|-118.42330319999999|91367|WOODLAND HILLS|CA
H0CA30097|KOLSKI, CHRIS|REP|2010|CA|H|C|C00478040|33.9921655|-118.473316|91304|WEST HILLS|CA
H0CA30105|WILKERSON, CHARLES EDWARD|REP|2010|CA|H|C|C00478578|33.921313|-118.40843|90245|EL SEGUNDO|CA
H0CA30113|MILLER, ERICH D|LIB|2010|CA|H|C|C00484717|34.032121000000004|-118.399566|91344|GRANADA HILLS|CA
H0CA31087|SOLIS, HILDA|DEM|2008|CA|H||C00346296|33.930122250000004|-118.16264349999999|91731|EL MONTE|CA
H0CA31111|SMITH, STEPHEN CARLTON|REP|2010|CA|H|C|C00478859|33.94396584158416|-118.29928288118809|90041|LOS ANGELES|CA
H0CA32093|HENTSCHEL, NOEL IRWIN|REP|2001|CA|H|C|C00365049|33.94396584158416|-118.29928288118809|90077|LOS ANGELES|CA
H0CA32101|CHU, JUDY|DEM|2012|CA|H|I|C00458125|33.94396584158416|-118.29928288118809|90048|LOS ANGELES|CA
H0CA32127|CEDILLO, GILBERT|DEM|2009|CA|H|O|C00458331|33.93807199999999|-118.30750738461536|91502|BURBANK|CA
H0CA32150|TRUAX, DAVID ALLEN|REP|2009|CA|H|O|C00459537|34.09076266666667|-117.88403000000001|91724|COVINA|CA
H0CA32317|SCARBOROUGH, LARRY DEAN|REP|2009|CA|H|O|C00461319|33.94396584158416|-118.29928288118809|90034|LOS ANGELES|CA
H0CA32325|SCHMERLING, EDWARD |REP|2010|CA|H|O|C00484337|33.98475225|-118.00844049999999|91792|WEST COVINA|CA
H0CA33091|DEGROOT, BENJAMIN|IND|2010|CA|H|O|C00474023|33.94396584158416|-118.29928288118809|90028|LOS ANGELES|CA
H0CA33109|EVANS, MERVIN LEON|DEM|2012|CA|H|C|C00474288|33.94396584158416|-118.29928288118809|90043|LOS ANGELES|CA
H0CA33117|BASS, KAREN|DEM|2012|CA|H|I|C00476523|33.786594|-118.298662|90076|LOS ANGELES |CA
H0CA33133|JENNERJAHN, PHIL|REP|2012|CA|H|C||33.94396584158416|-118.29928288118809|90038|LOS ANGELES|CA
H0CA33141|MONTOYA, LUIS|REP|2010|CA|H|O|C00480327|33.94396584158416|-118.29928288118809|90019|LOS ANGELES|CA
H0CA33174|ANDION, JAMES L|REP|2010|CA|H|O||33.94396584158416|-118.29928288118809|90071|LOS ANGELES|CA
H0CA34099|SANCHEZ, DAVID|DEM|2012|CA|H|C||33.94396584158416|-118.29928288118809|90023|LOS ANGELES|CA
H0CA35112|BROWN, K BRUCE|REP|2010|CA|H|C|C00483560|33.871803|-118.370166|90293|PLAYA DEL REY|CA
H0CA36136|FEIN, MATTIE|REP|2010|CA|H|C|C00470419|33.848364333333336|-118.38336566666665|90278|REDONDO BEACH|CA
H0CA36144|SHARP, ANDREW JAMES|REP|2010|CA|H|C|C00481317|33.79097913793104|-118.20857620689657|90815|LONG BEACH|CA
H0CA37159|PARKER, STAR|REP|2010|CA|H|C|C00479352|33.83372825|-118.26890425|90749|CARSON|CA
H0CA38066|SCHIPSKE, GERRIE|DEM|2008|CA|H|C|C00434977|33.94396584158416|-118.29928288118809|90071|LOS ANGELES|CA
H0CA38116|VAUGHN, ROBERT WILLIAM|REP|2010|CA|H|C|C00482505|33.9637|-118.150251|91016|MONROVIA|CA
H0CA38124|TURNER, TRACY LYNN|IND|2010|CA|H|C|C00481812|33.96983225|-118.373376|91403|SHERMAN OAKS|CA
H0CA39080|ANDRE, LARRY STEVEN|REP|2010|CA|H|C|C00472118|33.835600799999995|-118.1540964|90713|LAKEWOOD|CA
H0CA39098|SMITH, JOHN ALBERT|IND|2010|CA|H|C||33.786594|-118.298662|90637|LAMIRADA|CA
H0CA42167|MCGROARTY, LEE|REP|2010|CA|H|C|C00467563|34.427963500000004|-116.8272105|94710|CHINO|CA
H0CA42175|LIBERATORE, PHILIP LAURENCE|REP|2012|CA|H|C|C00474114|33.86484566666667|-118.10885633333332|90638|LA MIRADA|CA
H0CA42191|LAMBERT, MARK|LIB|2010|CA|H|C||33.622345333333335|-117.692394|92692|MISSION VIEJO|CA
H0CA44130|RIGGS, CHRISTOPHER SCOTT|REP|2010|CA|H|C|C00462937|33.8009454|-116.93921680000001|92882|CORONA|CA
H0CA45053|POUGNET, STEPHEN P|DEM|2012|CA|H|C|C00459842|33.93807199999999|-118.30750738461536|91502|BURBANK|CA
H0CA45061|THIBODEAU, CLAYTON |REP|2012|CA|H|C|C00515924|33.630896|-116.82062566666667|92562|MURRIETA|CA
H0CA46051|LURIE, BARAK|REP|2012|CA|H|C|C00474668|33.94396584158416|-118.29928288118809|90064|LOS ANGELES|CA
H0CA46069|ARNOLD, KENNETH|DEM|2010|CA|H|C|C00475830|33.93807199999999|-118.30750738461536|91502|BURBANK|CA
H0CA47067|TRAN, VAN|REP|2010|CA|H|C|C00461962|33.67734066666666|-117.844268|92683|WESTMINSTER|CA
H0CA47083|IGLESIAS, CECILIA PATRICIA|IND|2010|CA|H|C|C00467845|33.696992|-117.82648636363638|92704|SANTA ANA|CA
H0CA47109|NGUYEN, TAN D|REP|2010|CA|H|C|C00482869|33.100922142857144|-117.04654057142857|92057|OCEANSIDE|CA
H0CA48024|ISSA, DARRELL |REP|2012|CA|H|I|C00350520|33.136608|-117.10179866666665|92085|VISTA|CA
H0CA48032|MORROW, BILL|REP|2006|CA|H|C|C00383885||||LA MESA|
H0CA48131|KROM, BETH|DEM|2010|CA|H|C|C00459735|33.93807199999999|-118.30750738461536|91502|BURBANK|CA
H0CA49055|DAVIS, SUSAN A|DEM|2012|CA|H|I|C00344671|32.89411814814816|-116.99533772839506|92116|SAN DIEGO|CA
H0CA49089|KATZ, HOWARD LOUIS|DEM|2010|CA|H|C|C00471441|33.60166639999999|-116.7035388|92592|TEMECULA|CA
H0CA51036|POPADITCH, NICHOLAS ALLEN|REP|2012|CA|H|C|C00506857|32.78016975|-116.9451885|91910|CHULA VISTA|CA
H0CA52018|BENOIT, MICHAEL|LIB|2012|CA|H|C||32.931869|-116.91793799999999|92071|SANTEE|CA
H0CA52034|LINNELL, TERRI RUTH|REP|2012|CA|H|C|C00477000|33.035844|-116.8513|92065|RAMONA|CA
H0CA52042|LUTZ, RAYMOND CLARK|DEM|2010|CA|H|C|C00479477|32.8883584|-116.8965284|92020|EL CAJON|CA
H0CA53016|FRIEDMAN, MATT|REP|2010|CA|H|C|C00458182|32.89411814814816|-116.99533772839506|92103|SAN DIEGO|CA
H0CA53024|ARRINGTON, RANDALL STEVEN PHD|REP|2010|CA|H|C|C00469916|33.398992|-84.57062|30269|PEACHTREE CITY|GA
H0CA53032|WEAVER, CLARENCE MASON|REP|2010|CA|H|C|C00469684|32.89411814814816|-116.99533772839506|92163|SAN DIEGO|CA
H0CO00013|BROWN, DIGGS|REP|2010|CO|H|C|C00471276|40.559435888888885|-105.18973122222222|80521|FORT COLLINS|CO
H0CO01078|FALLON, MICHAEL PETER|REP|2010|CO|H|C|C00481648|39.74108270666667|-104.83527397333336|80209|DENVER|CO
H0CO01086|STANDLEY, KELLY D|REP|2010|CO|H|C|C00482331|39.71124715789474|-104.67132821052633|80011|AURORA|CO
H0CO01094|STYSKAL, CHRISTOPHER THOMAS|CST|2010|CO|H|C|C00483776|39.74108270666667|-104.83527397333336|80204|DENVER|CO
H0CO01110|JONES, CLINTON DOUGLAS|LIB|2010|CO|H|C|C00490318|39.74108270666667|-104.83527397333336|80219|DENVER|CO
H0CO02134|BAILEY, STEPHEN|REP|2010|CO|H|C|C00472563|40.156035|-105.17365|80503|HIWOT|CO
H0CO02142|BRANCATO, BOB|REP|2010|CO|H|C|C00473348|40.115501|-104.93637|80520|FIRESTONE|CO
H0CO03090|MCCONNELL, ROBERT M|REP|2010|CO|H|C|C00468108|40.490225|-106.88762200000001|80488|STEAMBOAT SPRINGS|CO
H0CO03108|SEGREST, JAKE|IND|2010|CO|H|C|C00476184|39.159971|-108.72071|81521|FRUITA|CO
H0CO03116|GILMAN, GREGORY|LIB|2012|CO|H|C||38.130741|-105.45798|81252|WESTCLIFFE|CO
H0CO04114|LUCERO, THOMAS JOSEPH|REP|2010|CO|H|C|C00457879|40.335398|-104.91477|80534|JOHNSTOWN|CO
H0CO04122|GARDNER, CORY|REP|2012|CO|H|I|C00492454|40.40188033333334|-105.11804233333332|80539|LOVELAND|CO
H0CO04148|ADEN, DOUG|OTH|2012|CO|H|C||40.090367|-104.79723|80621|FORT LUPTON|CO
H0CO06069|CANTER, DAVID|DEM|2010|CO|H|C|C00456996|39.51474|-104.744145|80139|HIGHLANDS RANCH|CO
H0CO06077|FLERLAGE, JOHN|DEM|2010|CO|H|C|C00458638|39.594638562499995|-104.87497675|80160|LITTLETON|CO
H0CO06085|MCNEALY, ROBERT LEE|LIB|2010|CO|H|C|C00474155|39.71124715789474|-104.67132821052633|80013|AURORA|CO
H0CO07018|CAMPBELL, BRIAN T SR|REP|2010|CO|H|C|C00459511|39.736492428571424|-105.14826857142857|80004|ARVADA|CO
H0CO07026|FRAZIER, RYAN L|REP|2010|CO|H|C|C00461020|39.745526|-105.06251|80214|EDGEWATER|CO
H0CO07042|SHEELY, MICHEL L|REP|2010|CO|H|C|C00469593|39.760573|-104.431|80102|BENNETT|CO
H0CO07067|SIAS, LANGHORNE C|REP|2010|CO|H|C|C00471516|39.736492428571424|-105.14826857142857|80007|ARVADA|CO
H0CO07075|BAILEY, BUCK|LIB|2012|CO|H|C||39.71124715789474|-104.67132821052633|80017|AURORA|CO
H0CT01068|ZYDANOWICZ, MARK|REP|2010|CT|H|C|C00479048|41.791776|-72.718832|06127|WEST HARTFORD|CT
H0CT01076|BRICKLEY, ANN|REP|2010|CT|H|C|C00481671|41.7469125|-72.696766|06109|WETHERSFIELD|CT
H0CT01084|KRAYESKE, KENNETH JAMES|GRE|2010|CT|H|C|C00488395|41.836665|-72.56076|06074|SOUTH WINDSOR|CT
H0CT02140|NOVAK, DARIA IRENE|REP|2012|CT|H|C|C00461012|41.298648|-72.60938|06443|MADISON|CT
H0CT02157|MULLEN, WESLEY MARTIN|REP|2010|CT|H|C|C00480715|41.298648|-72.60938|06443|MADISON|CT
H0CT02165|DUBITSKY, DOUG|REP|2012|CT|H|C|C00482653|41.809166|-72.11274|06235|CHAPLIN|CT
H0CT02173|PECKINPAUGH, JANET|REP|2010|CT|H|C|C00482885|41.351598|-72.39787|06426|ESSEX|CT
H0CT03072|DELAURO, ROSA L|DEM|2012|CT|H|I|C00238865|41.348277384615386|-72.92185780769232|06511|NEW HAVEN|CT
H0CT03106|LABRIOLA, JERRY JR.|REP|2010|CT|H|C|C00467969|41.396376333333336|-72.89068466666667|06492|WALLINGFORD|CT
H0CT03122|CHENEY, JEFFREY M|REP|2010|CT|H|C|C00479790|41.276497|-72.87412|06513|EAST HAVEN|CT
H0CT03130|JOSEFF, MATTHEW JASON|IND|2010|CT|H|C|C00484006|41.31353|-72.69791|06437|GUILFORD|CT
H0CT03148|BOAZ, ITSHAKY|W|2011|CT|H|C||41.417896|-73.00356|06524|BETHANY|CT
H0CT04120|GREGORY, WILL|REP|2010|CT|H|C|C00464875|41.18111821052631|-73.45532831578949|06904|STAMFORD|CT
H0CT04138|MERKLE, ROBERT|REP|2010|CT|H|C|C00465047|41.201446|-73.43758|06897|WILTON|CT
H0CT04146|DEBICELLA, DAN|REP|2010|CT|H|C|C00465534|41.306396|-73.1292|06484|SHELTON|CT
H0CT04161|TORRES, ENRIQUE RAUL|REP|2010|CT|H|C|C00469692|41.2272745|-73.25202766666666|06605|BRIDGEPORT|CT
H0CT04179|HERRMANN, THOMAS A|REP|2010|CT|H|C|C00479006|41.201446|-73.43758|06897|WILTON|CT
H0CT05119|BERNIER, JUSTIN|REP|2012|CT|H|O|C00461053|41.671548|-72.86294|06062|PLAINVILLE|CT
H0CT05127|PISTONE, JOHN|UNK|2012|CT|H|O|C00462663|41.465811|-73.39982|06804|BROOKFIELD|CT
H0CT05150|GREENBERG, MARK DANIEL|REP|2012|CT|H|O|C00493395|41.754255|-73.21268|06759|LITCHFIELD|CT
H0CT05168|EVANS, WILLIAM J JR|REP|2010|CT|H|C|C00469742|41.594785|-72.97889|06705|WOLCOTT|CT
H0CT05176|CALIGIURI, SAM|REP|2010|CT|H|C|C00471219|41.4373680625|-72.967961875|06705|WATERBURY|CT
H0DC00058|NORTON, ELEANOR HOLMES|DEM|2012|DC|H|I|C00244335|38.89531540217391|-77.01958254710144|20024|WASHINGTON|DC
H0DC00157|SLOAN, DOUGLASS|DEM|2010|DC|H|C|C00477216|38.89531540217391|-77.01958254710144|20011|WASHINGTON|DC
H0DC00165|MALONE, JOAN F M|REP|2010|DC|H|C|C00484477|38.89531540217391|-77.01958254710144|20002|WASHINGTON|DC
H0DC00199|SMITH, MARJORIE (MISSY) REILLY|REP|2010|DC|H|C|C00490391|38.89531540217391|-77.01958254710144|20016|WASHINGTON|DC
H0DC00215|LEE, MICHAEL AUGUSTUS (MATTHEW)|DEM|2012|DC|H|C|C00508192|38.89531540217391|-77.01958254710144|20032|WASHINGTON|DC
H0DE00068|MILLER, MICHEAL CARLTON SR|DEM|2008|DE|H|C|C00455006|38.746207|-75.16282|19958|LEWES|DE
H0DE00118|CAMPBELL, DOUGLAS ALLEN JR|CON|2010|DE|H|O|C00472902|39.386601|-75.66801|19734|TOWNSEND|DE
H0DE00126|WANGEN, BRENT|LIB|2010|DE|H|O|C00475418|38.601355|-75.2411|19966|MILLSBORO|DE
H0DE00134|WADE, KEVIN LYNN|REP|2010|DE|H|O|C00477844|39.616859|-75.5935385|19720|NEW CASTLE|DE
H0DE00142|ROLLINS, MICHELE M|REP|2010|DE|H|O|C00480558|39.64413388888888|-75.58563588888889|19899|WILMINGTON|DE
H0DE01017|CARNEY, JOHN CHARLES JR|DEM|2012|DE|H|I|C00460899|39.64413388888888|-75.58563588888889|19802|WILMINGTON|DE
H0DE01025|IZZO, ROSE|REP|2012|DE|H|C|C00473421|39.64413388888888|-75.58563588888889|19810|WILMINGTON|DE
H0DE01033|URQUHART, GLEN|REP|2010|DE|H|O|C00476309|38.711512|-75.09677|19971|REHOBOTH BEACH|DE
H0FL00023|KRAUSE, JOHN E|REP|2010|FL|H|C|C00466060|30.54065413157895|-87.27113260526316|32504|PENSACOLA|FL
H0FL01104|CANTRELL, JOSEPH HENRY JR|IND|2010|FL|H|C|C00485300|30.627637|-87.16724|32571|PACE|FL
H0FL02086|LAWSON, ALFRED J JR|DEM|2012|FL|H|C|C00460261|30.46455347058824|-84.30047100000002|32301|TALLAHASSEE|FL
H0FL02110|SOUTHERLAND, WILLIAM STEVE II|REP|2012|FL|H|I|C00468959|30.239849|-85.64577|32444|LYNN HAVEN|FL
H0FL02151|OLSCHNER, BARBARA F|REP|2010|FL|H|C|C00476879|30.361248|-86.18759|32459|SANTA ROSA BEACH|FL
H0FL02177|BERRYHILL, DIANNE JORDEN|NPA|2010|FL|H|C|C00483396|30.46455347058824|-84.30047100000002|32308|TALLAHASSEE|FL
H0FL03076|MARTIN-BACK, TERRY L|NPA|2010|FL|H|C|C00467704|29.666233722222223|-82.36053305555555|32606|GAINESVILLE|FL
H0FL03084|ANNARUMMA, JOHN|UNK|2010|FL|H|C|C00469387|29.7963115|-82.49111500000001|32616|ALACHUA|FL
H0FL03092|MACNAUGHTON, GEORGE SCOTT|LIB|2010|FL|H|C|C00469288|30.30522279245282|-81.65284611320754|32218|JACKSONVILLE|FL
H0FL03100|KOLB, EUNA LEANNE|REP|2012|FL|H|C|C00479030||||ORANGE PARK|
H0FL03118|BLACK, DEAN A|REP|2010|FL|H|C|C00481739|29.174417|-81.56319|32102|ASTOR|FL
H0FL03134|NWASIKE, C CHRISTIAN|REP|2010|FL|H|C|C00483735|30.30522279245282|-81.65284611320754|32208|JACKSONVILLE|FL
H0FL04033|PUESCHEL, DEBORAH KATZ|REP|2012|FL|H|C|C00346767|30.30522279245282|-81.65284611320754|32256|JACKSONVILLE|FL
H0FL04066|CRENSHAW, ANDER HON.|REP|2012|FL|H|I|C00352849|30.30522279245282|-81.65284611320754|32204|JACKSONVILLE|FL
H0FL04108|STANLEY, TROY DWAYNE|REP|2010|FL|H|C|C00463042|30.30522279245282|-81.65284611320754|32226|JACKSONVILLE|FL
H0FL04116|KONIZ, GARY L|UNK|2012|FL|H|C||30.30522279245282|-81.65284611320754|32256|JACKSONVILLE|FL
H0FL05113|PICCILLO, JAMES JOHN|DEM|2010|FL|H|O|C00460642|28.233671|-82.45463|34639|LAND O LAKES|FL
H0FL05121|SAGER, JASON PATRICK|REP|2010|FL|H|O|C00471862|28.531020444444444|-82.4385828888889|34601|BROOKSVILLE|FL
H0FL05139|NUGENT, RICHARD B|REP|2012|FL|H|I|C00482281|28.531020444444444|-82.4385828888889|34604|BROOKSVILLE|FL
H0FL06061|YOST, MICHAEL F ''MIKE'' F.|REP|2012|FL|H|C|C00462515|30.30522279245282|-81.65284611320754|32110|JACKSONVILLE|FL
H0FL06079|SCHONBERG, STEVE|DEM|2012|FL|H|C|C00519439|29.1669895|-82.14351599999999|34480|OCALA|FL
H0FL07051|BACON, STEPHEN|OTH|2010|FL|H|C|C00460881|28.888595|-81.31212|32713|DEBARY|FL
H0FL07077|BEAVEN, HEATHER M|DEM|2012|FL|H|C|C00515106|29.503361|-81.25134|32137|PALM COAST|FL
H0FL08067|HERING, ROBERT (BOB) NELSON JR|REP|2008|FL|H|C|C00347047|28.520516629032265|-81.28818522580643|32804|ORLANDO|FL
H0FL08117|DUNMIRE, PEG|REP|2010|FL|H|C|C00468850|28.520516629032265|-81.28818522580643|32837|ORLANDO|FL
H0FL08125|GUTIERREZ, ARMANDO JR|REP|2010|FL|H|C|C00468983|30.46455347058824|-84.30047100000002|32308|TALLAHASSEE|FL
H0FL08141|BROWN, PRINCE|REP|2010|FL|H|C|C00472936|28.520516629032265|-81.28818522580643|32860|ORLANDO|FL
H0FL08158|KELLY, KURT|REP|2012|FL|H|C|C00474064|28.520516629032265|-81.28818522580643|32853|ORLANDO|FL
H0FL08166|GERRITZEN, STEVEN J|UNK|2010|FL|H|C|C00475459|29.1669895|-82.14351599999999|34483|OCALA|FL
H0FL08174|ODONOGHUE, WILLIAM BRUCE|REP|2010|FL|H|C|C00475517|28.520516629032265|-81.28818522580643|32814|ORLANDO|FL
H0FL08190|BIELING, ROSS PARKER|REP|2010|FL|H|C|C00481184|28.5846075|-81.295909|32789|WINTER PARK|FL
H0FL08208|WEBSTER, DANIEL|REP|2012|FL|H|I|C00481911|28.520516629032265|-81.28818522580643|32805|ORLANDO|FL
H0FL08216|METCALFE, GEORGE L|IND|2010|FL|H|C|C00483180|28.520516629032265|-81.28818522580643|32801|ORLANDO|FL
H0FL09065|HINDAHL, PHIL|DEM|2010|FL|H|C|C00483511|28.007329|-82.45256549999999|33549|LUTZ|FL
H0FL10055|JUSTICE, CHARLIE|DEM|2010|FL|H|C|C00461111|25.559785|-80.41664|33170|ST PETERSBURG|FL
H0FL10063|FORCADE, ERIC LEE|REP|2010|FL|H|C|C00468769|28.042218000000002|-82.737302|34682|PALM HARBOR|FL
H0FL11137|KELLER, SCOTT THOMAS|REP|2010|FL|H|C|C00458711|28.233671|-82.45463|34637|LAND O LAKES|FL
H0FL11152|BUNTYN, TONY|REP|2010|FL|H|C|C00468363|27.933675672131137|-82.45895295081968|33629|TAMPA|FL
H0FL11160|PRENDERGAST, MIKE|REP|2010|FL|H|C|C00473330|27.933675672131137|-82.45895295081968|33606|TAMPA|FL
H0FL11178|CASTELLANO, THOMAS CLARK|NNE|2012|FL|H|C|C00507988|27.933675672131137|-82.45895295081968|33607|TAMPA|FL
H0FL11186|CURTIS, TIMOTHY LYNN|DEM|2010|FL|H|C|C00483099|27.933675672131137|-82.45895295081968|33612|TAMPA|FL
H0FL12051|PUTNAM, ADAM H|REP|2010|FL|H|C|C00364117|27.955426|-81.951673|33831|BARTON|FL
H0FL12101|ROSS, DENNIS ALAN|REP|2012|FL|H|I|C00459461|28.03153825|-81.87976208333333|33813|LAKELAND|FL
H0FL12119|EDWARDS, LORI|DEM|2010|FL|H|O|C00459776|28.015181249999998|-81.700056875|33881|WINTER HAVEN|FL
H0FL12127|SNIDER, THOMAS K|LIB|2010|FL|H|O|C00461566|27.891595|-82.3419605|33594|VALRICO|FL
H0FL12135|WILKINSON, RANDY|REP|2010|FL|H|O|C00467514|27.9252085|-81.8890265|33830|BARTOW|FL
H0FL12150|LINDSEY, JOHN W JR|REP|2010|FL|H|O|C00470054|28.015181249999998|-81.700056875|33884|WINTER HAVEN|FL
H0FL12168|OSINSKI, JOHN V|IND|2010|FL|H|O|C00473728|27.891595|-82.3419605|33596|VALRICO|FL
H0FL13109|GOLDEN, JAMES THEOPOLIS|DEM|2010|FL|H|C|C00463760|27.444231461538457|-82.50348653846154|34208|BRADENTON|FL
H0FL13117|EATON, RICHARD CHRISTOPHER|DEM|2010|FL|H|C|C00479022|27.10319775|-82.41038424999999|34293|VENICE|FL
H0FL14065|ROACH, JAMES LLOYD|DEM|2012|FL|H|O|C00471177|26.6260695|-81.96521337499999|33990|CAPE CORAL|FL
H0FL14073|ST CLAIRE, WILLIAM MAVERICK|UNK|2010|FL|H|C|C00482190|26.159792|-81.68347524999999|34102|NAPLES|FL
H0FL15054|ROBERTS, SHANNON|DEM|2012|FL|H|C|C00468488|28.390932|-80.60501|32920|CAPE CANAVERAL|FL
H0FL16052|HORN, JIM|DEM|2012|FL|H|C|C00478818|27.1368335|-80.383433|34990|PALM CITY|FL
H0FL16078|TAUTIVA, ED|DEM|2010|FL|H|C|C00483578|||33449|WELLINGTON|FL
H0FL17035|WILLIAMS, ANDRE LEWIS|DEM|2010|FL|H|O|C00458745|25.946754|-80.24962|33056|MIAMI GARDENS|FL
H0FL17043|ROBERSON, YOLLY|DEM|2010|FL|H|O|C00464594|25.69783154166667|-80.34412848958333|33179|MIAMI|FL
H0FL17050|BASTIEN, MARLEINE M|DEM|2010|FL|H|O|C00459974|25.69783154166667|-80.34412848958333|33238|MIAMI|FL
H0FL17068|WILSON, FREDERICA S|DEM|2012|FL|H|I|C00460055|25.94267|-80.21276|33169|MIAMI GARDENS|FL
H0FL17076|BRUTUS, PHILLIP J|DEM|2010|FL|H|O|C00461343|25.929571|-80.17839|33162|N MIAMI BEACH|FL
H0FL17084|GIBSON, SHIRLEY|DEM|2010|FL|H|O|C00460998|25.558428|-80.458168|33269|MIAMI GARDENS|FL
H0FL17092|VEREEN, RODERICK D|DEM|2010|FL|H|O|C00462929|25.69783154166667|-80.34412848958333|33167|MIAMI|FL
H0FL17100|ADAM, LEROY|DEM|2010|FL|H|O|C00463455|25.69783154166667|-80.34412848958333|33138|MIAMI|FL
H0FL17118|MOISE, RUDOLPH|DEM|2012|FL|H|C|C00468652|25.892185|-80.21032|33168|NORTH MIAMI|FL
H0FL17126|GALVIN, SCOTT|DEM|2010|FL|H|O|C00477802|25.897372|-80.16048|33181|NORTH MIAMI|FL
H0FL17134|POITIER, COREY B|REP|2010|FL|H|O|C00481770|25.893372|-80.18164|33161|NORTH MIAMI|FL
H0FL17142|BUSH, JAMES III|DEM|2010|FL|H|O|C00486456|25.69783154166667|-80.34412848958333|33142|MIAMI|FL
H0FL18025|ROS-LEHTINEN, ILEANA|REP|2012|FL|H|I|C00280537|25.795476|-80.312873|33152|MIAMI |FL
H0FL18165|BANCIELLA, ROLANDO A|DEM|2010|FL|H|C|C00483297|25.69783154166667|-80.34412848958333|33186|MIAMI|FL
H0FL19064|PRICE, CURT|REP|2010|FL|H|O|C00465468|26.464207866666666|-80.23758366666667|33428|BOCA RATON|FL
H0FL19072|BUDD, JOSEPH E|UNK|2010|FL|H|C|C00466037|26.464207866666666|-80.23758366666667|33428|BOCA RATON|FL
H0FL19080|DEUTCH, THEODORE ELIOT|DEM|2012|FL|H|I|C00469163|26.347711|-80.15648|33433|BOCA RATON |FL
H0FL20039|LOWRY, ROBERT PAUL|REP|2010|FL|H|C|C00463273|26.030448538461542|-80.26729107692307|33020|HOLLYWOOD|FL
H0FL20054|SCHOCK, CLAYTON JAMES|OTH|2010|FL|H|C|C00468645|26.112366|-80.37697|33326|SUNRISE|FL
H0FL20070|HARRINGTON, KAREN|REP|2012|FL|H|C|C00474478|26.151066333333333|-80.30868333333335|33028|PEMBROKE PINES|FL
H0FL20088|KUNST, ROBERT|NNE|2010|FL|H|C|C00481382|25.759916999999998|-80.1885075|33140|MIAMI BEACH|FL
H0FL20096|MILO, DONNA E|REP|2010|FL|H|C|C00481705|26.094665|-80.17987|33312|FT LAUDERDALE|FL
H0FL20104|BLUMENTHAL, STANLEY|OTH|2012|FL|H|C|C00525014|26.150863|-80.27284|33322|SUNRISE|FL
H0FL23033|SANSARICQ, BERNARD|REP|2010|FL|H|C|C00474775|26.151066333333333|-80.30868333333335|33026|PEMBROKE PINES|FL
H0FL24015|MILLER, KENNETH JOHN|REP|2010|FL|H|C|C00461186|28.5846075|-81.295909|32792|WINTER PARK|FL
H0FL24023|DIEBEL, KAREN|REP|2012|FL|H|C|C00494310|28.5846075|-81.295909|32789|WINTER PARK|FL
H0FL24049|ADAMS, SANDY|REP|2012|FL|H|I|C00463877|28.520516629032265|-81.28818522580643|32802|ORLANDO|FL
H0FL24064|LONG, OMETRIAS DEON|REP|2010|FL|H|C|C00465773|28.5846075|-81.295909|32790|WINTER PARK|FL
H0FL24072|HEINZELMAN, JAMES P SR|REP|2010|FL|H|C|C00466128|28.724513|-81.3043775|32779|LONGWOOD|FL
H0FL24098|SINCLAIR, LARRY|UNK|2010|FL|H|C|C00470229|29.05149|-81.1090655|32129|PORT ORANGE|FL
H0FL24130|GARCIA, GEORGE THOMAS|REP|2010|FL|H|C|C00473058|28.4215252|-80.7433314|32783|TITUSVILLE|FL
H0FL24148|MILLER, CRAIG S|REP|2012|FL|H|C|C00512442|29.087930133333337|-81.10292839999998|32120|DAYTONA BEACH|FL
H0FL24155|DEDELOW, EDWARD W|REP|2010|FL|H|C|C00480343|28.71408|-81.252395|32708|WINTER SPRINGS|FL
H0FL24163|ROSS, BEN|REP|2010|FL|H|C|C00480970|28.324128|-80.68147866666668|32954|MERRITT ISLAND|FL
H0FL24171|RUIZ, NICHOLAS III|DEM|2012|FL|H|C|C00492330|29.012837666666666|-81.001713|32170|NEW SMYRNA BEACH|FL
H0FL25012|RIVERA, LUIS ANTONIO|DEM|2010|FL|H|O|C00468942|25.69783154166667|-80.34412848958333|33176|MIAMI|FL
H0FL25020|PORTER, CRAIG|OTH|2010|FL|H|O|C00474015|25.69783154166667|-80.34412848958333|33197|MIAMI|FL
H0FL25038|RIVERA, DAVID|REP|2012|FL|H|C|C00477356|25.69783154166667|-80.34412848958333|33152|MIAMI|FL
H0FL25046|CRESPO, PAUL L|REP|2010|FL|H|O|C00477877|25.720728|-80.27255|33146|CORAL GABLES|FL
H0FL25061|MEURICE, LUIS|DEM|2010|FL|H|O|C00483149|25.69783154166667|-80.34412848958333|33129|MIAMI|FL
H0FL25079|ARROJO, JOSE ROLANNDO|DEM|2010|FL|H|O|C00486167|25.759916999999998|-80.1885075|33141|MIAMI BEACH|FL
H0GA02217|KEOWN, MICHAEL (MIKE) HUEL|REP|2010|GA|H|C|C00465500|31.012042|-83.87218|31738|COOLIDGE|GA
H0GA02225|ADAMS, RHUEDOLPH 'RUDY'|REP|2010|GA|H|C|C00475939|32.293293|-83.98913|31063|MONTEZUMA|GA
H0GA02241|ALLEN, RICK|REP|2012|GA|H|C|C00506790|32.557718|-84.73957|31829|UPATOI|GA
H0GA03066|SAUNDERS, ROBERT FRANKLIN III|DEM|2010|GA|H|C|C00482422|32.566197|-84.84122|31820|MIDLAND|GA
H0GA04023|LINDER, JOHN|REP|2010|GA|H||C00255976|33.98126285714285|-84.0996522857143|30096|DULUTH|GA
H0GA04072|CARTER, LISBETH 'LIZ'|REP|2010|GA|H|C|C00471755|33.828458666666684|-84.40236618918924|30345|ATLANTA|GA
H0GA04080|JONES, VERNON A|DEM|2010|GA|H|C|C00481127|33.828458666666684|-84.40236618918924|31119|ATLANTA|GA
H0GA04098|RUTH, CORY JEROME|REP|2010|GA|H|C|C00477463|33.828458666666684|-84.40236618918924|30316|ATLANTA|GA
H0GA04106|ARMENDARIZ, VICTOR|REP|2010|GA|H|C|C00482075|33.828458666666684|-84.40236618918924|30341|ATLANTA|GA
H0GA05210|LITTLE, SAMUEL FENN JR|REP|2010|GA|H|C|C00479725|33.828458666666684|-84.40236618918924|30309|ATLANTA|GA
H0GA07125|HICE, JODY B MR|REP|2010|GA|H|O|C00481150|33.928949|-83.73524|30620|BETHLEHEM|GA
H0GA07133|WOODALL, ROB|UNK|2012|GA|H|I|C00482307|33.95193999999999|-84.04328500000001|30046|LAWRENCEVILLE|GA
H0GA07141|MALONE, WILLIAM F JR|REP|2010|GA|H|O|C00482398|33.841579499999995|-84.02757|30078|SNELLVILLE|GA
H0GA07158|EFSTRATION, CHUCK|REP|2010|GA|H|O|C00483255|33.981721|-83.88302|30019|DACULA|GA
H0GA07174|KIRBY, LESTER THOMAS|REP|2010|GA|H|O|C00483172|33.823809|-83.89423|30052|LOGANVILLE|GA
H0GA07182|PARROTT, THOMAS S|REP|2010|GA|H|O|C00483370|33.95016316666666|-84.12196449999999|30092|NORCROSS|GA
H0GA08032|MARSHALL, JIM|DEM|2010|GA|H|C|C00347716|32.81715886956521|-83.67255700000001|31201|MACON|GA
H0GA08040|DELOACH, KENNETH RAY JR|REP|2012|GA|H|C|C00524975|32.596279|-83.642259|31093|WARNER ROBINS|GA
H0GA08057|RISH, WILLIAM PAUL|REP|2010|GA|H|C|C00469536|32.81715886956521|-83.67255700000001|31210|MACON|GA
H0GA08073|MEYERS, VALERIE SARGENT|REP|2010|GA|H|C|C00475780|32.556668|-83.62435|31005|BONAIRE|GA
H0GA08099|SCOTT, JAMES AUSTIN|REP|2012|GA|H|I|C00482737|31.709742|-83.66519|31714|ASHBURN|GA
H0GA09030|GRAVES, JOHN THOMAS MR. JR.|REP|2012|GA|H|I|C00462556|34.531444|-84.69955|30734|RANGER|GA
H0GA09063|JONES, JEREMY EDWARD|REP|2010|GA|H|O|C00463166|34.916552|-85.14435|30736|RINGGOLD|GA
H0GA09071|MOON, EDWARD ''EUGENE''|IND|2010|GA|H|O|C00463968|34.305405666666665|-83.8595845|30506|GAINESVILLE|GA
H0GA09089|HAWKINS, B LEE|REP|2010|GA|H|C|C00465617|34.305405666666665|-83.8595845|30506|GAINESVILLE|GA
H0GA09097|TARVIN, THOMAS STEPHEN|REP|2010|GA|H|C|C00469486|34.827019|-85.32883|30707|CHICKAMAUGA|GA
H0GA09121|LOFTMAN, BERTIL ARMIN|REP|2010|GA|H|C|C00472357|34.454934|-84.41583|30143|JASPER|GA
H0GA09139|DOOLEY, THOMAS EUGENE|REP|2010|GA|H|O|C00473462|34.916552|-85.14435|30736|RINGGOLD|GA
H0GA09147|REESE, BOBBY CLIFFORD|REP|2010|GA|H|C|C00478966|34.12115|-84.01804|30518|SUGAR HILL|GA
H0GA10228|CATES, CHRISTOPHER U MD|REP|2010|GA|H|C|C00470393|34.889477|-84.0116735|30512|BLAIRSVILLE|GA
H0GA10236|UNTERMYER, SAMUEL III 'SANDY'|DEM|2010|GA|H|C|C00479014|33.620669|-82.30514|30802|APPLING|GA
H0GA12026|SMITH, LAWTON CARLOS JR|REP|2010|GA|H|C|C00462259|32.046143|-81.06724|31404|THUNDERBOLT|GA
H0GA12034|SEAVER, JEAN MARIE|REP|2010|GA|H|C|C00469171|32.00549926086958|-81.08729143478263|31406|SAVANNAH|GA
H0GA13016|SLEEPER, SONJA|REP|2010|GA|H|C|C00459826|33.507507333333336|-84.35448433333335|30236|JONESBORO|GA
H0GA13024|FRISBEE, MICHAEL A|DEM|2010|GA|H|C|C00471623|33.670405|-84.83809|30187|WINSTON|GA
H0GA13032|CRANE, MICHAEL ROBERT|REP|2010|GA|H|C|C00476457|33.37526725|-84.77692549999999|30263|NEWNAN|GA
H0GA13040|PARCHMENT, RUPERT GORDON|REP|2010|GA|H|C|C00477448|33.828458666666684|-84.40236618918924|30307|ATLANTA|GA
H0GA13073|DUDEK, HANK RICHARD|REP|2010|GA|H|C|C00482232|33.86458433333333|-84.58396|30080|SMYRNA|GA
H0GA13081|MURPHY, MIKE|DEM|2010|GA|H|C|C00482844|33.817738|-84.56087|30126|MABLETON|GA
H0GA13099|FLANEGAN, CHARLES EDWARD JR|REP|2012|GA|H|C|C00483362|33.547578|-84.21809|30281|STOCKBRIDGE|GA
H0HI01058|MATSUNAGA, MATTHEW|DEM|2006|HI|H|C|C00426221|23.99200566666667|-165.5305597777778|96813|HONOLULU|HI
H0HI01157|DJOU, CHARLES K|REP|2012|HI|H|C|C00441451|23.99200566666667|-165.5305597777778|96823|HONOLULU|HI
H0HI01165|DEL CASTILLO, RAFAEL GOODWIN|DEM|2012|HI|H|O|C00478974|23.99200566666667|-165.5305597777778|96825|HONOLULU|HI
H0HI01181|BROWNE, VINNY|DEM|2010|HI|H|O|C00479709|23.99200566666667|-165.5305597777778|96813|HONOLULU|HI
H0HI01223|GIUFFRE, JOHN (RAGHU)|REP|2012|HI|H|C||23.99200566666667|-165.5305597777778|96813|HONOLULU|HI
H0HI02106|WILLOUGHBY, JOHN WILLIAM|REP|2010|HI|H|C|C00475640|23.99200566666667|-165.5305597777778|96818|HONOLULU|HI
H0HI02114|WHARTON, RAMSAY PUANANI|REP|2010|HI|H|C|C00477851|21.338055|-158.02499|96706|EWA BEACH|HI
H0HI02130|SONN, ANDREW VON|IND|2010|HI|H|C|C00485086|20.906999|-156.38202|96779|PAIA|HI
H0IA01117|LANGE, BEN|REP|2012|IA|H|C|C00510529|42.470191|-91.89268|50644|INDEPENDENCE|IA
H0IA01133|JOHNSON, WILL|REP|2010|IA|H|C|C00483610|42.491041599999996|-90.7453364|52001|DUBUQUE|IA
H0IA02099|RATHJE, STEVE|REP|2012|IA|H|C|C00499079|42.042648|-91.58262|52302|MARION|IA
H0IA02107|SICARD, GARY JOSEPH|LIB|2010|IA|H|C|C00488171|42.073765|-91.66287|52328|ROBINS|IA
H0IA02123|TACK, JONATHAN JAY|OTH|2010|IA|H|C|C00484063|42.044409|-91.68102|52233|HIAWATHA |IA
H0IA03121|GIBBONS, JIM|REP|2010|IA|H|C|C00470823|41.60787|-93.78093|50325|CLIVE|IA
H0IA03139|ZAUN, BRAD|REP|2010|IA|H|C|C00471227|41.6281545|-93.763075|50322|URBANDALE|IA
H0IA03147|REES, MARK ROBERT|REP|2010|IA|H|C|C00471797|41.582213333333335|-93.76801733333333|50265|WEST DES MOINES|IA
H0IA03154|BERTROCHE, J PATRICK|REP|2010|IA|H|C|C00472134|41.60787|-93.78093|50325|CLIVE|IA
H0IA03162|WELCH, JASON LEE|REP|2010|IA|H|C|C00476242|41.67822|-93.7935|50111|GRIMES|IA
H0IA03170|BATCHER, SCOTT|REP|2012|IA|H|C|C00514075|41.582213333333335|-93.76801733333333|50265|WEST DES MOINES|IA
H0IA04095|MASKE, BILLY DALE|DEM|2010|IA|H|C|C00470237|41.204733|-93.84553|50257|TRURO|IA
H0IA05092|CAMPBELL, MATTHEW|DEM|2010|IA|H|C|C00473959|41.913633|-95.06939|51455|MANNING|IA
H0IA05100|MONROE, MARTIN JAMES|IND|2012|IA|H|C||42.316288|-95.61045|51006|BATTLE CREEK|IA
H0ID01238|WARD, VAUGHN L|REP|2010|ID|H|C|C00459610|43.705551|-116.36346|83616|EAGLE|ID
H0ID01253|LABRADOR, RAUL|REP|2012|ID|H|I|C00470948|43.705551|-116.36346|83616|EAGLE|ID
H0ID01261|CHADWICK, MICHAEL L|REP|2010|ID|H|C|C00478115|47.699552|-116.814179|83877|POST FALLS|ID
H0ID01279|WASHBURN, MICHAEL JAMES|LIB|2010|ID|H|C|C00479055|43.51203700000001|-116.23286|83701|BOISE|ID
H0ID02053|CHAPPELL, JACK WAYNE|DEM|2012|ID|H|C|C00351908|42.596953|-114.81886|83316|BUHL|ID
H0ID02061|HEILESON, MARVIN CHARLES|REP|2012|ID|H|C|C00521526|43.43118885714286|-111.84663571428572|83401|IDAHO FALLS|ID
H0ID02079|MATHEWS, RUSSELL J|REP|2010|ID|H|C|C00468025|43.43118885714286|-111.84663571428572|83402|IDAHO FALLS|ID
H0ID02095|BURTON, KATHERINE|REP|2010|ID|H|C|C00481796|43.51203700000001|-116.23286|83703|BOISE|ID
H0IL00014|JOHNSON, KENNETH LAMAR|DEM|2010|IL|H|O|C00469452|41.85168971764706|-87.67981902352942|60680|CHICAGO|IL
H0IL01095|TROTTER, DONNE E|DEM|2013|IL|H|C|C00539692|41.85168971764706|-87.67981902352942|60617|CHICAGO|IL
H0IL01137|SMITH, FREDERICK|DEM|2012|IL|H|C|C00460949|41.719933|-87.70249|60805|EVERGREEN PARK|IL
H0IL01145|GUILLEMETTE, JOANNE|DEM|2010|IL|H|C|C00470922|41.85168971764706|-87.67981902352942|60653|CHICAGO|IL
H0IL01152|BAILEY, HAROLD L.|DEM|2012|IL|H|C|C00511345|41.85168971764706|-87.67981902352942|60628|CHICAGO|IL
H0IL02101|HAYES, ISAAC C|REP|2010|IL|H|C|C00465138|41.472934|-87.68767|60466|PARK FOREST|IL
H0IL03075|BENDAS, MICHAEL A|REP|2010|IL|H|C|C00474445|41.85168971764706|-87.67981902352942|60609|CHICAGO|IL
H0IL05096|QUIGLEY, MIKE|DEM|2012|IL|H|I|C00457556|41.85168971764706|-87.67981902352942|60657|CHICAGO|IL
H0IL05104|VARTANIAN, JOEY|DEM|2009|IL|H|O|C00458703|41.85168971764706|-87.67981902352942|60614|CHICAGO|IL
H0IL05112|VASQUEZ, ISRAEL C|DEM|2009|IL|H|O|C00457721|41.85168971764706|-87.67981902352942||CHICAGO|IL
H0IL05187|STEWART, JON|DEM|2010|IL|H|C|C00458323|42.169325|-87.86556|60015|DEERFIELD|IL
H0IL05229|THOMPSON, ROGER|DEM|2009|IL|H|O|C00458786|41.85168971764706|-87.67981902352942|60618|CHICAGO|IL
H0IL05237|ANDERSON, DAVID JOHN|LIB|2010|IL|H|C|C00458687|39.867259|-83.93512|45323|ENON|OH
H0IL05245|BEDELL, GREGORY A|REP|2009|IL|H|O|C00459487|41.85168971764706|-87.67981902352942|60657|CHICAGO|IL
H0IL05252|KAY, DANIEL S (KARKUSIEWICZ)|REP|2009|IL|H|O|C00458919|41.91823|-87.89627|60164|NORTHLAKE|IL
H0IL05286|RIBEIRO, SIMON|DEM|2012|IL|H|C||42.00931416666666|-87.69230900000001|60202|EVANSTON|IL
H0IL05294|KHAN, MOHAMMADALI D|DEM|2009|IL|H|O|C00458497|41.85168971764706|-87.67981902352942|60647|CHICAGO|IL
H0IL05310|LAD, ASHVIN PRAKASH|REP|2010|IL|H|C|C00467183|41.85168971764706|-87.67981902352942|60613|CHICAGO|IL
H0IL05328|RATOWITZ, DAVID|REP|2010|IL|H|C|C00467886|41.85168971764706|-87.67981902352942|60618|CHICAGO|IL
H0IL06045|LOWE, BENJAMIN S|DEM|2010|IL|H|C|C00472472|41.848979|-88.098878|60187|WHEATON|IL
H0IL07100|HATCH, MARSHALL E SR|DEM|2010|IL|H|C|C00465450|41.85168971764706|-87.67981902352942|60644|CHICAGO|IL
H0IL07118|DIXON, SHARON DENISE|DEM|2010|IL|H|C|C00473934|41.85168971764706|-87.67981902352942|60623|CHICAGO|IL
H0IL07126|WEIMAN, MARK M|REP|2010|IL|H|C|C00471805|41.85168971764706|-87.67981902352942|60601|CHICAGO|IL
H0IL08066|RODRIGUEZ, MARIA DOLORES|REP|2010|IL|H|C|C00467274|42.198674|-88.041875|60047|LONG GROVE|IL
H0IL08074|GEISSLER, CHRISTOPHER TODD|REP|2010|IL|H|C|C00467423|42.241802500000006|-87.8811815|60010|BARRINGTON|IL
H0IL08090|WALSH, JOE|REP|2012|IL|H|I|C00473579|42.34220233333334|-88.32028766666667|60051|MCHENRY|IL
H0IL08116|DAWSON, JOHN|REP|2010|IL|H|C|C00473231|42.241802500000006|-87.8811815|60010|BARRINGTON|IL
H0IL08124|JACOBS, GREGORY S|REP|2010|IL|H|C|C00473439|42.263623|-88.01172|60060|MUNDELEIN|IL
H0IL08132|FARNICK, JONATHAN|DEM|2012|IL|H|C||42.316121|-88.43884|60098|WOODSTOCK|IL
H0IL09064|POLLAK, JOEL BARRY|REP|2010|IL|H|C|C00467027|42.0347465|-87.74486999999999|60076|SKOKIE|IL
H0IL09080|ATANUS, SUSANNE|REP|2012|IL|H|C||42.047178|-87.89058|60016|DES PLAINS|IL
H0IL10120|KIRK, MARK STEVEN|REP|2010|IL|H|C|C00350785|42.181875|-87.80956|60035|HIGHLAND PARK|IL
H0IL10245|RICHARDSON, ELLIOT|DEM|2010|IL|H|O|C00458083|42.181875|-87.80956|60035|HIGHLAND PARK|IL
H0IL10294|COULSON, ELIZABETH|REP|2010|IL|H|O|C00465799|42.07672|-87.81922|60025|GLENVIEW|IL
H0IL10302|DOLD, ROBERT JAMES MR JR|REP|2012|IL|H|C|C00465971|42.088128|-87.716|60043|KENILWORTH|IL
H0IL10310|HAMANN, PAUL|REP|2010|IL|H|O|C00468397|42.238087|-87.86093|60045|LAKE FOREST|IL
H0IL10328|SUMPTION, MILTON J|DEM|2010|IL|H|O|C00469940|42.286222|-87.86309|60044|LAKE BLUFF|IL
H0IL10336|FRIEDMAN, ARIE STEPHEN|REP|2010|IL|H|O|C00472191|42.181875|-87.80956|60035|HIGHLAND PARK|IL
H0IL11052|KINZINGER, ADAM|REP|2012|IL|H|I|C00458877|41.250408|-87.85125|60950|MANTENO|IL
H0IL11060|MEERS, HENRY W JR|REP|2010|IL|H|C|C00460535|41.501178|-87.83875|60423|FRANKFORT|IL
H0IL11078|MCALOON, DAVID|REP|2010|IL|H|C|C00461814|41.170442|-87.86891|60914|BOURBONNAIS|IL
H0IL11086|MILLER, DARREL|REP|2012|IL|H|C||40.528515|-89.19057|61732|DANVERS|IL
H0IL12076|KORMOS, THERESA|REP|2012|IL|H|O|C00505073|38.589849|-89.91207|62269|OFALLON|IL
H0IL12084|NEWMAN, TERI|REP|2012|IL|H|O|C00490532|38.513570800000004|-89.99036819999999|62221|BELLEVILLE|IL
H0IL14056|HASTERT, ETHAN ALLEN|REP|2010|IL|H|C|C00463265|41.876506|-88.46429|60119|ELBURN|IL
H0IL14080|HULTGREN, RANDY|REP|2012|IL|H|I|C00467522|41.875228|-88.15261|60190|WINFIELD|IL
H0IL14106|PURCELL, JAMES (JIM)|REP|2010|IL|H|C|C00469270|41.845228|-88.30995|60510|BATAVIA|IL
H0IL15053|JOHNSON, TIMOTHY V|REP|2012|IL|H|I|C00350421|40.112408333333335|-88.20453966666666|61802|URBANA|IL
H0IL15087|SPRADLIN, SAMUEL THOMAS|REP|2012|IL|H|C|C00462911|39.7715|-89.63612|62703|SPFLD|IL
H0IL16085|MANZULLO, DONALD A.|REP|2012|IL|H|I|C00252973|42.139244|-89.3968|61047|EGAN|IL
H0IL16168|GAULRAPP, GEORGE WALTER|DEM|2012|IL|H|C|C00472316|42.300918|-89.63208|61032|FREEPORT|IL
H0IL17059|SCHILLING, ROBERT T.|REP|2012|IL|H|C|C00459354|41.518733|-90.41788|61244|EAST MOLINE|IL
H0IL18040|RAY, CARL DOUGLAS|DEM|2010|IL|H|C|C00462507|40.701037|-89.44294|61571|WASHINGTON|IL
H0IL18057|HIRNER, DEIDRE 'DK'|DEM|2010|IL|H|C|C00471110|39.76269087179486|-89.61055228205129|62704|SPRINGFIELD|IL
H0IL19048|FIRSCHING, MICHAEL|REP|2012|IL|H|C|C00481226|38.91973|-90.01241|62067|MORO|IL
H0IN01077|PASTORE, ROBERT A|REP|2010|IN|H|C|C00477166|41.5754432|-87.46936380000001|46324|HAMMOND|IN
H0IN01085|LINDEMULDER, PETER III|REP|2010|IN|H|C|C00477729|41.491377|-87.51022|46311|DYER|IN
H0IN01093|OLSON, ERIC L|REP|2010|IN|H|C|C00477992|41.36959|-87.44849|46303|CEDAR LAKE|IN
H0IN01101|DOMBKOWSKI, ADAM ALAN|REP|2010|IN|H|C|C00482901|41.48286233333333|-87.07347800000001|46383|VALPARAISO|IN
H0IN02125|MESSER, ALLEN LUCAS|REP|2012|IN|H|O|C00460667|39.523797|-85.77208|46176|SHELBYVILLE|IN
H0IN02190|WALORSKI (SWIHART), JACKIE|REP|2012|IN|H|O|C00468579|41.66811575|-85.961017|46517|ELKHART|IN
H0IN03131|GRUBB, RACHEL|REP|2010|IN|H|C|C00463471|41.088135795454555|-85.09969911363638|46819|FORT WAYNE|IN
H0IN03156|DICKMAN, GREGORY LEE|REP|2010|IN|H|C|C00477588|41.352638|-85.04792|46706|AUBURN|IN
H0IN03164|THOMAS, ROBERT (BOB)|REP|2010|IN|H|C|C00479105|41.088135795454555|-85.09969911363638|46825|FORT WAYNE|IN
H0IN03172|BORROR, RANDY LEE|REP|2010|IN|H|C|C00483834|41.088135795454555|-85.09969911363638|46815|FORT WAYNE|IN
H0IN03180|ELIJAH, TERRY RYAN|REP|2010|IN|H|C|C00484261|41.088135795454555|-85.09969911363638|46815|FORT WAYNE|IN
H0IN03198|STUTZMAN, MARLIN A|REP|2012|IN|H|I|C00484683|41.722976|-85.39367|46746|HOWE|IN
H0IN04170|ROKITA, THEODORE EDWARD|REP|2012|IN|H|I|C00476192|39.764436|-86.39699|46123|AVON|IN
H0IN04188|HIGHT, MICHAEL C (MIKE)|NNE|2010|IN|H|O|C00476473|40.126304|-86.60268|46071|THORNTOWN|IN
H0IN04196|WATHEN, ERIC LEE|REP|2010|IN|H|O|C00477489|39.797402600000005|-86.1365729|46234|INDIANAPOLIS|IN
H0IN04204|HERSHMAN, BRANDT|REP|2010|IN|H|O|C00476762|40.777036|-86.75982|47960|MONTICELLO|IN
H0IN04261|HASS, JAMES THOMAS|REP|2010|IN|H|O|C00479857|40.38577133333334|-86.865686|47906|LAFAYETTE|IN
H0IN04279|SEITZ, MARK|REP|2010|IN|H|O|C00483404|39.797402600000005|-86.1365729|46237|INDIANAPOLIS|IN
H0IN04287|STEFFEN , PHILLIP J|REP|2010|IN|H|O|C00483602|39.764436|-86.39699|46123|AVON|IN
H0IN05078|BRIZZI, CARL J|REP|2010|IN|H|C|C00459396|39.797402600000005|-86.1365729|46220|INDIANAPOLIS|IN
H0IN05102|MURPHY, MICHAEL B|REP|2010|IN|H|C|C00459180|39.797402600000005|-86.1365729|46237|INDIANAPOLIS|IN
H0IN05169|REID, RICHARD ANDREW|LIB|2012|IN|H|O|C00483057|39.235092|-86.88719|47431|FREEDOM|IN
H0IN06092|STRITTMATTER, MATT|REP|2012|IN|H|O|C00485409|40.114892375|-85.680977875|46012|ANDERSON|IN
H0IN07157|MAY, CARLOS ANDREW|REP|2012|IN|H|C|C00513119|39.797402600000005|-86.1365729||INDIANAPOLIS|IN
H0IN07173|RAMIREZ, RAFAEL|REP|2010|IN|H|C|C00470310|39.797402600000005|-86.1365729|46229|INDIANAPOLIS|IN
H0IN07207|SCOTT, MARVIN B|REP|2010|IN|H|C|C00480038|39.797402600000005|-86.1365729|46208|INDIANAPOLIS|IN
H0IN08114|BUCSHON, LARRY D|REP|2012|IN|H|I|C00468256|38.0106465|-87.31259700000001|47629|NEWBURGH|IN
H0IN08122|MAHONEY, BILLY JOSEPH|REP|2010|IN|H|O|C00474346|39.885739|-87.4078|47966|NEWPORT|IN
H0IN08130|CUNNINGHAM, JOHN WAYNE|LIB|2010|IN|H|O|C00474742|39.452883500000006|-87.39651033333332|47802|TERRE HAUTE|IN
H0IN08148|RISK, KRISTI MARIE|REP|2012|IN|H|C|C00500942|39.290029|-86.77844|47460|SPENCER|IN
H0IN08155|VAN HAAFTEN, WILLIAM TRENT|DEM|2010|IN|H|O|C00478289|37.9949357027027|-87.57013086486488|47703|EVANSVILLE|IN
H0IN08189|SMITH, JOHN LEE|REP|2010|IN|H|O|C00481580|37.9949357027027|-87.57013086486488|47725|EVANSVILLE|IN
H0IN09070|YOUNG, TODD CHRISTOPHER|REP|2012|IN|H|I|C00459255|39.16472519999999|-86.5195193|47402|BLOOMINGTON|IN
H0IN09088|HANKINS, TRAVIS|REP|2012|IN|H|C|C00460683|39.203516|-85.89810933333332|47201|COLUMBUS|IN
H0IN09138|KNOTT, GREG S|LIB|2010|IN|H|C|C00491068|39.16472519999999|-86.5195193|47403|BLOOMINGTON|IN
H0IN10094|MCVEY, BROSE ALLEN|REP|2010|IN|H|C|C00458901|40.005478000000004|-86.09839833333332|46033|CARMEL|IN
H0KS01099|WASINGER, ROBERT K|REP|2010|KS|H|O|C00455790|38.344157|-96.52969|66845|COTTONWOOD FALLS|KS
H0KS01115|BOLDRA, SUE ELLEN|REP|2010|KS|H|O|C00459792|38.881082|-99.32559|67601|HAYS|KS
H0KS01123|MANN, TRACEY ROBERT|REP|2010|KS|H|O|C00460659|38.8057325|-97.63298800000001|67401|SALINA|KS
H0KS01131|BARNETT, JAMES A|REP|2010|KS|H|O|C00463281|38.410549|-96.19736|66801|EMPORIA|KS
H0KS01149|SHADWICK, MONTE|REP|2010|KS|H|O|C00463497|38.8057325|-97.63298800000001|67401|SALINA|KS
H0KS01156|JILKA, ALAN|DEM|2010|KS|H|O|C00468520|38.8057325|-97.63298800000001|67402|SALINA|KS
H0KS02097|HAWVER, IRA DENNIS|LIB|2012|KS|H|C|C00358002|39.201834|-95.44963|66070|OZAWKIE|KS
H0KS02121|PYLE, DENNIS D|REP|2010|KS|H|C|C00471300|39.857155|-95.54497|66434|HIAWATHA|KS
H0KS02147|KOCH, THOMAS NEIL|DEM|2010|KS|H|C|C00482141|39.298776|-94.93555|66048|LEAVENWORTH|KS
H0KS02154|HUDSPETH, CHERYL|DEM|2010|KS|H|C|C00487579|37.506616|-94.86078|66743|GIRARD|KS
H0KS03053|COLYER, JEFFREY|REP|2002|KS|H|C|C00346858|38.924739|-94.70473|66210|OVERLAND PARK|KS
H0KS03103|RYSAVY, JOHN TIMOTHY|REP|2010|KS|H|O|C00465674|38.860511|-94.77581|66062|OVERLAND PARK|KS
H0KS03137|YODER, KEVIN|REP|2012|KS|H|I|C00472365|38.957396|-94.64691|66207|OVERLAND PARK|KS
H0KS03145|MCPHERSON, CRAIG|REP|2010|KS|H|O|C00475574|38.865825|-94.71231|66221|OVERLAND PARK|KS
H0KS03152|OHARA, CHARLOTTE IRENE|REP|2010|KS|H|O|C00475715|38.860511|-94.77581|66062|OVERLAND PARK|KS
H0KS03178|TALBERT, JASMIN|LIB|2010|KS|H|O|C00480129|||66707|OVERLAND PARK|KS
H0KS03186|MOORE, STEPHENE ANN|DEM|2010|KS|H|O|C00480400|38.961006|-94.74145|66215|LENEXA|KS
H0KS03194|MALONE, JERRY M|REP|2010|KS|H|O|C00483073|38.900535|-94.63248|66209|LEAWOOD|KS
H0KS04044|KELSEY, RICHARD FRANKLIN|REP|2010|KS|H|O|C00460220|37.651845|-97.5739|67052|GODDARD|KS
H0KS04051|POMPEO, MICHAEL RICHARD|REP|2012|KS|H|I|C00460402|37.682063225|-97.361390075|67212|WICHITA|KS
H0KS04077|GOYLE, RAJ|DEM|2010|KS|H|O|C00464735|37.682063225|-97.361390075|67278|WICHITA|KS
H0KS04085|SCHODORF, JEAN KURTIS|REP|2010|KS|H|O|C00466557|37.682063225|-97.361390075|67204|WICHITA|KS
H0KS04093|HARTMAN, WINK|REP|2010|KS|H|O|C00467654|37.573226|-97.12421|67133|ROSE HILL|KS
H0KS04101|TILLMAN, ROBERT LEON|DEM|2012|KS|H|C|C00521344|37.682063225|-97.361390075|67220|WICHITA|KS
H0KY02087|MARKSBERRY, WARREN E|DEM|2010|KY|H|C|C00490557|37.750724250000005|-87.12174399999999|42303|OWENSBORO|KY
H0KY03184|LALLY, TODD|REP|2010|KY|H|C|C00473363|38.20007860606061|-85.68525571212122|40245|LOUISVILLE|KY
H0KY03192|HAUSMAN, FRANK LAWRENCE|REP|2010|KY|H|C|C00469528|38.20007860606061|-85.68525571212122|40255|LOUISVILLE|KY
H0KY03200|REETZ, JEFFREY THOMAS|REP|2010|KY|H|C|C00470955|38.20007860606061|-85.68525571212122|40243|LOUISVILLE|KY
H0KY03226|WICKER, SCOTT BROOKS JR|REP|2012|KY|H|C|C00505149|38.20007860606061|-85.68525571212122|40207|LOUISVILLE|KY
H0KY04059|THONEY, ROGER NEIL|REP|2002|KY|H|C|C00354365|39.019185|-84.44204|41076|HIGHLAND HEIGHTS|KY
H0KY04109|WALTZ, JOHN W|DEM|2012|MI|H|C|C00459909|42.19970333333333|-85.59837799999998|49081|PORTAGE|MI
H0KY05015|ROGERS, HAROLD DALLAS|REP|2012|KY|H|I|C00116632|37.09371599999999|-84.520033|42501|SOMERSET|KY
H0KY05130|PRINCE, DAVID|DEM|2010|KY|H|C|C00474429|38.071237|-82.64062|41230|LOUISA|KY
H0KY06104|BARR, GARLAND ANDY|REP|2012|KY|H|C|C00467571|38.028650139999996|-84.48421994|40588|LEXINGTON|KY
H0LA01087|SCALISE, STEVE MR.|REP|2012|LA|H|I|C00394957|29.960375|-90.156143|70121|JEFFERSON|LA
H0LA01178|KATZ, MYRON B|DEM|2010|LA|H|C|C00487124|29.992950545454548|-89.96252163636365|70118|NEW ORLEANS|LA
H0LA01186|WELLS, ARDEN|NPA|2012|LA|H|C||30.4300925|-90.4350275|70454|PONCHATOULA|LA
H0LA02119|JEFFERSON, WILLIAM J.|DEM|2008|LA|H|C|C00251348|29.992950545454548|-89.96252163636365|70115|NEW ORLEANS|LA
H0LA02168|LAFONTA, JUAN ANTHONY|DEM|2010|LA|H|C|C00467456|29.992950545454548|-89.96252163636365|70182|NEW ORLEANS|LA
H0LA02176|GREEN, EUGENE J JR|DEM|2010|LA|H|C|C00487231|29.992950545454548|-89.96252163636365|70158|NEW ORLEANS|LA
H0LA02192|JOHNSON , GARY|DEM|2010|LA|H|C|C00486225|29.992950545454548|-89.96252163636365|70115|NEW ORLEANS|LA
H0LA03018|TAUZIN, WILBERT J II|REP|2004|LA|H|C|C00119040|29.797776|-90.81809|70301|THIBODAUX         |LA
H0LA03125|MAGAR, KRISTIAN LEE|REP|2010|LA|H|O|C00466318|29.912577666666664|-91.75232333333334|70563|NEW IBERIA|LA
H0LA03133|SANGISETTY, RAVI|DEM|2010|LA|H|O|C00466995|29.689733|-91.0240788|70361|HOUMA|LA
H0LA03141|LANDRY, JEFFREY M|REP|2012|LA|H|I|C00472712|29.912577666666664|-91.75232333333334|70563|NEW IBERIA|LA
H0LA03166|LEOPOLD, CHRIS|REP|2010|LA|H|O|C00474981|29.822707|-90.00616|70037|BELLE CHASSE|LA
H0LA03174|DOWNER, HUNTINGTON B JR|REP|2010|LA|H|O|C00484212|29.689733|-91.0240788|70360|HOUMA|LA
H0LA04073|GAVI, STEVEN JUDE|DEM|2010|LA|H|C|C00477539|32.478752|-93.6704|71112|BOSSIEN CITY|LA
H0LA04081|MELVILLE, DAVID ROLAND JR|DEM|2010|LA|H|C|C00485805|32.582785400000006|-93.64113280000001|71112|BOSSIER CITY|LA
H0MA01040|DONNELLY, JEFFERY PAUL|REP|2010|MA|H|C|C00469783|42.13234700000002|-72.57616152380952|01104|SPRINGFIELD|MA
H0MA01065|GUNN, WILLIAM LESLIE JR|REP|2010|MA|H|C|C00483867|42.270611|-72.26067|01082|WARE|MA
H0MA02071|FLEITMAN, JAY SCOTT|REP|2010|MA|H|C|C00461970|42.324232|-72.67915|01062|FLORENCE|MA
H0MA02089|WESLEY, TOM|REP|2010|MA|H|C|C00465336|42.125536|-71.53662|02747|HOPEDALE|MA
H0MA02105|KEEGAN, MARGARET M|IND|2010|MA|H|C|C00485060|42.028147|-71.52999|01504|BLACKSTONE|MA
H0MA03038|BARRON, PATRICK|UNK|2010|MA|H|C|C00472688|42.325725|-71.810944|01545|SHREWSBURY|MA
H0MA03046|LAMB, MARTIN A|REP|2010|MA|H|C|C00478545|42.196065|-71.43797|01746|HOLLISTON|MA
H0MA03053|HERR, BRIAN|REP|2010|MA|H|C|C00478776|42.220447|-71.53418|01748|HOPKINTON|MA
H0MA03087|STOPA, MICHAEL|REP|2010|MA|H|C|C00486159|42.196065|-71.43797|01746|HOLLISTON|MA
H0MA04036|FRANK, BARNEY|DEM|2012|MA|H|I|C00128868|42.40347920000001|-71.35779670000001|02466|NEWTON|MA
H0MA04119|BROWN, RACHEL|DEM|2012|MA|H|O|C00471664|42.34437557407409|-71.0031983888889|02110|BOSTON|MA
H0MA04127|BIELAT, SEAN|REP|2012|MA|H|O|C00510065|42.32578066666667|-71.116495|02446|BROOKLINE|MA
H0MA05058|MEAS, SAMBO|REP|2010|MA|H|C|C00463182|42.77916760000001|-71.0996888|01835|HAVERHILL|MA
H0MA05066|GOLNIK, JONATHAN A|REP|2012|MA|H|C|C00468975|42.5286|-71.35084|01741|CARLISLE|MA
H0MA05090|CLARK, ROBERT MICHAEL|UNK|2010|MA|H|C|C00481143|42.380562|-71.62665|01503|BERLIN|MA
H0MA05108|WEAVER, THOMAS J.M.|REP|2012|MA|H|C|C00485813|42.592086|-71.43754|01886|WESTFORD|MA
H0MA06072|HUDAK, WILLIAM JOHN JR|REP|2012|MA|H|C|C00464354|42.677869|-71.00844|01921|BOXFORD|MA
H0MA06080|MCCARTHY, ROBERT J JR|REP|2010|MA|H|C|C00476606|42.462796|-71.0098|01906|SAUGUS|MA
H0MA07039|DEMBROWSKI, GERRY DR|REP|2012|MA|H|C|C00485284|42.45184585714286|-71.41549857142857|01801|WOBURN|MA
H0MA08029|JANKE, WILLIAM SCOTT|REP|2010|MA|H|C|C00487454|42.569756|-70.94322|01923|DANVERS|MA
H0MA09027|ROSA, DAVID A|IND|2012|MA|H|O||41.811514|-71.13633|02764|DIGHTON|MA
H0MA09035|HARRISON, VERNON MCKINLEY|REP|2010|MA|H|C|C00473298|42.1948015|-71.044455|02184|BRAINTREE|MA
H0MA09050|D'ALESSANDRO, MACDONALD KING|DEM|2010|MA|H|C|C00482299|42.253074|-71.07496|02186|MILTON|MA
H0MA10058|KASPEROWICZ, RAYMOND|REP|2010|MA|H|O|C00475681|42.241908|-70.81223|02025|COHASSET|MA
H0MA10066|PERRY, JEFFREY DAVIS|REP|2010|MA|H|O|C00475814|41.735645|-70.48866|02563|SANDWICH|MA
H0MA10074|MALONE, JOSEPH DANIEL|REP|2010|MA|H|O|C00478495|42.170562000000004|-70.7197755|02066|SCITUATE|MA
H0MA10082|KEATING, WILLIAM RICHARD|DEM|2012|MA|H|I|C00479063|41.67336|-70.608047|02553|MONUMENT BEACH|MA
H0MA10090|O'LEARY, ROBERT A|DEM|2010|MA|H|O|C00480392|41.701438|-70.277212|02637|CUMMAGUID|MA
H0MA10124|SHEETS, JAMES ANDREW|IND|2010|MA|H|O|C00484816|42.245583499999995|-71.031665|02169|QUINCY|MA
H0MA10132|LEWIS, MARYANNE|IND|2010|MA|H|C|C00488536|42.170562000000004|-70.7197755|02066|SCITUATE|MA
H0MD01166|ROMBLAD, GRADY|REP|2010|MD|H|C|C00464776|38.376468749999994|-75.6091625|21801|SALISBURY|MD
H0MD01174|FISHER, ROBERT A JR|REP|2010|MD|H|C|C00480012|38.705731|-75.77488|21632|FEDERALSBURG|MD
H0MD01182|WILSON, JACK SR|IND|2010|MD|H|C|C00481093|39.049377|-76.49892|21012|ARNOLD|MD
H0MD02149|CARDARELLI, MARCELO GABRIEL|REP|2010|MD|H|C|C00480194|39.435789|-76.63614|21093|LUTHERVILLE|MD
H0MD02164|ATKINS, RAYMOND|DEM|2010|MD|H|C|C00487108|39.4026225|-76.60533000000001|21286|TOWSON|MD
H0MD03121|LAWLESS, BENJAMIN LEVI|REP|2010|MD|H|C|C00474676|39.10019533333333|-76.60666066666667|21061|GLEN BURNIE|MD
H0MD03139|LAREAU, ALAIN EMILE JR|UNK|2010|MD|H|C|C00480202|39.199295666666664|-76.85223|21045|COLUMBIA|MD
H0MD03147|WILHELM, JIM|REP|2010|MD|H|C|C00480020|38.98329971428571|-76.54007942857143|21403|ANNAPOLIS|MD
H0MD03154|BARTOSZ, GREGORY ADAM|REP|2010|MD|H|C|C00482489|39.30939096078431|-76.61851498039216|21236|BALTIMORE|MD
H0MD04129|TAYLOR, HERMAN LEE JR|DEM|2010|MD|H|C|C00482935|39.0985292|-77.11824240000001|20910|SILVER SPRING|MD
H0MD05118|LOLLAR, CHARLES J|REP|2010|MD|H|C|C00465377|38.920111|-76.889|20785|LANDOVER|MD
H0MD05126|GALL, ANDREW CHARLES|DEM|2010|MD|H|C|C00475558|38.88822866666666|-76.893752|20740|COLLEGE PARK|MD
H0MD06173|CLARK, CASEY|DEM|2010|MD|H|C|C00460436|39.613293|-76.84802|21074|HAMPSTEAD|MD
H0MD06181|TAYLOR, STEVEN MICHAEL|REP|2010|MD|H|C|C00481788|39.42729666666667|-77.40794799999999|21701|FREDERICK|MD
H0MD07056|SMITH, CHARLES U|DEM|2012|MD|H|C||39.30939096078431|-76.61851498039216|21203|BALTIMORE|MD
H0MD07064|SPENCER, SCOTT JAMES|LIB|2010|MD|H|C|C00484501|39.30939096078431|-76.61851498039216|21218|BALTIMORE|MD
H0MD07072|MIRABILE, FRANK CHARLES JR|REP|2012|MD|H|C|C00485573|39.335671|-77.06364|21797|WOODBINE|MD
H0MD08120|THRON, CHRISTINE CONNELL|REP|2010|MD|H|C|C00481234|39.194497|-77.321|20841|BOYDS|MD
H0MD08138|GRANNIS, MARK ANDREW|LIB|2012|MD|H|C|C00527689|39.0619195|-77.1442035|20815|CHEVY CHASE|MD
H0MD08146|THOMAS, WILLIAM V|REP|2010|MD|H|C|C00484840|39.0619195|-77.1442035|20815|CHEVY CHASE|MD
H0MD08153|PHILIPS, MICHAEL LEE|REP|2010|MD|H|C|C00486274|39.110530125000004|-77.16780975|20850|ROCKVILLE|MD
H0ME02059|LEVESQUE, JASON JOHN|REP|2010|ME|H|C|C00463414|44.16106366666667|-70.24013333333333|04210|AUBURN|ME
H0MI01088|BENISHEK, DANIEL J. M.D.|REP|2012|MI|H|I|C00476325|46.12624|-88.35677|49920|CRYSTAL FALLS|MI
H0MI01104|ALLEN, JASON EDWARD|REP|2010|MI|H|O|C00481499|45.431122|-84.77654|49706|ALANSON|MI
H0MI01112|LAMBERT, PATRICK|IND|2010|MI|H|O|C00481879|44.447318|-83.41927|48750|OSCODA|MI
H0MI01120|SHELTROWN, JOEL |DEM|2010|MI|H|O|C00481952|44.288158|-84.21162|48661|WEST BRANCH|MI
H0MI01138|GILLARD, MATTHEW OLSON|DEM|2010|MI|H|O|C00482471|45.08583|-83.46411|49707|ALPENA|MI
H0MI01146|STILLINGS, THOMAS F|REP|2010|MI|H|O|C00483065|45.000254|-85.3651|49648|KEWADIN|MI
H0MI01153|MCDOWELL, GARY J. HON.|DEM|2012|MI|H|C|C00483784|46.204512|-84.73671|49780|RUDYARD|MI
H0MI01161|WILSON, GLENN A|IND|2010|MI|H|O|C00484691|44.468977|-84.19608|48654|ROSE CITY|MI
H0MI01187|BOAL, ELLIS|GRE|2012|MI|H|C||45.294169|-85.24516|49720|CHARLEVOIX|MI
H0MI02086|GRAESER, RONALD E.|OTH|2012|MI|H|C||43.509626999999995|-85.875467|49412|FREMONT|MI
H0MI02094|HUIZENGA, WILLIAM P|REP|2012|MI|H|I|C00459297|42.829252|-85.99621|49464|ZEELAND|MI
H0MI02102|RIEMERSMA, ALLEN JAY|REP|2010|MI|H|O|C00462283|42.85824866666667|-86.225817|49423|HOLLAND|MI
H0MI02110|COOPER, WILLIAM C|REP|2010|MI|H|O|C00463562|43.135994|-86.13348|49415|FRUITPORT|MI
H0MI02128|KUIPERS, WAYNE|REP|2010|MI|H|O|C00469791|42.85824866666667|-86.225817|49423|HOLLAND|MI
H0MI02144|REICHARDT, JOHN FIELD|REP|2010|MI|H|O|C00477752|43.04117|-86.19013|49417|GRAND HAVEN|MI
H0MI02151|SCHENDEL, EDWARD TED|REP|2010|MI|H|O|C00476739|44.701761|-86.05033|49640|HONOR|MI
H0MI02177|LARSON, CHRIS|REP|2010|MI|H|O|C00480376|43.080865|-86.215413|49409|FERRYSBURG|MI
H0MI03118|VAN KLEECK, MICHAEL|REP|2010|MI|H|O|C00473215|42.888821|-85.5616|49512|KENTWOOD|MI
H0MI03126|AMASH, JUSTIN|REP|2012|MI|H|I|C00476291|42.988566307692295|-85.5972746923077|49506|GRAND RAPIDS|MI
H0MI03134|HEACOCK, STEVEN R|REP|2010|MI|H|O|C00477604|42.988566307692295|-85.5972746923077|49546|GRAND RAPIDS|MI
H0MI03142|OVERBEEK, ROBERT JOHN|REP|2010|MI|H|O|C00479089|42.905877|-85.70392|49509|WYOMING|MI
H0MI03159|HARDIMAN, CLYDE PRESTON (WILLIAM)|REP|2010|MI|H|O|C00478586|42.876661|-85.62856|49508|KENTWOOD|MI
H0MI03167|JOHNSON, LOUISE E|REP|2010|MI|H|O|C00479543|42.988566307692295|-85.5972746923077|49525|GRAND RAPIDS|MI
H0MI03175|MILES, PATRICK A JR|DEM|2010|MI|H|O|C00479733|42.988566307692295|-85.5972746923077|49501|GRAND RAPIDS|MI
H0MI03209|GERRARD, THEODORE BROOKS|OTH|2010|MI|H|O|C00485326|42.988566307692295|-85.5972746923077|49525|GRAND RAPIDS|MI
H0MI05063|WILSON, RICK|REP|2010|MI|H|C|C00462366|42.925677|-83.63585|48439|GRAND BLANC|MI
H0MI05071|WITHERS, SCOTT LIVINGSTON JR|DEM|2010|MI|H|C|C00473140|43.268788|-83.79486|48415|BIRCH RUN|MI
H0MI05089|KUPIEC, JOHN|REP|2010|MI|H|C|C00483107|42.925677|-83.63585|48439|GRAND BLANC|MI
H0MI06103|HOOGENDYK, JACK|REP|2012|MI|H|C|C00479329|42.2845357|-85.5707457|49009|KALAMAZOO|MI
H0MI06137|VALKNER, MELVIN DEAN|TX|2010|MI|H|C|C00487603||||KALAMAZOO|
H0MI07051|AUGHNEY, SCOTT|TX|2010|MI|H|C|C00459685|42.2486965|-84.35545625|49204|JACKSON|MI
H0MI07077|ROONEY, BRIAN JOHN|REP|2010|MI|H|C|C00469973|42.344837|-83.89907|48130|DEXTER|MI
H0MI07085|STAHLY, MICHAEL ALLEN|REP|2012|MI|H|C|C00477422|42.640719|-84.73826|48876|POTTERVILLE|MI
H0MI07093|DAVIS, DANNY EDWARD|REP|2012|MI|H|C|C00479691|41.798043|-83.79433|49276|RIGA|MI
H0MI07101|MERLE, GREGORY|REP|2010|MI|H|C|C00480756|42.312176199999996|-85.1719662|49016|BATTLE CREEK|MI
H0MI07119|WUNSCH, RICHARD|GRE|2012|MI|H|C||42.089891|-84.22768|49230|BROOKLAND|MI
H0MI08042|ROGERS, MICHAEL J|REP|2012|MI|H|I|C00343863|42.63126033333333|-83.91503833333333|48843|HOWELL|MI
H0MI08091|ENDERLE, LANCE L|DEM|2012|MI|H|C|C00501734|42.67509583333333|-84.52129325|48912|LANSING|MI
H0MI08109|DASHAIRYA, BHAGWAN|LIB|2012|MI|H|C||42.314862000000005|-83.37631999999999|48185|WESTLAND|MI
H0MI09107|WELDAY, PAUL F|REP|2010|MI|H|C|C00462028|42.54318916666667|-83.379985|48336|FARMINGTON|MI
H0MI09115|RACZKOWSKI, ANDREW ROCKY|REP|2012|MI|H|O|C00463570|42.5065|-83.35363|48334|FARMINGTON HILLS|MI
H0MI09156|GRAY, ROBERT|IND|2010|MI|H|C|C00485169|42.660610000000005|-83.316005|48326|AUBURN HILLS|MI
H0MI10071|CAMP, DAVID LEE|REP|2012|MI|H|I|C00347476|43.62015171428571|-84.300764|48642|MIDLAND|MI
H0MI10113|CROPSEY, ALAN LEE|REP|1990|MI|H|C|C00241471|42.842438|-84.58612|48820|DEWITT|MI
H0MI10212|YANEZ, HENRY|DEM|2012|MI|H|C|C00489955|42.672322|-82.903065|48311|STERLING HGTS|MI
H0MI11087|MOSHER, NATALIE|DEM|2010|MI|H|C|C00460469|42.310112000000004|-83.47488000000001|48187|CANTON|MI
H0MI12119|SWITALSKI, MICHAEL NORBERT|DEM|2010|MI|H|C|C00460790|42.503285|-82.93851|48066|ROSEVILLE|MI
H0MI12127|VOLARIC, DONALD CECIL|REP|2012|MI|H|C|C00518977|42.670932|-82.77754|48047|CHESTERFIELD|MI
H0MI12135|WILLIAMS, JULIA|GRE|2012|MI|H|C|C00487264|42.536402|-82.95044|48026|FRASER|MI
H0MI13372|PLUMMER, GLENN RODNEY|DEM|2010|MI|H|C|C00469817|42.30390803846153|-83.1278015|48226|DETROIT|MI
H0MI13380|LEMMONS, LAMAR|DEM|2010|MI|H|C|C00477695|42.30390803846153|-83.1278015|48224|DETROIT|MI
H0MI13398|CLARKE, HANSEN|DEM|2012|MI|H|C|C00477828||||DETROIT|
H0MI13406|BROAD, JOHN W|DEM|2010|MI|H|C|C00483842||||GROSSE POINTE FARM|MI
H0MI13414|HAULER, JOHN RAYMOND|REP|2012|MI|H|C|C00484493|42.425836|-82.90003|48236|GROSSE POINTE WOOD|MI
H0MI13422|BROWN, VINCENT T|DEM|2010|MI|H|C|C00485391|42.282135499999995|-83.2445115|48135|GARDEN CITY|MI
H0MI13448|PETERSON, HEIDI SOOSHA|LIB|2010|MI|H|C|C00485672|42.30390803846153|-83.1278015|48202|DETROIT|MI
H0MI14214|SOSNOWSKI, MARC|UST|2012|MI|H|O||42.306537500000005|-83.271595|48127|DEARBORN HEIGHTS|MI
H0MI14222|UKRAINEC, DONALD WILLIAM|REP|2010|MI|H|C|C00485649|42.137071|-83.21446|48183|TRENTON|MI
H0MI15062|STEELE, ROBERT L|REP|2010|MI|H|C|C00476168|42.235260499999995|-83.607655|48198|YPSILANTI|MI
H0MN01037|QUIST, ALLEN|REP|2012|MN|H|C|C00470914|44.337276|-93.99282|56082|ST PETER|MN
H0MN01045|HAGEDORN, JAMES|REP|2010|MN|H|C|C00471946|43.630763|-94.10129|56013|BLUE EARTH|MN
H0MN01052|JOHNSON, LARS ALLEN|NNE|2010|MN|H|C|C00475509|44.01889066666667|-92.47794083333332|55903|ROCHESTER|MN
H0MN01060|WILSON, STEVEN JOHN|IDP|2010|MN|H|C|C00476010|44.01889066666667|-92.47794083333332|55906|ROCHESTER|MN
H0MN01086|MCKINZIE, MARION FRANK I|REP|2010|MN|H|C|C00479469|44.01889066666667|-92.47794083333332|55901|ROCHESTER|MN
H0MN02100|MADORE, SHELLY|DFL|2010|MN|H|C|C00474247|44.743963|-93.20624|55124|APPLE VALLEY|MN
H0MN03090|MEFFERT, JAMES A|DFL|2010|MN|H|C|C00470120|44.903864|-93.37056|55436|EDINA|MN
H0MN03116|OLESON, JONATHAN E|IND|2010|MN|H|C|C00487587|44.837964|-93.27657|55420|BLOOMINGTON|MN
H0MN04023|GAYLORD, KATHLEEN A|DFL|2012|MN|H|C|C00519314|44.887966|-93.04546|55075|SOUTH ST PAUL|MN
H0MN04049|MCCOLLUM, BETTY|DFL|2012|MN|H|I|C00354688|44.964815|-93.19581|55114|ST PAUL|MN
H0MN04130|LEE, BRADFORD GEORGE|REP|2010|MN|H|C|C00477125|45.060048|-92.95762|55115|MAHTOMEDI|MN
H0MN04148|COLLETT, TERESA STANTON|REP|2010|MN|H|C|C00481424|44.97092558823529|-93.10272325490196|55104|SAINT PAUL|MN
H0MN04155|LONGRIE, DIANA|DFL|2012|MN|H|C||44.989065|-93.10666|55117|MAPLEWOOD|MN
H0MN04163|CARLSON, STEVE|IDP|2012|MN|H|C|C00486894|44.97092558823529|-93.10272325490196|55102|SAINT PAUL|MN
H0MN05103|TORGERSON, LYNNE|REP|2012|MN|H|C|C00495093|44.988124797101456|-93.35478904347828|55402|MINNEAPOLIS|MN
H0MN05111|DEMOS, JOEL ALEXANDER|REP|2010|MN|H|C|C00477497|44.952064|-93.37795|55426|SAINT LOUIS PARK|MN
H0MN05137|CAVLAN, MICHAEL J|OTH|2010|MN|H|C|C00491076|44.988124797101456|-93.35478904347828|55407|MINNEAPOLIS|MN
H0MN06119|REED, MAUREEN KENNEDY|DFL|2010|MN|H|C|C00461798|45.0377835|-92.904768|55082|STILLWATER|MN
H0MN06127|CLARK, TARRYL LYNN|DEM|2012|MN|H|C|C00496513|46.982647933333325|-92.18859959999999|55801|DULUTH|MN
H0MN07059|BYBERG, LEE|REP|2012|MN|H|C|C00474452|45.118846|-95.04504|56201|WILLMAR|MN
H0MN07067|WALDORF, EUGENE|IND|2010|MN|H|C|C00479527|45.819474|-94.76247|56336|GREY EAGLE|MN
H0MN08115|CRAVAACK, RAYMOND J MR.|REP|2012|MN|H|I|C00475632|44.964852|-93.08397|55101|ST PAUL|MN
H0MN08123|OLSON, TIMOTHY L|IDP|2010|MN|H|C|C00481325|48.098627|-92.80495|55771|ORR|MN
H0MO00019|CARNAHAN, JOHN RUSSELL|DEM|2012|MO|H|I|C00493684|38.643334704225346|-90.28981135211271|63104|SAINT LOUIS|MO
H0MO01066|CLAY, WILLIAM LACY JR|DEM|2012|MO|H|I|C00346080|38.661351|-90.28434|63112|ST LOUIS|MO
H0MO01124|BRITTON, CANDICE LEE|DEM|2012|MO|H|C|C00502161|38.628402|-90.32636|63117|ST LOUIS|MO
H0MO01132|HAMLIN, ROBYN L|REP|2012|MO|H|C|C00523753|38.643334704225346|-90.28981135211271|63138|SAINT LOUIS|MO
H0MO01140|BAKER, MARTIN DEWAYNE|REP|2012|MO|H|C||38.631551|-90.193|63101|ST LOUIS|MO
H0MO01165|WORKS, MARSHALL|DEM|2012|MO|H|O||38.613573|-90.484374|63021|BALLWIN|MO
H0MO02148|AKIN, W TODD|REP|2012|MO|H|I|C00343475|38.618582|-90.43643|63131|ST LOUIS|MO
H0MO02213|LIEBER, ARTHUR HENRY|DEM|2010|MO|H|C|C00481408|38.662302|-90.45363|63141|ST LOUIS|MO
H0MO03112|MARTIN, EDWARD R|REP|2012|MO|H|C|C00464669|38.586052|-90.2941|63109|ST LOUIS|MO
H0MO03120|ARNOLD, DAVID JUSTUS|DEM|2010|MO|H|C|C00478271|38.549452|-90.32525|63123|AFFTON|MO
H0MO03153|WALLACE, RUSSELL EDWARD|REP|2010|MO|H|C|C00482919|38.405287|-90.57059|63051|HOUSE SPRINGS|MO
H0MO04086|HARTZLER, VICKY |REP|2012|MO|H|I|C00464602|38.641509|-94.34126|64701|HARRISONVILLE|MO
H0MO04094|STOUFFER, BILL|REP|2010|MO|H|C|C00465393|39.10518|-93.18783|65340|MARSHALL|MO
H0MO04102|COWAN, GREGORY|CON|2012|MO|H|C|C00466524|37.678528|-92.64733|65536|LEBANON|MO
H0MO04128|RILEY, BRIAN|REP|2010|MO|H|C|C00467779|39.10518|-93.18783|65340|MARSHALL|MO
H0MO05158|SHAWD, RON|REP|2012|MO|H|C||38.92601966666667|-94.37401083333333|64082|LEES SUMMIT|MO
H0MO06073|GRAVES, SAMUEL B 'SAM'|REP|2012|MO|H|I|C00359034|40.452497|-95.3661|64491|TARKIO|MO
H0MO06149|HYLTON, CLINT|DEM|2010|MO|H|C|C00480855|39.541896|-94.05158|64671|POLO|MO
H0MO06156|RIGHTS, THEODORE (TED)|DEM|2012|MO|H|C|C00512079|39.731689|-93.99009|64644|HAMILTON|MO
H0MO06164|RYAN, CHRISTOPHER|REP|2012|MO|H|C||39.270638999999996|-94.41187533333334|64068|LIBERTY|MO
H0MO06172|YARBER, KYLE|DEM|2012|MO|H|C|C00502674|39.213082|-94.57248|64118|GLADSTONE|MO
H0MO07105|GOODMAN, JACK|REP|2010|MO|H|O|C00459503|37.101742|-93.80738|65712|MOUNT VERNON|MO
H0MO07113|LONG, BILLY|REP|2012|MO|H|I|C00460063|37.2539538125|-93.269457875|65804|SPRINGFIELD|MO
H0MO07139|MOORE, DARRELL LEE|REP|2010|MO|H|O|C00464578|37.2539538125|-93.269457875|65809|SPRINGFIELD|MO
H0MO07147|MOON, C MICHAEL|REP|2012|MO|H|C|C00468355|37.2539538125|-93.269457875|65801|SPRINGFIELD|MO
H0MO07154|DAVIS, TIMOTHY SEAN|DEM|2010|MO|H|O|C00469320|36.6525755|-93.246239|65615|BRANSON|MO
H0MO07162|MOORE, DEAN RICHARD JR|IND|2010|MO|H|O|C00469510|36.923067|-93.30696|65669|HIGHLANDVILLE|MO
H0MO07170|WARDELL, MICHAEL|REP|2010|MO|H|O|C00471045|37.045593|-93.30563|65714|NIXA|MO
H0MO07196|HUNTER, STEPHEN D|REP|2010|MO|H|C|C00481044|37.13843975|-94.420959|64801|JOPLIN|MO
H0MO08244|PARKER, BOB|REP|2012|MO|H|C|C00465906|37.37815|-91.78576|65555|RAYMONDVILLE|MO
H0MO08251|SOWERS, TOMMY|DEM|2010|MO|H|C|C00466615|37.92774633333334|-91.78872266666667|65402|ROLLA|MO
H0MO08277|VANDEVEN, RICK|LIB|2012|MO|H|C||37.182556|-89.68379|63740|CHAFFEE|MO
H0MO09135|DWYER, CHRISTOPHER WILLAIM|LIB|2010|MO|H|C|C00482018|39.104503|-92.23452|65255|HALLSVILLE|MO
H0MO09143|BAKER, JAMES O|REP|2012|MO|H|O||38.778579|-90.62045|63376|SAINT PETERS|MO
H0MO09150|WILSON, STEVEN|LIB|2012|MO|H|C||38.417602|-92.02791|65085|WESTPHALIA|MO
H0MO09168|REED, CLIFFORD JEFFREY|DEM|2010|MO|H|C|C00489526|39.420353|-92.4344|65270|MOBERLY|MO
H0MP00014|BABAUTA, JUAN NEKAI|REP|2010|MP|H|C|C00485581|||96950|SAIPAN|MP
H0MP01012|BORJA, JESUS CAMACHO|DEM|2010|MP|H|C|C00484758|||96950|SAIPAN|MP
H0MP03018|CAMACHO, JOSEPH JAMES NORITA|OTH|2010|MP|H|C|C00482430|||96950|SAIPAN|MP
H0MS01043|NUNNELEE, PATRICK ALAN|REP|2012|MS|H|I|C00464487|34.23267224999999|-88.74612425000001|38802|TUPELO|MS
H0MS01050|ROSS, HERMAN HENRY II|REP|2012|MS|H|C|C00475988|33.577688|-89.3028|39744|EUPORA|MS
H0MS01076|MCGLOWAN, ANGELA|REP|2010|MS|H|C|C00476440|34.345016|-89.50735|38655|OXFORD|MS
H0MS02058|BAILEY, GEORGE B JR|REP|2010|MS|H|C|C00476960|32.33642333333333|-90.33297900000001|39056|CLINTON|MS
H0MS02066|MARCY, WILLIAM LOUIS|REP|2012|MS|H|C|C00488684|32.344136|-90.861272|39183|VICKSBURG|MS
H0MS04112|TEGERDINE, JOSEPH (JOE) DANIEL|REP|2010|MS|H|C|C00463380|31.358823|-89.2279|39465|PETAL|MS
H0MS04120|PALAZZO, STEVEN MCCARTY|REP|2012|MS|H|I|C00477323|30.414468666666664|-89.07423233333333|39506|GULFPORT|MS
H0MT00033|REHBERG, DENNIS R|REP|2012|MT|H|I|C00349431|45.91143657142858|-108.31023785714287|59106|BILLINGS|MT
H0MT00041|MCDONALD, DENNIS DEE|DEM|2010|MT|H|C|C00459032|46.13263|-109.89746|59055|MELVILLE|MT
H0MT00074|RANKIN, SAM|DEM|2012|MT|H|O|C00520148|45.91143657142858|-108.31023785714287|59102|BILLINGS|MT
H0MT00082|FRENCH, MARK TODD|REP|2010|MT|H|C|C00479907|47.387824|-114.799|59856|PARADISE|MT
H0MT01072|GERNANT, TYLER REED|DEM|2010|MT|H|C|C00460824|46.932911625|-114.02657175|59802|MISSOULA|MT
H0NC00012|KENNEDY, WILLIAM B JR|DEM|2010|NC|H|C|C00473496|36.268944|-81.77819|28692|VILAS|NC
H0NC01051|LARKINS, CHAD EDWARD|DEM|2010|NC|H|C|C00471342|36.474898|-78.04505|27551|MACON|NC
H0NC01069|WOOLARD, ASHLEY MCMULLAN|REP|2010|NC|H|C|C00470906|35.560439|-77.03459|27889|WASHINGTON|NC
H0NC02042|DEATRICH, FRANK|REP|2010|NC|H|C|C00471029|36.062239|-78.24953|27549|LOUISBURG|NC
H0NC02059|ELLMERS, RENEE JACISIN|REP|2012|NC|H|I|C00471896|35.3265965|-78.613281|28334|DUNN|NC
H0NC02067|GAILAS, TODD ANTHONY|REP|2010|NC|H|C|C00480707|35.846363|-78.83866|27560|MORRISVILLE|NC
H0NC03099|ROUSE, JOHNNY GERALD|DEM|2010|NC|H|C|C00474551|35.5307045|-77.400826|28590|WINTERVILLE|NC
H0NC03107|HOLLOMAN, DARRYL ALAN|LIB|2012|NC|H|C|C00477521|35.3937248|-78.0068264|27530|GOLDSBORO|NC
H0NC04139|HUTCHINS, GEORGE FRANK|REP|2012|NC|H|C|C00508267|35.81289577777778|-78.63090008888891|27624|RALEIGH|NC
H0NC04147|ROCHE, FRANK XAVIER|REP|2010|NC|H|C|C00465088|35.7090295|-78.823588|27539|APEX|NC
H0NC06126|TAYLOR, JAMES EDWARD II|REP|2010|NC|H|C|C00474353|35.2303645|-79.411787|28388|SOUTHERN PINES|NC
H0NC06134|TURNER, GREGORY SCOTT 'SAM'|DEM|2010|NC|H|C|C00477133|35.6702144|-80.47719220000002|28144|SALISBURY|NC
H0NC06142|YOW, WILLIAM A (BILLY)|REP|2012|NC|H|C|C00476911|36.0831189642857|-79.93603567857141|27406|GREENSBORO|NC
H0NC06159|MANGIN, JONATHAN D|REP|2010|NC|H|C|C00477760|36.0831189642857|-79.93603567857141|27410|GREENSBORO|NC
H0NC07090|WILKES, TIMOTHY ALAN|REP|2012|NC|H|C|C00500165|33.974251|-78.30961|28462|SUPPLY|NC
H0NC07108|PANTANO, ILARIO|REP|2012|NC|H|C|C00475004|34.171848000000004|-77.88427766666665|28403|WILMINGTON|NC
H0NC08155|HUDDLESTON, LOUIS DOUGLASS|REP|2010|NC|H|C|C00466342|35.05378755555555|-78.91604177777778|28305|FAYETTEVILLE|NC
H0NC08163|D'ANNUNZIO, TIMOTHY BRUCE|REP|2012|NC|H|C|C00515213|34.992085|-79.23013|28376|RAEFORD|NC
H0NC08171|JORDAN, HAROLD P|REP|2010|NC|H|C|C00468751|35.24106722077923|-80.81472076623379|28212|CHARLOTTE|NC
H0NC08189|PALISIN, ROBERT ERVIN|REP|2010|NC|H|C|C00471987|35.384109333333335|-80.581686|28027|CONCORD|NC
H0NC08197|JOHNSON, HAROLD NELSON|REP|2010|NC|H|C|C00472001|35.384109333333335|-80.581686|28025|CONCORD|NC
H0NC08205|SHAKIR, NANCY F CLARK|DEM|2010|NC|H|C|C00477331|35.05378755555555|-78.91604177777778|28304|FAYETTEVILLE|NC
H0NC08221|HILL, THOMAS|DEM|2012|NC|H|O||35.202275|-82.47156|28790|ZIRCONIA|NC
H0NC09138|DOCTOR, JEFFREY JAMES|DEM|2010|NC|H|C|C00467043|34.929433|-80.73061|28173|MARVIN|NC
H0NC10151|KEADLE, SCOTT|REP|2012|NC|H|C|C00499954|35.577991999999995|-80.84743|28117|MOORESVILLE|NC
H0NC10169|PATTERSON, VANCE|REP|2012|NC|H|O|C00472266|35.7467045|-81.705771|28655|MORGANTON|NC
H0NC10177|GREGORY, JEFFREY DALE|DEM|2010|NC|H|C|C00478933|35.26904066666666|-81.56974033333334|28150|SHELBY|NC
H0NC10185|BOLDON, DAVID MICHAEL|REP|2010|NC|H|C|C00480285|35.575785|-81.18843|28650|MAIDEN|NC
H0NC11084|EICHENBAUM, DAN DR|REP|2012|NC|H|O|C00470179|35.091332|-84.09018|28906|MURPHY|NC
H0NC11092|WEST, KENNETH D|REP|2012|NC|H|O|C00514463|35.052591|-83.76683|28904|HAYESVILLE|NC
H0NC11118|MILLER, JEFFERY LANE|REP|2010|NC|H|C|C00474858|35.32219666666666|-82.47775433333332|28739|HENDERSONVILLE|NC
H0NC11126|HOWARD, JAMES J|REP|2010|NC|H|C|C00476267|35.1511585|-83.342782|28734|FRANKLIN|NC
H0NC12074|CECIL, LON VERNON MR.|LIB|2012|NC|H|C|C00468777|36.0014385|-80.00525666666667|27265|HIGH POINT|NC
H0NC12082|GILLENWATER, WILLIAM DEAN 'DOC'|REP|2010|NC|H|C|C00470211|36.0831189642857|-79.93603567857141|27407|GREENSBORO|NC
H0NC13015|RANDALL, WILLIAM ALFRED MR. II|REP|2012|NC|H|O|C00465096|35.972324|-78.486582|27587|WAKE FOREST|NC
H0NC13023|REEVES, RALPH BERNARD III|REP|2010|NC|H|C|C00474791|35.81289577777778|-78.63090008888891|27609|RALEIGH|NC
H0NC13031|HUFFMAN, DANIEL BAXTER II|REP|2010|NC|H|C|C00475251|35.972324|-78.486582|27587|WAKE FOREST|NC
H0NC13056|HARDESTY, JAMES ANTHONY|IND|2010|NC|H|C|C00478891|35.790516|-78.48345|27545|KNIGHTDALE|NC
H0NC13064|SMITH-KEARNEY, VANESSA MCGEE|DEM|2012|NC|H|O|C00490490|36.4490655|-79.761222|27288|EDEN|NC
H0ND00135|BERG, RICHARD A|REP|2012|ND|H|I|C00474619|46.91068671428572|-97.09320092857145|58106|FARGO|ND
H0ND00143|DONAGHE, JD|REP|2010|ND|H|C|C00481218|48.719925|-102.08301|58746|KENMARE|ND
H0ND01026|CRAMER, KEVIN|REP|2012|ND|H|O|C00504704|46.877277285714285|-100.68709442857143|58502|BISMARCK|ND
H0NE01062|HARPER, IVY|DEM|2010|NE|H|C|C00479295|40.81781506666667|-96.69156293333332|68506|LINCOLN|NE
H0NE01070|TUREK, JESSICA LYNN|REP|2012|NE|H|C||40.81781506666667|-96.69156293333332|68506|LINCOLN|NE
H0NE01104|HUNT, DAVID LYNN|REP|2010|NE|H|C|C00479535|41.5383545|-96.1659725|68008|BLAIR|NE
H0NE02136|SAKALOSKY, MATTHEW JAMES|REP|2010|NE|H|C|C00461905|41.27046787755102|-96.0905979591837|68130|OMAHA|NE
H0NE02144|WHITE, THOMAS M.|DEM|2010|NE|H|C|C00464206|41.27046787755102|-96.0905979591837|68104|OMAHA|NE
H0NE02151|ODOM, JERRY ALAN|REP|2010|NE|H|C|C00474882|41.27046787755102|-96.0905979591837|68138|OMAHA|NE
H0NE03183|LARSON, ROBERT CHARLES|DEM|2010|NE|H|C|C00466367|40.434479|-99.37311|68949|HOLDREGE|NE
H0NE03191|PARKER, DENNIS|REP|2012|NE|H|C|C00474254|41.487959000000004|-97.4568575|68601|COLUMBUS|NE
H0NE03209|HILL, DANIEL NATHAN|OTH|2010|NE|H|C|C00485797|40.904049666666666|-98.40683|68801|GRAND ISLAND|NE
H0NH01209|BESTANI, ROBERT MARTIN|REP|2010|NH|H|C|C00458216|43.072738|-70.94336|03857|NEWMARKET|NH
H0NH01217|GUINTA, FRANK|REP|2012|NH|H|C|C00461350|42.97060722222222|-71.541694|03105|MANCHESTER|NH
H0NH01225|ASHOOH, RICHARD E|REP|2010|NH|H|C|C00473538|42.942551|-71.51993|03110|BEDFORD|NH
H0NH01241|PARENT, RICK|REP|2012|NH|H|C|C00525121|43.596233|-71.19552|03894|WOLFEBORO|NH
H0NH02017|BASS, CHARLES F.|REP|2012|NH|H|I|C00302570|42.884919|-71.95133|03458|PETERBOROUGH|NH
H0NH02181|KUSTER, ANN MCLANE|DEM|2012|NH|H|C|C00462861|||03329|HOPKINTON|NH
H0NH02199|DEJOIE, JOHN|DEM|2010|NH|H|O|C00466052|43.255295000000004|-71.58903475|03301|CONCORD|NH
H0NH02207|GIUDA, ROBERT|REP|2010|NH|H|O|C00468348|43.938224|-71.88853|03279|WARREN|NH
H0NH02215|SWETT, KATRINA|DEM|2012|NH|H|C|C00431502|43.144614|-71.53576|03304|BOW|NH
H0NH02223|SONNER, WESLEY MICHAEL JR|REP|2010|NH|H|O|C00483537|42.899434|-71.68057|03057|MONT VERNON|NH
H0NH02231|VANBLOMMESTEYN, TIMOTHY|IND|2010|NH|H|O|C00484022|43.430018|-71.90457|03287|WILMOT|NH
H0NJ00019|AGOSTA, MICHAEL|REP|2010|NJ|H|C|C00480293|41.0714|-74.80199|07860|Newton|NJ
H0NJ01066|ANDREWS, ROBERT E. MR.|DEM|2012|NJ|H|I|C00243428|39.87913|-75.06599|08035|HADDON HEIGHTS|NJ
H0NJ01157|KERN, WILLIAM|LIB|2010|NJ|H|C|C00466300|39.823096|-75.02684550000001|08031|BELLMAWR|NJ
H0NJ02114|BIAMONTE, LINDA|REP|2010|NJ|H|C|C00475467|39.398172|-74.59667|08234|EGG HARBOR TWP|NJ
H0NJ03146|RULLO, JOSEPH R|REP|2010|NJ|H|C|C00473306|39.949873600000004|-74.2150056|08753|TOMS RIVER|NJ
H0NJ03153|RUNYAN, JON|REP|2012|NJ|H|I|C00477661|39.949446|-74.90342|08054|MT LAUREL|NJ
H0NJ03179|DESTEFANO, PETER M|OTH|2010|NJ|H|C|C00488254|39.949446|-74.90342|08054|MOUNT LAUREL|NJ
H0NJ04086|KLEINHENDLER, HOWARD|DEM|2010|NJ|H|C|C00471920|40.082782|-74.2094|08701|LAKEWOOD|NJ
H0NJ04094|SIANO, JOSEPH A|LIB|2010|NJ|H|C|C00480350|40.06834|-74.84463|08016|BURLINGTON|NJ
H0NJ05125|THEISE, TOD|DEM|2010|NJ|H|C|C00482745|40.753753|-74.99617|07882|WASHINGTON|NJ
H0NJ06149|WRIGHT, SHANNON|REP|2010|NJ|H|C|C00475756|40.63031425|-74.39361299999999|07060|PLAINFIELD|NJ
H0NJ06156|GOOCH, DIANE|REP|2010|NJ|H|C|C00477679|40.369145|-73.99576|07760|RUMSON|NJ
H0NJ06164|LITTLE, ANNA C|REP|2012|NJ|H|C|C00512616|40.404474|-73.9904|07732|HIGHLANDS|NJ
H0NJ06198|FREUDENHEIM, JACK|IND|2012|NJ|H|C||40.63031425|-74.39361299999999|07062|PLAINFIELD|NJ
H0NJ07089|KEAN, THOMAS H JR|REP|2000|NJ|H|C|C00457929|40.591653|-74.31341|07067|COLONIA|NJ
H0NJ07196|LARSEN, DAVID KENNY|REP|2012|NJ|H|C|C00510750|40.643314|-74.82345|08833|LEBANON|NJ
H0NJ07212|POTOSNAK, EDWARD III|DEM|2012|NJ|H|C|C00496273|40.637152|-74.37493|07076|SCOTCH PLAINS|NJ
H0NJ07220|HOSFORD, ALONZO LAWRENCE|REP|2010|NJ|H|C|C00479071|40.587606|-75.10402|08848|MILFORD|NJ
H0NJ08103|BILLACK, BLASE|REP|2012|NJ|H|C||40.8883594|-74.1826066|07015|CLIFTON|NJ
H0NJ09143|ASLANIAN, JOHN|REP|2010|NJ|H|C|C00477935|40.883749|-73.95173|07632|ENGLEWOOD CLIFFS|NJ
H0NJ09168|ALESSANDRINI, PATRICIA|GRE|2012|NJ|H|C||40.919509|-74.0471905|07666|TEANECK|NJ
H0NJ10026|PAYNE, DONAL M.|DEM|2012|NJ|H|I|C00225045|40.76504404166666|-74.22013475|07114|NEWARK|NJ
H0NJ10141|WRIGHT, CATHY|DEM|2012|NJ|H|O||40.76504404166666|-74.22013475|07101|NEWARK|NJ
H0NJ10174|TOUSSAINT, ROBERT LOUIS|OTH|2010|NJ|H|C|C00487389|40.728901|-74.26821|07040|MAPLEWOOD|NJ
H0NJ10182|MILLER, JOANNE|OTH|2012|NJ|H|O||40.76504404166666|-74.22013475|07114|NEWARK|NJ
H0NJ11099|HERBERT, RALEIGH DOUGLAS|DEM|2010|NJ|H|C|C00480582|40.7332|-74.39736|07928|CHATHAM|NJ
H0NJ11115|LUZZI, RICHARD |REP|2010|NJ|H|C|C00482877|40.8266405|-74.52123125|07960|MORRISTOWN|NJ
H0NJ11123|GAWRON, JIM|LIB|2010|NJ|H|C|C00487348|40.84405|-74.70134|07836|FLANDERS|NJ
H0NJ12154|HALFACRE, MICHAEL|REP|2010|NJ|H|C|C00460394|40.591653|-74.31341|07067|COLONIA|NJ
H0NJ12162|SIPPRELLE, SCOTT|REP|2010|NJ|H|C|C00473355|40.3244262|-74.6770994|06542|PRINCETON|NJ
H0NJ12170|CODY, KENNETH J.|OTH|2012|NJ|H|C||40.3244262|-74.6770994|08543|PRINCETON|NJ
H0NJ13152|DWYER, HENRIETTA|REP|2010|NJ|H|C|C00488361|40.7895|-74.01223|07093|WEST NEW YORK|NJ
H0NJ13178|ZANOWIC, ANTHONY|REP|2012|NJ|H|C||40.666552|-74.11768|07002|BAYONNE|NJ
H0NJ31014|DYER, OMAR LAMONT|DEM|2012|NJ|H|C|C00475137|40.729075615384616|-74.06528215384614|07304|JERSEY CITY|NJ
H0NJ33010|BOSS, JEFF|DEM|2010|NJ|H|C|C00462895|40.7895|-74.01223|07093|GUTTENBERG|NJ
H0NM01155|WOODRUFF, ALAN P|GRE|2010|NM|H|C|C00459370|35.07455360000001|-106.63356884444445|87114|ALBUQUERQUE|NM
H0NM01163|BARELA, JON|REP|2010|NM|H|C|C00462739|35.07455360000001|-106.63356884444445|87199|ALBUQUERQUE|NM
H0NM03045|MULLINS, THOMAS E|REP|2010|NM|H|C|C00469445|36.72854833333333|-108.13551666666666|87401|FARMINGTON|NM
H0NV01110|LAKE, CRAIG O JR|REP|2010|NV|H|C|C00466581|36.06223526153846|-115.10904812307692|89136|LAS VEGAS|NV
H0NV01128|TATNER, JOSEPH LANCE|REP|2010|NV|H|C|C00472886|36.06223526153846|-115.10904812307692|89129|LAS VEGAS|NV
H0NV01144|CUNNINGHAM, DAVID ROSS|REP|2010|NV|H|C|C00476481|36.06223526153846|-115.10904812307692|89107|LAS VEGAS|NV
H0NV01151|FIORE , MICHELE ANN|REP|2010|NV|H|C|C00479261|36.06223526153846|-115.10904812307692|89102|LAS VEGAS|NV
H0NV01169|FLUME, CHARLES WILLIAM SR.|REP|2010|NV|H|C|C00480434|36.06223526153846|-115.10904812307692|89147|LAS VEGAS|NV
H0NV02142|SCHOFIELD, JACK|DEM|2010|NV|H|C|C00469700|36.06223526153846|-115.10904812307692|89104|LAS VEGAS|NV
H0NV02167|BEST, RUSSELL|IAP|2012|NV|H|C|C00536276|39.158807818181806|-119.77115127272728|89721|CARSON CITY|NV
H0NV02183|DEHNE, DENIS 'SAM'|DEM|2012|NV|H|C||39.910358454545445|-119.7081178181818|89502|RENO|NV
H0NV02191|PRICE, NANCY|DEM|2011|NV|H|O|C00479774|39.9588056|-119.6668396|89431|SPARKS|NV
H0NV03033|LAUER, ROBERT LELIE|REP|2010|NV|H|C|C00468173|36.06223526153846|-115.10904812307692|89123|LAS VEGAS|NV
H0NV03041|LEUTWYLER, BRAD LORD|REP|2010|NV|H|C|C00467928|36.001963333333336|-115.01414688888889|89074|HENDERSON|NV
H0NV03058|HECK, JOE|REP|2012|NV|H|I|C00468421|36.001963333333336|-115.01414688888889|89053|HENDERSON|NV
H0NV03090|NOHRDEN, STEVEN PATRICK|REP|2010|NV|H|C|C00485177|36.06223526153846|-115.10904812307692|89117|LAS VEGAS|NV
H0NY00055|LYKES, THELMA|IND|2010|NY|H|C|C00465666|40.84928938461538|-73.87575261538461|10451|BRONX|NY
H0NY00063|COX, CHRISTOPHER N|REP|2010|NY|H|C|C00474395|40.816142|-72.63449|11978|WESTHAMPTON BEACH|NY
H0NY01129|ALTSCHULER, RANDOLPH MR.|REP|2012|NY|H|C|C00465245|40.914249999999996|-72.88227900000001|11790|STONY BROOK|NY
H0NY01137|DEMOS, GEORGE|REP|2012|NY|H|C|C00500553|40.818826|-73.1187|11779|RONKONKOMA|NY
H0NY01152|CANTWELL, CHRISTOPHER CHARLES|REP|2010|NY|H|C|C00478875|40.914249999999996|-72.88227900000001|11790|STONY BROOK|NY
H0NY01160|FITZPATRICK, MICHAEL J|REP|2010|NY|H|C|C00479915|40.884394|-73.15868|11780|SAINT JAMES|NY
H0NY02085|ISRAEL, STEVE J.|DEM|2012|NY|H|I|C00358952|40.760698|-73.33007|11729|DEER PARK|NY
H0NY02168|TOLDA, ANTHONY E|REP|2012|NY|H|C|C00472548|40.867498|-73.41146|11743|HUNTINGTON|NY
H0NY02176|LABATE, STEPHEN A|REP|2012|NY|H|C|C00473777|40.733398|-73.32257|11703|NORTH BABYLON|NY
H0NY02184|GOMEZ, JOHN B MR.|REP|2010|NY|H|C|C00477794|40.74485|-73.055|11705|BAYPORT|NY
H0NY03042|KUDLER, HOWARD |DEM|2010|NY|H|C|C00487256|40.666575|-73.55475|11566|MERRICK|NY
H0NY04057|SCATURRO, FRANK|REP|2012|NY|H|C|C00465054|40.73726166666667|-73.60698466666666|11550|HEMPSTEAD|NY
H0NY04065|ZINNO, PETER A|REP|2010|NY|H|C|C00473041|40.68014833333333|-73.62412166666667|11570|ROCKVILLE CENTRE|NY
H0NY04073|SEIDEMANN, DAVID J|REP|2010|NY|H|C|C00475269|40.61579|-73.73126|11559|LAWRENCE|NY
H0NY04081|SHEA, SEAN ARTHUR|REP|2010|NY|H|C|C00485078|40.639575|-73.66703|11518|EAST ROCKAWAY|NY
H0NY04099|BECKER, FRANCIS X. JR.|REP|2012|NY|H|C|C00484774|40.692311|-73.647702|11563|LYNBROOK|NY
H0NY04107|MALONEY, DANIEL P|REP|2010|NY|H|C|C00487843|40.654112|-73.6095|11510|BALDWIN|NY
H0NY05062|MILANO, JAMES|DEM|2010|NY|H|C|C00478057|40.785642|-73.64006|11577|ROSLYN HEIGHTS|NY
H0NY06045|TAUB, ASHER E|REP|2010|NY|H|C|C00486290|40.706903|-73.82973||KEW GARDENS|NY
H0NY07068|REYNOLDS, KENNETH |UNK|2010|NY|H|C|C00491464|40.84928938461538|-73.87575261538461|10465|BRONX|NY
H0NY07076|GRONOWICZ, ANTHONY|GRE|2012|NY|H|C||40.84928938461538|-73.87575261538461|10462|BRONX|NY
H0NY09072|TURNER, ROBERT L|REP|2012|NY|H|I|C00483495|40.658188|-73.84321|11414|HOWARD BEACH|NY
H0NY12159|MARTINEZ, GEORGE|DEM|2012|NY|H|C|C00516633|40.65091198076924|-73.95300596153847|11233|BROOKLYN|NY
H0NY13066|ALLEGRETTI, MICHAEL A|REP|2010|NY|H|C|C00463935|40.65091198076924|-73.95300596153847|11209|BROOKLYN|NY
H0NY13074|GRIMM, MICHAEL|REP|2012|NY|H|I|C00470807|40.65091198076924|-73.95300596153847|11215|BROOKLYN|NY
H0NY14189|SAUJANI, RESHMA M|DEM|2010|NY|H|C|C00469866|40.76633930120482|-73.97691936746988|10009|NEW YORK|NY
H0NY14197|LAVERGHETTA, DINO|REP|2010|NY|H|C|C00475772|40.76633930120482|-73.97691936746988|10280|NEW YORK|NY
H0NY14205|BRUMBERG, DAVID RYAN|REP|2010|NY|H|C|C00479519|40.76633930120482|-73.97691936746988|10003|NEW YORK|NY
H0NY14213|BLANK, ROGER|REP|2010|NY|H|C|C00483271|40.76633930120482|-73.97691936746988|10016|NEW YORK|NY
H0NY14221|HEALY, TIMOTHY J|REP|2010|NY|H|C|C00483289|40.76633930120482|-73.97691936746988|10029|NEW YORK|NY
H0NY15103|MORGAN, VINCENT SCOTT|DEM|2012|NY|H|C|C00463406|40.76633930120482|-73.97691936746988|10026|NEW YORK|NY
H0NY15111|FAULKNER , MICHEL|REP|2010|NY|H|C|C00470997|40.76633930120482|-73.97691936746988|10025|NEW YORK|NY
H0NY15129|JOHNSON, JOYCE STANLEY|DEM|2012|NY|H|C|C00507426||||NEW YORK|
H0NY15137|TASINI, JONATHAN|DEM|2010|NY|H|C|C00462598|40.76633930120482|-73.97691936746988|10040|NEW YORK|NY
H0NY16101|JOHNSON, DAVID M|DEM|2010|NY|H|C|C00473991|40.84928938461538|-73.87575261538461|10452|BRONX|NY
H0NY16119|DELLA VALLE, FRANK|REP|2012|NY|H|C||40.84928938461538|-73.87575261538461|10465|BRONX|NY
H0NY17125|MELE, ANTHONY|REP|2010|NY|H|C|C00480731|41.116795|-74.04504|10977|CHESTNUT RIDGE|NY
H0NY17133|KLEINHANDLER, YORK JAY|REP|2010|NY|H|C|C00480871|41.129237|-74.015393|10994|WEST NYACK|NY
H0NY18065|SERRANO, JOSE E|DEM|2012|NY|H|I|C00240986|40.84928938461538|-73.87575261538461|10465|BRONX|NY
H0NY18164|ROSEN, MARK L|REP|2012|NY|H|C|C00479303|40.933089|-73.75615|10538|LARCHMONT|NY
H0NY19121|BALL, GREGORY R|REP|2010|NY|H|C|C00461699|41.483689|-73.57293|12563|PATTERSON|NY
H0NY19139|HAYWORTH, NAN|REP|2012|NY|H|C|C00466490|41.444833|-73.6845|10512|CARMEL|NY
H0NY19154|DI CARLO, NEIL ANTHONY|REP|2010|NY|H|C|C00474171|41.41362|-73.59556|10509|BREWSTER|NY
H0NY19162|CAVERE, KRISTIA NATALIA|REP|2010|NY|H|C|C00479311|41.197123|-74.21069|10987|TUXEDO|NY
H0NY20079|MURPHY, SCOTT M|DEM|2010|NY|H||C00458893|43.312104|-73.64825|12801|GLENS FALLS|NY
H0NY20095|GIBSON, CHRISTOPHER P|REP|2012|NY|H|I|C00477984|42.388394|-73.70726|12106|KINDERHOOK|NY
H0NY21077|DANZ, THEODORE J JR|REP|2010|NY|H|C|C00484576|42.698692|-74.03148|12009|ALTAMONT|NY
H0NY23057|DOHENY, MATTHEW|REP|2012|NY|H|C|C00462853|44.328698|-75.93103|13607|ALEXANDRIA BAY|NY
H0NY23065|SCOZZAFAVA, DIERDRE K|REP|2010|NY|H|C|C00463976|44.319897|-75.45537|13642|GOUVERNEUR|NY
H0NY23073|MCGRATH, BRIAN|DEM|2010|NY|H|O|C00466045|43.794492|-75.46905|13367|LOWVILLE|NY
H0NY23081|OWENS, WILLIAM|DEM|2012|NY|H|I|C00464495|44.6883695|-73.45627999999999|12901|PLATTSBURGH|NY
H0NY23107|HOFFMAN, DOUGLAS L. MR.|REP|2010|NY|H|C|C00464826|44.292147|-73.95985|12946|LAKE PLACID|NY
H0NY23115|BRODY, STUART|DEM|2009|NY|H|C|C00464917|44.259479|-73.40591|12936|ESSEX|NY
H0NY25052|BERTAN, PAUL BEERS|REP|2010|NY|H|C|C00457309|43.045532892857146|-76.16642753571429|13209|SYRACUSE|NY
H0NY25078|BUERKLE, ANN MARIE|REP|2012|NY|H|I|C00473751|43.045532892857146|-76.16642753571429|13215|SYRACUSE|NY
H0NY25086|ROMAIN, MARC ALAN|IND|2010|NY|H|C|C00485128|43.045532892857146|-76.16642753571429|13206|SYRACUSE|NY
H0NY27066|ROBERTO, LEONARD A|REP|2010|NY|H|C|C00482828|42.898709|-78.51652|14004|ALDEN|NY
H0NY28106|GIULIANO, MICHAEL NEIL|REP|2010|NY|H|C|C00481853|43.21979855319149|-77.64726129787233|14604|ROCHESTER|NY
H0NY28114|EGRIU, EMIN EDDIE|DEM|2010|NY|H|C|C00482265|42.86095690909091|-78.84706422727274|14209|BUFFALO|NY
H0NY28122|ROWLAND, JILL ANN|REP|2010|NY|H|C|C00486530|42.86095690909091|-78.84706422727274|14222|BUFFALO|NY
H0NY29054|REED, THOMAS W II|REP|2012|NY|H|I|C00464032|42.143073|-77.30738|14830|CORNING|NY
H0NY29062|ZELLER, MATTHEW|DEM|2010|NY|H|O|C00480897|42.980323|-77.42022|14564|VICTOR|NY
H0OH01065|STEVENSON, RICHARD L|GRE|2012|OH|H|C||39.16559364383562|-84.49549378082193|45204|CINCINNATI|OH
H0OH02048|YALAMANCHILI, SURYA|DEM|2010|OH|H|C|C00468678|39.16559364383562|-84.49549378082193|45202|CINCINNATI|OH
H0OH02071|PARKER, JIM|DEM|2010|OH|H|C|C00476499|39.123071|-83.0009|45690|WAVERLY|OH
H0OH02113|ALSFELDER, DEBBI|REP|2010|OH|H|C|C00481754|39.16559364383562|-84.49549378082193|45227|CINCINNATI|OH
H0OH03061|MACNEALY, MARK A|DEM|2010|OH|H|C|C00477778|39.889356|-84.2051|45377|VANDALIA|OH
H0OH03079|ROBERTS, JOSEPH MICHAEL|DEM|2010|OH|H|C|C00483644|39.713309|-84.16523|45419|KETTERING|OH
H0OH03087|FOGLE, GUY NELSON|DEM|2010|OH|H|C|C00484808|39.690998|-84.2696665|45432|MIAMISBURG|OH
H0OH04069|LITT, DOUG|DEM|2012|OH|H|C|C00481994|40.762564375|-82.52734075000001|44905|MANSFIELD|OH
H0OH05041|FINKENBINER, CALEB|DEM|2010|OH|H|C|C00479808|41.29037|-84.36539|43512|DEFIANCE|OH
H0OH05058|WALLIS, ROBERT|REP|2012|OH|H|C||40.929839|-84.73138|45832|CONVEY|OH
H0OH06163|ALLEN, DONALD KENNETH DR|REP|2010|OH|H|C|C00461863|41.07170376470588|-80.69338011764705|44511|YOUNGSTOWN|OH
H0OH06171|MCCUSKER, CORY|LIB|2010|OH|H|C|C00476002|41.016159|-80.61549|44514|POLAND|OH
H0OH06189|JOHNSON, BILL|REP|2012|OH|H|I|C00476820|39.426551|-81.44373|45750|MARIETTA|OH
H0OH06197|CADLE, RICHARD E|CST|2010|OH|H|C|C00478479|41.090089|-80.86736|44451|NORTH JACKSON|OH
H0OH07021|HOBSON, DAVID LEE|REP|2008|OH|H||C00239905|39.92746366666667|-83.810553|45503|SPRINGFIELD|OH
H0OH07070|MITCHEL, JOHN R|REP|2010|OH|H|C|C00479568|39.74654581632654|-84.20972132653061|45440|DAYTON|OH
H0OH07088|KREEMER, CHAD A|IND|2010|OH|H|C|C00467548|39.854413|-82.80872|43110|CANAL WINCHESTER|OH
H0OH07096|BARTON, JAMES JOHN|DEM|2010|OH|H|C|C00477364|39.8931525|-82.7479375|43147|PICKERINGTON|OH
H0OH07104|ANDERSON, JOHN DAVID|REP|2012|OH|H|O|C00508796|39.867259|-83.93512|45323|ENON|OH
H0OH07120|FREEMAN, OLIVIA|DEM|2012|OH|H|C|C00480103|39.808909|-84.01972|45324|FAIRBORN|OH
H0OH08029|BOEHNER, JOHN A|REP|2012|OH|H|I|C00237198|39.3923565|-84.48911799999999|45069|WEST CHESTER|OH
H0OH08102|COUSSOULE, JUSTIN|DEM|2010|OH|H|C|C00475822|39.482957|-84.38393|45044|LIBERTY TWP|OH
H0OH08110|MCMASTERS, THOMAS F|DEM|2012|OH|H|C||39.840308|-84.12227|45424|HUBER HEIGHTS|OH
H0OH08136|HARLOW, DAVID ARTHUR|LIB|2012|OH|H|C||39.74654581632654|-84.20972132653061|45414|DAYTON|OH
H0OH09092|IOTT, RICHARD BRADLEY|REP|2010|OH|H|C|C00473835|41.587395|-83.78500650000001|43542|MONCLOVA|OH
H0OH10082|CORRIGAN, PETER J|REP|2010|OH|H|C|C00476747|41.475297|-81.84575|44116|ROCKY RIVER|OH
H0OH12062|TIBERI, PATRICK J.|REP|2012|OH|H|I|C00347492|40.202298|-82.89437|43021|GALENA|OH
H0OH12088|ZUKOWSKI, ANDREW GEORGE|REP|2010|OH|H|C|C00472332|39.966814|-82.87413|43213|WHITEHALL|OH
H0OH12120|BROOKS, PAULA L|DEM|2010|OH|H|C|C00465344|40.047273|-83.06986|43220|UPPER ARLINGTON|OH
H0OH12138|SUWINSKI, ROBERT M|IND|2010|OH|H|C|C00475525|39.98950240816327|-82.9981626734694|43227|COLUMBUS|OH
H0OH13102|MEADE, JASON ASHLEY|REP|2010|OH|H|C|C00466409|41.017522|-81.61616|44203|BARBERTON|OH
H0OH13110|WOODEN, JUSTIN PAUL|DEM|2010|OH|H|C|C00469130|40.888408|-81.41066|44720|NORTH CANTON|OH
H0OH13136|GANLEY, THOMAS D|REP|2010|OH|H|C|C00477232|41.307688|-81.61835|44141|BRECKSVILLE|OH
H0OH13144|SHARKEY, CHRISTOPHER TODD|REP|2010|OH|H|C|C00478537|41.08549603125|-81.5288633125|44313|AKRON|OH
H0OH15081|HUBBARD, SCOTT ALAN|IND|2010|OH|H|C|C00472761|39.98950240816327|-82.9981626734694|43204|COLUMBUS|OH
H0OH15099|ADAMS, JOHN|REP|2012|OH|H|C|C00480590|39.98950240816327|-82.9981626734694|43220|COLUMBUS|OH
H0OH15123|KAMMERER, WILLIAM J.|LIB|2010|OH|H|C|C00483453|39.98950240816327|-82.9981626734694|43221|COLUMBUS|OH
H0OH16089|BLEVINS, JEFFREY J|LIB|2012|OH|H|C|C00464156|41.0851945|-81.8314325|44281|WADSWORTH|OH
H0OH16097|RENACCI, JAMES B|REP|2012|OH|H|I|C00466359|41.0851945|-81.8314325|44282|WADSWORTH|OH
H0OH17145|GRAHAM, JAMES J|REP|2010|OH|H|C|C00477513|41.333312|-80.7264|44410|CORTLAND|OH
H0OH17186|MASTROMATTEO, ELAINE R|GRE|2012|OH|H|C|C00512376|41.385826|-80.87487|44402|BRISTOLVILLE|OH
H0OH18069|CARLISLE, PATRICK T|REP|2010|OH|H|C|C00465765|40.08980366666666|-82.455286|43056|NEWARK|OH
H0OH18077|GIBBS, BOB|REP|2012|OH|H|I|C00466516|40.657511|-82.13584|44638|LAKEVILLE|OH
H0OH18085|LIGGETT, HOMBRE MICHAEL|REP|2012|OH|H|O|C00512111|40.537509|-81.48791|44622|DOVER|OH
H0OK01089|DAHM, NATHAN RYAN|REP|2010|OK|H|C|C00469809|36.057815500000004|-95.83791375|74013|BROKEN ARROW|OK
H0OK01097|MOGHADDAM, FRAN|REP|2010|OK|H|C|C00479766|36.13242035087719|-95.97262915789474|74137|TULSA|OK
H0OK01105|RICE, KENNETH|REP|2010|OK|H|C|C00484436|36.13242035087719|-95.97262915789474|74133|TULSA|OK
H0OK01113|ALLEN, CRAIG|IND|2012|OK|H|C||36.13242035087719|-95.97262915789474|74119|TULSA|OK
H0OK01121|HAWORTH, PATRICK K.|REP|2010|OK|H|C|C00485342|36.13242035087719|-95.97262915789474|74133|TULSA|OK
H0OK02145|ARNETT, DANIEL|REP|2010|OK|H|C|C00461665|35.2150415|-97.41515816666667|73071|NORMAN|OK
H0OK02160|EDMONDS, DANIEL E|REP|2010|OK|H|C|C00465070|35.616464|-95.84645|74445|MORRIS|OK
H0OK02186|THOMPSON, CHARLES LEROY JR|REP|2010|OK|H|C|C00478511|35.966254|-95.15436|74441|HULBERT|OK
H0OK04133|HARRIS, R J|IND|2012|OK|H|C|C00458992|35.2150415|-97.41515816666667|73072|NORMAN|OK
H0OK05098|THOMPSON, MICHAEL RAY|REP|2010|OK|H|O|C00460725|35.505733112499996|-97.47160356250001|73162|OKLAHOMA CITY|OK
H0OK05114|LANKFORD, JAMES PAUL|REP|2012|OK|H|I|C00466482|35.663864|-97.4811215|73013|EDMOND|OK
H0OK05122|CLOUD, JEFF|REP|2010|OK|H|O|C00468843|35.505733112499996|-97.47160356250001|73120|OKLAHOMA CITY|OK
H0OK05130|JETT, SHANE DAVID|REP|2010|OK|H|O|C00479683|35.231608|-96.9767|74873|TECUMSEH|OK
H0OK05148|COYLE, BILLY|DEM|2010|OK|H|O|C00480277|35.505733112499996|-97.47160356250001|73102|OKLAHOMA CITY|OK
H0OK05155|GUILD, THOMAS EUGENE|DEM|2012|OK|H|C|C00506121|35.663864|-97.4811215|73013|EDMOND|OK
H0OK05163|WHITE, DAVE JOHN|IND|2010|OK|H|O|C00480806|35.663864|-97.4811215|73012|EDMOND|OK
H0OK05171|JOHNSON, HARRY CLAUD|REP|2010|OK|H|O|C00484303|35.505733112499996|-97.47160356250001|73172|OKLAHOMA CITY|OK
H0OR01095|CORNILLES, ROBERT|REP|2012|OR|H|O|C00464107|45.373991|-122.77127|97062|TUALATIN|OR
H0OR01103|BRODHEAD, STEPHAN ANDREW|REP|2012|OR|H|O|C00465146|45.52792633333333|-122.94390266666666|97123|HILLSBORO|OR
H0OR01111|KUZMANICH, JOHN CHRISTOPHER|REP|2010|OR|H|C|C00465898|45.52874850793652|-122.5663985079365|97229|PORTLAND|OR
H0OR01129|ROBINSON, DAVID|DEM|2010|OR|H|C|C00466789|45.504531|-122.9322665|97006|BEAVERTON|OR
H0OR02093|SEGERS, JOYCE B|DEM|2012|OR|H|C|C00504480|42.169751|-122.61772|97520|ASHLAND|OR
H0OR03091|SWEENEY, JOHN|DEM|2012|OR|H|C|C00430942|45.52874850793652|-122.5663985079365|97214|PORTLAND|OR
H0OR03117|LAWRENCE, JEFFREY T|LIB|2010|OR|H|C|C00482257|45.494547|-122.42043|97030|GRESHAM|OR
H0OR04081|ROBINSON, ARTHUR BROUHARD|REP|2012|OR|H|C|C00481341|42.139958|-123.60245|97523|CAVE JUNCTION|OR
H0OR05047|THOMPSON, FRED|REP|2012|OR|H|C|C00514695|33.639994|-117.60351|92688|RANCHO STA MARGARI|CA
H0OR05054|BRUUN, LORENTZ 'SCOTT'|REP|2010|OR|H|C|C00468991|45.361991|-122.64443|97068|WEST LINN|OR
H0OR05062|LUGO , CHRIS|PG|2012|OR|H|C||45.344246|-122.58464|97045|OREGON CITY|OR
H0PA01275|AGBEMBLE, BISMARK|DEM|2010|PA|H|C|C00467902|39.99641823809524|-75.13775460714287|19153|PHILADELPHIA|PA
H0PA03198|LASHER, DAVID BRIAN|REP|2010|PA|H|C|C00461442|42.151732899999985|-80.07632549999998|16506|ERIE|PA
H0PA03222|ONORATO, JOHN A|REP|2010|PA|H|C|C00467019|42.151732899999985|-80.07632549999998|16502|ERIE|PA
