CMTE_ID|CMTE_NAME|CMTE_DESIGN|CMTE_TYPE|CMTE_PTY_AFFILIATION|CAND_ID|CONNECTED_ORG_TYPE|CONNECTED_ORG_NAME|CMTE_LAT|CMTE_LONG|CMTE_ZIP|CMTE_CITY|CMTE_STATE
C00000059|HALLMARK CARDS PAC|U|Q|UNK||C|HALLMARK CARDS INCORPORATED|39.095393654320986|-94.49784748148147|64108|Kansas City|MO
C00000422|AMERICAN MEDICAL ASSOCIATION POLITICAL ACTION COMMITTEE|U|Q|||M|AMERICAN MEDICAL ASSOCIATION|38.89531540217391|-77.01958254710144|20001|WASHINGTON|DC
C00000489|D R I V E POLITICAL FUND, CHAPTER 886|U|Q|||L|TEAMSTERS LOCAL UNION 886|35.505733112499996|-97.47160356250001|73107|OKLAHOMA CITY|OK
C00000547|KANSAS MEDICAL SOCIETY POLITICAL ACTION COMMITTEE|U|Q|UNK||T|MEDICAL ASS'N; KANSAS          [AMPAC]|39.041098899999994|-95.74326307499999|66612|TOPEKA|KS
C00000638|INDIANA STATE MEDICAL ASSOCIATION POLITICAL ACTION COMMITTEE|U|Q|||M|Indiana State Medical Association|39.797402600000005|-86.1365729|46202|Indianapolis|IN
C00000729|AMERICAN DENTAL POLITICAL ACTION CMTE.|U|Q|UNK||T|DENTAL ASS'N; AMERICAN|38.89531540217391|-77.01958254710144|20005|Washington|DC
C00000794|LENT  & SCRIVNER PAC|U|Q|UNK||||38.87518503125|-77.09935687500001|22202|ARLINGTON|VA
C00000885|INTERNATIONAL UNION OF PAINTERS AND ALLIED TRADES POLITICAL ACTION TOGETHER POLITICAL COMM|U|Q|UNK||L|International Union of Painters and Al|38.89531540217391|-77.01958254710144|20006|Washington|DC
C00000901|BUILD POLITICAL ACTION COMMITTEE OF THE NATIONAL ASSOCIATION OF HOME BUILDERS|U|Q|UNK||T|HOME BUILDERS; NAT'L ASS'N OF|38.89531540217391|-77.01958254710144|20005|WASHINGTON|DC
C00000935|DEMOCRATIC CONGRESSIONAL CAMPAIGN COMMITTEE|U|Y|DEM|||House Senate Victory Fund 2008|38.89531540217391|-77.01958254710144|20003|Washington|DC
C00000984|UNITED STATES TELECOM ASSOCIATION POLITICAL ACTION COMMITTEE (TELECOMPAC)|U|Q|UNK||T|United States Telecom Association|38.89531540217391|-77.01958254710144|20005|Washington|DC
C00000992|BRANCH COUNTY REPUBLICAN COMMITTEE|U|Y|REP|||MICHIGAN REPUBLICAN PARTY|41.912776|-85.0142|49036|COLDWATER|MI
C00001008|LOUISIANA STATE MEDICAL SOCIETY POLITICAL ACTION COMMITTEE (LAMPAC)|U|Q|||T|Louisiana State Medical Society|30.475762928571427|-91.10245178571428|70808|Baton Rouge|LA
C00001016|CARPENTERS LEGISLATIVE IMPROVEMENT COMMITTEE UNITED BROTHERHOOD OF CARPENTERS AND JOINERS|U|Q|NNE||L|United Brotherhood of Carpenters & Joi|38.89531540217391|-77.01958254710144|20001|Washington|DC
C00001156|MICHIGAN LEAGUE OF COMMUNITY BANKS POLITICAL ACTION COMMITTEE|U|Q|||T|MICHIGAN LEAGUE OF SAVINGS INSTITUTION|42.6991935|-84.4468445|48823|EAST LANSING|MI
C00001180|MICHIGAN DOCTORS POLITICAL ACTION COMMITTEE - MICHIGAN STATE MEDICAL SOCIETY|U|Q|NNE||T|MICHIGAN STATE MEDICAL SOCIETY|42.6991935|-84.4468445|48826|East Lansing|MI
C00001198|AMERICAN HOTEL AND LODGING ASSOCIATION PAC|U|Q|||T|HOTEL & MOTEL ASS'N; AMERICAN|38.89531540217391|-77.01958254710144|20005|Washington|DC
C00001214|TEXAS MEDICAL ASSOCIATION POLITICAL ACTION COMMITTEE|U|Q|NNE||M|AMPAC|30.319931120481932|-97.75807027710842|78701|Austin|TX
C00001305|REPUBLICAN PARTY OF VIRGINIA INC|U|Y|Rep|||2008 Senate-RNC Victory Committee|37.53787187272727|-77.48557634545455|23219|RICHMOND|VA
C00001313|REPUBLICAN PARTY OF MINNESOTA|U|Y|REP|||Minnesota-Coleman Victory Committee|44.964115|-93.12261|55103|ST PAUL|MN
C00001347|HAWAII MEDICAL POLITICAL ACTION COMMITTEE|U|Q|UNK||M|HAWAII MEDICAL ASSOCIATION|23.99200566666667|-165.5305597777778|96814|HONOLULU|HI
C00001388|DAIRY FARMERS OF AMERICA INC DEPAC (DAIRY EDUCATION POLITICAL ACTION COMMITTEE)|U|Q|||V|DAIRY FARMERS OF AMERICA INC|39.095393654320986|-94.49784748148147|64190|KANSAS CITY|MO
C00001420|MISSOURI MEDICAL POLITICAL ACTION COMMITTEE|U|Q|UNK||T|MISSOURI STATE MEDICAL ASSOCIATION|38.534770272727265|-92.23967436363635|65102|Jefferson City|MO
C00001461|ALASKA STATE MEDICAL ASSOCIATION POLITICAL ACTION COMMITTEE (ALPAC)|U|Q|||M|Alaska State Medical Association|61.15772075|-149.747957125|99508|Anchorage|AK
C00001636|UNITED TRANSPORTATION UNION POLITICAL ACTION COMMITTEE (UTU PAC)|U|Q|||L|United Transportation Union|41.55917763829786|-81.65604136170215|44107|Cleveland|OH
C00001685|GEORGIA MEDICAL POLITICAL ACTION COMMITTEE|U|Q|UNK||T|MEDICAL ASSOCIATION OF GEORGIA|33.828458666666684|-84.40236618918924|30339|Atlanta|GA
C00001727|BUSINESS-INDUSTRY POLITICAL ACTION COMMITTEE|U|Q|UNK||M|NONE|38.89531540217391|-77.01958254710144|20006|Washington|DC
C00001743|LOCAL 1814 INTERNATIONAL LONGSHOREMENS ASSOC AFL-CIO POLITICAL ACTION AND EDUCATION FUND|U|Q|||L|LOCAL 1814 ILA|40.65091198076924|-73.95300596153847|11232|BROOKLYN|NY
C00001776|NEW MEXICO MEDICAL SOCIETY POLITICAL ACTION COMMITTEE (AKA NEMPAC)|U|Q|UNK||C|New Mexico Medical Society|35.07455360000001|-106.63356884444445|87109|ALBUQUERQUE|NM
C00001818|WASHINGTON STATE MEDICAL ASSN POLITICAL ACTION CMTE|U|Q|UNK||T|MEDICAL ASS'N; WASHINGTON      [AMPAC]|47.53192905084746|-122.12633125423729|98121|SEATTLE|WA
C00001875|AMERICA'S COMMUNITY BANKERS COMMUNITY CAMPAIGN COMMITTEE|U|Q|||T|Maryland Bankers Associaton Political|38.89531540217391|-77.01958254710144|20006|Washington|DC
C00001917|WY DEMOCRATIC STATE CENTRAL COMMITTEE|U|Y|DEM|||WYOMING DEMOCRATIC PARTY|42.87774939999999|-106.4548814|82602|Casper|WY
C00002089|COMMUNICATIONS WORKERS OF AMERICA-COPE POLITICAL CONTRIBUTIONS COMMITTEE|U|Q|||L|Communications Workers of America|38.89531540217391|-77.01958254710144|20001|Washington|DC
C00002147|NEBRASKA MEDICAL ASSOCIATION POLITICAL ACTION COMMITTEE|U|Q|||T|MEDICAL ASS'N; NEBRASKA        [AMPAC]|40.81781506666667|-96.69156293333332|68508|Lincoln|NE
C00002238|NATIONAL COUNCIL OF FARMER COOPERATIVES CO-OP/PAC|U|Q|||T|National Council of Farmer Cooperative|38.89531540217391|-77.01958254710144|20001|Washington|DC
C00002261|FEDERATION OF AMERICAN HOSPITALS PAC|U|Q|UNK||T|Federation of American Hospitals|38.89531540217391|-77.01958254710144|20004|WASHINGTON|DC
C00002469|MACHINISTS NON PARTISAN POL LEAGUE OF THE INT'L ASSN OF MACHINISTS & AEROSPACE WORKERS|U|Q|NNE||L|International Association of Machinist|38.83796575|-76.835834|20772|Upper Marlboro|MD
C00002501|MARYLAND MEDICAL POLITICAL ACTION COMMITTEE|U|Q|UNK||T|MEDICAL ASS'N; MARYLAND        [AMPAC]|39.30939096078431|-76.61851498039216|21201|BALTIMORE|MD
C00002592|COMMITTEE TO RE-ELECT TOM FOLEY|P|H||H6WA05023|||38.89531540217391|-77.01958254710144|20003|WASHINGTON|DC
C00002600|JOHN D. DINGELL FOR CONGRESS|P|H|DEM|H6MI16034|||38.89531540217391|-77.01958254710144|20005|Washington|DC
C00002766|UNITED FOOD & COMMERCIAL WORKERS INTERNATIONAL UNION ACTIVE BALLOT CLUB|U|Q|UNK||L|UNITED FOOD AND COMMERCIAL WORKERS INT|38.89531540217391|-77.01958254710144|20006|WASHINGTON|DC
C00002790|OLIN CORPORATION GOOD GOVERNMENT FUND|U|Q|UNK||C|OLIN CORPORATION|38.868136|-90.08023|62024|EAST ALTON|IL
C00002832|COMMITTEE FOR GOOD GOVERNMENT INTERNATIONAL UNION UAW|U|Q|||L|AUTO WORKERS; UNITED|42.30390803846153|-83.1278015|48214|DETROIT|MI
C00002840|UAW - V - CAP (UAW VOLUNTARY COMMUNITY ACTION PROGRAM)|U|Q|UNK||L|AUTO WORKERS; UNITED|42.30390803846153|-83.1278015|48214|DETROIT|MI
C00002881|TRUCKING POLITICAL ACTION COMMITTEE OF THE AMERICAN TRUCKING ASSOCIATIONS INC.|U|Q|UNK||T|American Trucking Associations|38.89531540217391|-77.01958254710144|20003|Washington|DC
C00002907|ARKANSAS MEDICAL SOCIETY POLITICAL ACTION COMMITTEE|U|Q|UNK||M|ARKANSAS MEDICAL SOCIETY|34.757797833333335|-92.34247691666667|72215|LITTLE ROCK|AR
C00002956|ASSOCIATION FOR THE ADVANCEMENT OF PSYCHOLOGY INC PSYCHOLOGISTS FOR LEG ACTION NOW (PLAN)|U|Q|||T|PSYCHOLOGY; ASS'N FOR THE ADVANCE. OF|38.839994|-104.67319639215685|80937|COLORADO SPRINGS|CO
C00002972|ACTION COMMITTEE. FOR RURAL ELECTRIFICATION. (ACRE) NATIONAL RURAL ELECTRIC COOPERATIVE|U|Q|||V|National Rural Electric Cooperative|38.87518503125|-77.09935687500001|22203|Arlington|VA
C00003061|NORTH DAKOTA MEDICAL ASSOCIATION POLITICAL ACTION COMMITTEE|U|Q|UNK||M|MEDICAL ASS'N; NORTH DAKOTA    [AMPAC]|46.877277285714285|-100.68709442857143|58502|BISMARCK|ND
C00003111|MAINE REPUBLICAN PARTY|U|Y|REP|||MAINE REPUBLICAN PARTY|44.38045340000001|-69.7674396|04330|Augusta|ME
C00003152|NORTH CAROLINA MEDICAL SOCIETY FEDERAL POLITICAL EDUCATION AND ACTION COMMITTEE|U|Q|||M|North Carolina Medical Society|35.81289577777778|-78.63090008888891|27611|Raleigh|NC
C00003160|POLITICAL EDUCATIONAL FUND OF THE BUILDING AND CONSTRUCTION TRADES DEPARTMENT AFL-CIO|U|Q|UNK||M|ALLIANCE FOR RETIRED AMERICANS POLITIC|38.89531540217391|-77.01958254710144|20006|Washington|DC
C00003194|CALIFORNIA MEDICAL ASSOCIATION POLITICAL ACTION COMMITTEE - FEDERAL|U|Q|UNK||C|California Medical Association|38.430597276190475|-121.44452857142855|95814|Sacramento|CA
C00003210|UTAH MEDICAL PAC|U|Q|||T|MEDICAL ASS'N; UTAH            [AMPAC]|40.70252124590164|-111.89052680327868|84107|SALT LAKE CITY|UT
C00003251|NEA FUND FOR CHILDREN AND PUBLIC EDUCATION|U|Q|UNK||L|National Education Association|38.89531540217391|-77.01958254710144|20036|Washington|DC
C00003327|OHIO STATE MEDICAL ASSOCIATION POLITICAL ACTION COMMITTEE (OSMAPAC)|U|Q|||M|Ohio State Medical Association Politic|40.021665|-83.14762|43026|Hilliard|OH
C00003418|REPUBLICAN NATIONAL COMMITTEE|U|Y|REP|||McCain Victory Committee|38.89531540217391|-77.01958254710144|20003|WASHINGTON|DC
C00003558|NATIONAL COMMITTEE FOR AN EFFECTIVE CONGRESS|U|Q|NNE||M|NONE|38.89531540217391|-77.01958254710144|20001|WASHINGTON|DC
C00003590|UNITED STEELWORKERS POLITICAL ACTION FUND|U|Q|NNE||L|UNITED STEELWORKERS|40.43987933333333|-80.00114248717952|15222|Pittsburgh|PA
C00003632|INTL. UNION OF BRICKLAYERS & ALLIED CRAFTWORKERS|U|Q|UNK||L|BRICKLAYERS & ALLIED CRAFTSMEN|38.89531540217391|-77.01958254710144|20004|Washington|DC
C00003756|FOOD PRODUCTS ASSOCIATION POLITICAL ACTION COMMITTEE (FPA-PAC)|U|Q|UNK||T|None|38.89531540217391|-77.01958254710144|20005|WASHINGTON|DC
C00003764|NATIONAL RESTAURANT ASSOCIATION PAC|U|Q|UNK||M|National Restaurant Association|38.89531540217391|-77.01958254710144|20036|Washington|DC
C00003806|AFL-CIO COPE POLITICAL CONTRIBUTIONS COMMITTEE|U|Q|UNK||L|AFL-CIO|38.89531540217391|-77.01958254710144|20006|Washington|DC
C00003855|NATIONAL CONFECTIONEERS ASSOCIATION OF THE UNITED STATES INC POLITICAL ACTION COMMITTEE|U|Q|||T|CONFECTIONERS ASS'N OF U S INC; NAT'L|38.86816483333334|-77.27787583333333|22182|VIENNA|VA
C00003863|MARINE ENGINEERS BENEFICIAL ASOCIATION - RETIREES' GROUP FUND|U|Q|UNK||L|District No.1 PCD-MEBA|38.89531540217391|-77.01958254710144|20001|Washington|DC
C00003897|6TH CONGRESSIONAL DISTRICT DEMOCRATIC COMMITTEE OF VIRGINIA|U|Y|DEM|||VIRGINIA DEMOCRATIC PARTY|37.794344|-79.47658|24450|LEXINGTON|VA
C00003970|IOWA MEDICAL POLITICAL ACTION COMMITTEE|U|Q|||T|IOWA MEDICAL SOCIETY|41.582213333333335|-93.76801733333333|50265|West Des Moines|IA
C00003988|NEBRASKA DEMOCRATIC STATE CENTRAL COMMITTEE|U|Y|DEM|||NEBRASKA DEMOCRATIC PARTY|40.81781506666667|-96.69156293333332|68508|LINCOLN|NE
C00004036|SERVICE EMPLOYEES INTERNATIONAL UNION COMMITTEE ON POLITICAL EDUCATION (SEIU COPE)|U|Q|||L|Service Employees International Union|38.89531540217391|-77.01958254710144|20036|Washington|DC
C00004101|NATIONAL UTILITY CONTRACTORS ASSOCIATION LEGISLATIVE INFORMATION AND ACTION COMMITTEE|U|Q|UNK||M|National Utility Contractors Associati|38.87518503125|-77.09935687500001|22203|Arlington|VA
C00004275|AMERICAN BANKERS ASSOCIATION PAC (BANKPAC)|U|Q|NNE||T|American Bankers Association|38.89531540217391|-77.01958254710144|20036|Washington|DC
C00004325|SEAFARERS POLITICAL ACTIVITY DONATION-SEAFARERS INTERNATIONAL UNION OF N.A.-AGLIWD/NMU|U|Q|||L|POLITICAL AND LEGISLATIVE ORGANIZATION|38.839663|-76.91478|20746|Camp Springs|MD
C00004440|TEAMSTERS LOCAL 745 DRIVE|U|Q|||L|Teamsters Local No. 745|32.785762754098364|-96.78275256557379|75217|DALLAS|TX
C00004473|NAT'L TELECOMMUNICATIONS COOPERATIVE ASSN./TELECOMMUNICATIONS EDUCATION COMMITTEE ORG.|U|Q|||T|Nat'l Telecommunications Cooperative A|38.87518503125|-77.09935687500001|22203|Arlington|VA
C00004499|ARIZONA MEDICAL ASSOCIATION INC POLICAL ACTION COMMITTEE|U|Q|UNK||T|MEDICAL ASS'N; ARIZONA         [AMPAC]|33.406690705128206|-112.12873824358972|85013|Phoenix|AZ
C00004606|KANSAS REPUBLICAN PARTY - FEDERAL|U|Y|REP|||None|39.041098899999994|-95.74326307499999|66604|Topeka|KS
C00004812|MORTGAGE BANKERS ASSOCIATION POLITICAL ACTION COMMITTEE|U|Q|UNK||T|Mortgage Bankers Association|38.89531540217391|-77.01958254710144|20005|Washington|DC
C00004861|UNITE HERE TIP CAMPAIGN COMMITTEE|U|Q|||L|UNITE HERE|40.76633930120482|-73.97691936746988|10001|New York|NY
C00004879|BUSPAC-POLITICAL ACTION COMMITTEE OF THE AMERICAN BUS ASSOCIATION|U|Q|UNK||T|BUS ASS'N; AMERICAN|38.89531540217391|-77.01958254710144|20005|Washington|DC
C00004911|ALABAMA MEDICAL PAC CONNECTED WITH THE MEDICAL ASSOCIATION OF THE STATE OF ALABAMA|U|Q|UNK||M|Medical Association of the State of Al|32.293839742857145|-86.24048460000002|36101|MONTGOMERY|AL
C00004929|PENNSYLVANIA MEDICAL SOCIETY POLITICAL ACTION COMMITTEE FEDERAL|U|Q|UNK||M|AMERICAN MEDICAL POLITICAL ACTION COMM|40.28232126923077|-76.85854892307692|17105|HARRISBURG|PA
C00004952|ELECTRIC POWER ASSOCIATIONS OF MISSISSIPPI ACTION COMMITTEE FOR RURAL ELECTRIFICATION|U|Q|UNK||C|Electric Power Associations of MS|32.531631000000004|-90.11101149999999|39158|Ridgeland|MS
C00004960|BURLINGTON RESOURCES INC. PAC (BRPAC)|U|Q|UNK||C|ConocoPhillips|29.799726263736265|-95.41993828571431|77079|HOUSTON|TX
C00004994|PROFESSIONAL INSURANCE AGENTS POLITICAL ACTION COMMITTEE|U|Q|NNE||T|National Association of Professional I|38.79919622727272|-77.09773936363636|22314|Alexandria|VA
C00005041|REGULA FOR CONGRESS COMMITTEE|P|H|REP|H6OH16029|||38.79919622727272|-77.09773936363636|22314|Alexandria|VA
C00005132|SOUTH DAKOTA STATE MEDICAL ASSOCIATION POLITICAL ACTION COMMITTEE (SDSMAPAC)|U|Q|UNK||M|South Dakota State Medical Association|43.6194702|-96.766635|57105|Sioux Falls|SD
C00005157|INTERNATIONAL BROTHERHOOD OF BOILERMAKERS CAMPAIGN ASSISTANCE FUND|U|Q|||L|International Brotherhood of Boilermak|39.104101066666665|-94.69970146666667|66101|Kansas City|KS
C00005173|STATE DEMOCRATIC EXECUTIVE COMMITTEE OF ALABAMA|U|Y|DEM|||ASDC Partnership Program|32.293839742857145|-86.24048460000002|36101|Montgomery|AL
C00005249|NATIONAL ASSOCIATION OF INSURANCE AND FINANCIAL ADVISORS POLITICAL ACTION COMMITTEE|U|Q|UNK||T|National Association of Insurance & Fi|38.868151714285716|-77.18873671428572|22042|Falls Church|VA
C00005462|10TH DISTRICT REPUBLICAN CONGRESSIONAL COMMITTEE|U|Y|REP|||Republican Party of Virginia|38.889848|-77.75907|20198|The Plains|VA
C00005488|ILLINOIS STATE MEDICAL SOCIETY POLITICAL ACTION COMMITTEE|U|Q|UNK||T|Illinois State Medical Society.|41.85168971764706|-87.67981902352942|60602|Chicago|IL
C00005561|DEMOCRATIC EXECUTIVE COMMITTEE OF FLORIDA|U|Y|DEM|||Committee For Change|30.46455347058824|-84.30047100000002|32301|Tallahassee|FL
C00005660|AMERICAN ASSOCIATION OF ORAL AND MAXILLOFACIAL SURGEONS POLITICAL ACTION COMMITTEE|U|Q|UNK||M|American Association of Oral and Maxil|42.008429|-87.89234|60018|Rosemont|IL
C00005751|CALIFORNIA DENTAL ASSOCIATION POLITICAL ACTION COMMITTEE - FEDERAL FUND|U|Q|UNK||T|CALIFORNIA DENTAL ASSOCIATION|38.430597276190475|-121.44452857142855|95814|SACRAMENTO|CA
C00005785|WYOMING REPUBLICAN PARTY, INC.|U|Y|REP||||42.87774939999999|-106.4548814|82601|Casper|WY
C00005801|6TH DISTRICT REPUBLICAN COMMITTEE|U|Y|REP|||REPUBLICAN PARTY OF VIRGINIA|37.28093354545455|-79.96207174999999|24018|ROANOKE|VA
C00005835|INTERNATIONAL CHEMICAL WORKERS UNION LABOR'S INVESTMENT IN VOTER EDUCATION|U|Q|||L|CHEMICAL WORKERS UNION; INT'L|41.08549603125|-81.5288633125|44313|AKRON|OH
C00005926|ILLINOIS REPUBLICAN PARTY|U|Y|REP|||McSweeney-Illinois Victory Committee|41.85168971764706|-87.67981902352942|60664|Chicago|IL
C00006080|AMERICAN HEALTH CARE ASSOCIATION POLITICAL ACTION COMMITTEE|U|Q|CIT||M|American Health Care Association|38.89531540217391|-77.01958254710144|20005|Washington|DC
C00006486|INDIANA REPUBLICAN STATE COMMITTEE INC.|U|Y|REP|||Indiana Ninth District Victory Committ|39.797402600000005|-86.1365729|46204|INDIANAPOLIS|IN
C00007070|TEXAS INSTRUMENTS INCORPORATED POLITICAL ACTION COMMITTEE (TI PAC)|U|Q|||C|TEXAS INSTRUMENTS INCORPORATED|32.785762754098364|-96.78275256557379|75374|DALLAS|TX
C00007450|AMERICAN GAS ASSOCIATION POLITICAL ACTION COMMITTEE; THE (GASPAC)|U|Q|||T|GAS ASS'N; AMERICAN|38.89531540217391|-77.01958254710144|20001|Washington|DC
C00007542|SHEET METAL WORKERS' INTERNATIONAL ASSOCIATION POLITICAL ACTION LEAGUE|U|Q|||L|-|38.89531540217391|-77.01958254710144|20006|Washington|DC
C00007658|DEMOCRATIC PARTY OF SOUTH CAROLINA|U|Y|DEM|||DNC Services Corp.|34.02276891428572|-80.98945448571428|29250|Columbia|SC
C00007849|SPEAK UP FOR RURAL ELECTRIFICATION (SURE)|U|Q|||M|ACRE (AFF)|38.20007860606061|-85.68525571212122|40232|LOUISVILLE|KY
C00007880|CULAC THE PAC OF CREDIT UNION NATIONAL ASSOCIATION|U|Q|||T|Credit Union National Association|38.89531540217391|-77.01958254710144|20004|Washington|DC
C00007898|OFFICE AND PROFESSIONAL EMPLOYEES INTERNATIONAL UNION - VOICE OF THE ELECTORATE|U|Q|UNK||L|EMPLOYEES INT'L UNION; OFFICE & PROF.|38.89531540217391|-77.01958254710144|20036|Washington|DC
C00007922|LABORERS' POLITICAL LEAGUE-LABORERS' INTERNATIONAL UNION OF N.A.|U|Q|UNK||L|Laborers' International Union of North|38.89531540217391|-77.01958254710144|20006|Washington|DC
C00007948|WEYERHAEUSER COMPANY POLITICAL ACTION COMMITTEE|U|Q|||C|Weyerhaeuser Company|42.30390803846153|-83.1278015|48275|Detroit|MI
C00008078|OHIO D.R.I.V.E. (DEMOCRATIC  REPUBLICAN INDEPENDENT VOTER EDUCATION)  - TEAMSTERS JC #41|U|Q|||L|TEAMSTERS JC #41|41.414403|-81.60793|44125|VALLEY VIEW|OH
C00008086|MONTANA REPUBLICAN STATE CENTRAL COMMITTEE|U|Y|REP|||Burns Victory Committee|46.765360875|-112.098012125|59624|Helena|MT
C00008110|DEMOCRATIC PARTY OF THE SECOND CONGRESSIONAL DISTRICT OF WISCONSIN|U|Y|DEM|||DEMOCRATIC PARTY OF WISCONSIN|43.07264378947367|-89.4054060526316|53701|MADISON|WI
C00008151|FIRST HORIZON NATIONAL CORPORATION FEDERAL PAC|U|Q|||C|FIRST HORIZON NATIONAL CORPORATION|35.16473077142859|-89.95803939999998|38103|MEMPHIS|TN
C00008169|ACTION COMMITTEE FOR RURAL ELECTRIFICATION/MISSOURI COOPERATIVES (FKA MISSOURI ACRE)|U|Q|||V|Association of Missouri Electric Coope|38.534770272727265|-92.23967436363635|65101|JEFFERSON CITY|MO
C00008201|FRIENDS OF JOHN CONYERS|A|H|DEM|H6MI01028|||38.89531540217391|-77.01958254710144|20003|Washington|DC
C00008227|ARIZONA REPUBLICAN PARTY|U|Y|REP|||2004 Joint State Victory Committee|33.406690705128206|-112.12873824358972|85016|Phoenix|AZ
C00008235|SCHROEDER FOR CONGRESS COMMITTEE, INC|P|H||H6CO01034|||39.74108270666667|-104.83527397333336|80205|DENVER|CO
C00008268|TRANSPORT WORKERS UNION POLITICAL CONTRIBUTIONS COMMITTEE|U|Q|||L|Transport Workers Union of America|40.76633930120482|-73.97691936746988|10019|New York|NY
C00008409|INTERNATIONAL UNION OF OPERATING ENGINEERS LOCAL #302 VOLUNTARY POLITICAL FUND|U|Q|UNK||L|ENGINEERS; INT'L UNION OF OPERATING|47.6499472|-122.04682519999999|98011|BOTHELL|WA
C00008474|CITIGROUP INC. POLITICAL ACTION COMMITTEE-FEDERAL (CITIGROUP PAC-FEDERAL)|U|Q|||C|Citigroup Inc.|38.89531540217391|-77.01958254710144|20004|Washington|DC
C00008664|MISSOURI REPUBLICAN STATE COMMITTEE-FEDERAL|U|Y|REP|||7th District Congressional Republican|38.534770272727265|-92.23967436363635|65101|Jefferson City|MO
C00008748|SEMPRA ENERGY EMPLOYEES POLITICAL ACTION COMMITTEE- FEDERAL|U|Q|NNE||C|Sempra Energy|32.89411814814816|-116.99533772839506|92101|San Diego|CA
C00008755|REPUBLICAN PARTY OF THE SIXTH CONGRESSIONAL DISTRICT OF WISCONSIN|U|Y|REP|||REPUBLICAN PARTY OF WISCONSIN|44.037726199999994|-88.59705120000001|54902|OSHKOSH|WI
C00008839|AMERICAN PODIATRIC MEDICAL ASSOCIATION POLITICAL ACTION COMMITTEE|U|Q|||T|American Podiatric Medical Association|39.07524977777778|-77.165865|20814|Bethesda|MD
C00008896|"OPEIU LOCAL 153 ""VOTE"" (VOICE OF THE ELECTORATE) COMMITTEE"|U|Q|||L|EMPLOYEES INT'L UNION; OFFICE & PROF.|40.76633930120482|-73.97691936746988|10011|NEW YORK|NY
C00009035|KEMPER INSURANCE CAMPAIGN FUND|U|Q|UNK||C|KEMPER INSURANCE COMPANIES|42.198674|-88.041875|60049|Long Grove|IL
C00009282|NORFOLK SOUTHERN CORPORATION GOOD GOVERNMENT FUND|U|Q|UNK||C|Norfolk Southern Corporation|36.904774599999996|-76.25027552|23510|Norfolk|VA
C00009357|RECORDING INDUSTRY ASSOCIATION OF AMERICA POLITICAL ACTION COMMITTEE, THE|U|Q|||T|The Recording Industry Association of|38.89531540217391|-77.01958254710144|20004|Washington|DC
C00009423|LAND O'LAKES INC/AGRILIANCE LLC PAC (LOL PAC) FKA LAND O'LAKE INC PAC|U|Q|||V|Land O'Lakes|44.990915|-93.106593|55164|ST PAUL|MN
C00009456|3RD CONGRESSIONAL DISTRICT DEMOCRATIC PARTY OF WISCONSIN|U|Y|dem|||3RD CONGRESSIONAL DISTRICT DEMOCRATIC|43.85117333333333|-91.20941699999999|54601|LA CROSSE|WI
C00009597|NATIONAL COUNCIL OF COAL LESSORS INC PAC|U|Q|||T|COAL LESSORS INC; NAT'L COUNCIL OF|38.89531540217391|-77.01958254710144|20001|Washington|DC
C00009639|SUNTRUST BANK GOOD GOVERNMENT GROUP - GEORGIA|U|Q|NNE||C|SunTrust Bank (connected), Tennessee,|33.828458666666684|-84.40236618918924|30303|Atlanta|GA
C00009704|CONSERVATIVE VICTORY FUND|U|Q|CRV||M|NONE|38.89531540217391|-77.01958254710144|20003|WASHINGTON|DC
C00009795|GREATER WASHINGTON BOARD OF TRADE FEDERAL PAC|U|Q|||M|The Greater Washington Board of Trade|38.89531540217391|-77.01958254710144|20006|Washington|DC
C00009845|MONTGOMERY COUNTY DEMOCRATIC CENTRAL COMMITTEE|U|Y|DEM|||SAME|39.085619|-77.1425335|20895|Kensington|MD
C00009936|AMERICAN FEDERATION OF GOVT. EMPL. POLITICAL ACTION COMMITTEE|U|Q|UNK||L|American Federation of Gov't Employees|38.89531540217391|-77.01958254710144|20001|Washington|DC
C00009985|NATIONAL ASSOCIATION OF BROADCASTERS POLITICAL ACTION COMMITTEE (NABPAC)|U|Q|UNK||T|National Association of Broadcasters|38.89531540217391|-77.01958254710144|20036|Washington|DC
C00010033|MONTANA DEMOCRATIC PARTY|U|Y|DEM|||Big Sky Victory Fund|46.765360875|-112.098012125|59624|Helena|MT
C00010082|NATIONAL CABLE AND TELECOMMUNICATIONS ASSOCIATION POLITICAL ACTION COMMITTEE (NCTA PAC)|U|Q|||T|National Cable & Telecommunications As|38.89531540217391|-77.01958254710144|20001|Washington|DC
C00010124|ASSOCIATED EQUIPMENT DISTRIBUTORS POLITICAL ACTION COMMITTEE|U|Q|UNK||T|Associated Equipment Distributors|38.79919622727272|-77.09773936363636|22314|Alexandria|VA
C00010223|TEAMSTERS JOINT COUNCIL #10 DRIVE|U|Q|||L|TEAMSTERS; INT'L BROTHERHOOD OF|42.34437557407409|-71.0031983888889|02129|BOSTON|MA
C00010322|AMERICAN POSTAL WORKERS UNION COMMITTEE ON POLITICAL ACTION|U|Q|||L|POSTAL WORKERS UNION; AMERICAN|38.89531540217391|-77.01958254710144|20005|Washington|DC
C00010363|CONSERVATIVE LEADERSHIP POLITICAL ACTION COMMITTEE|U|Q|||M|BLANK|38.87518503125|-77.09935687500001|22201|Arlington|VA
C00010421|ASSOCIATED BUILDERS AND CONTRACTORS, PAC|U|Q|UNK||T|Associated Builders & Contractors|38.87518503125|-77.09935687500001|22203|Arlington|VA
C00010439|IDAHO STATE DEMOCRATIC PARTY|U|Y|DEM|||ASDC Partnership Program (Affinity Car|43.51203700000001|-116.23286|83701|Boise|ID
C00010470|UNION PACIFIC CORP. FUND FOR EFFECTIVE GOVERNMENT|U|Q|UNK||C|Union Pacific Corporation|38.89531540217391|-77.01958254710144|20005|Washington|DC
C00010488|WOMEN FOR:|U|Q|||M|NONE|33.9577728|-118.3576128|90211|BEVERLY HILLS|CA
C00010520|MEREDITH CORPORATION EMPLOYEES FUND FOR BETTER GOVERNMENT|U|Q|NNE||C|MEREDITH CORPORATION|41.65428011864408|-93.58401089830507|50309|DES MOINES|IA
C00010561|KANSAS ACTION COMMITTEE FOR RURAL ELECTRIFICATION/KANSAS ELECTRIC COOPERATIVES INC|U|Q|||T|ELECTRIC COOP. ASS'N; NAT'L RURAL|37.21313|-100.34464|67864|MEADE|KS
C00010603|DNC SERVICES CORPORATION/DEMOCRATIC NATIONAL COMMITTEE|U|Y|DEM|||DEMOCRATIC WHITE HOUSE VICTORY FUND|38.89531540217391|-77.01958254710144|20003|WASHINGTON|DC
C00010710|NORTH CAROLINA ASSOCIATION OF ELECTRIC COOPERATIVES INC, RURAL ELECTRIC ACTION PROGRAM|U|Q|NNE||T|NC ASSOC OF ELECTRIC COOPERATIVES,INC|35.81289577777778|-78.63090008888891|27611|Raleigh|NC
C00010793|LOOSE GROUP, THE|U|Q|||M|NONE|33.828458666666684|-84.40236618918924|30357|Atlanta|GA
C00010868|AMERICAN COUNCIL OF ENGINEERING COMPANIES (ACEC/PAC)|U|Q|UNK||T|American Council of Engineering Compan|38.89531540217391|-77.01958254710144|20005|Washington|DC
C00010876|TEAMSTERS LOCAL #115 POLITICAL ACTION FUND (AKA DRIVE-LOCAL NO. 115)|U|Q|||L|Teamsters Union Local No. 115|39.99641823809524|-75.13775460714287|19149|PHILADELPHIA|PA
C00010983|JOHNSON & JOHNSON POLITICAL ACTION COMMITTEE|U|Q|||C|Johnson & Johnson|40.45158033333333|-74.43071766666667|08933|New Brunswick|NJ
C00011114|AMERICAN FEDERATION OF STATE COUNTY & MUNICIPAL EMPLOYEES  P E O P L E|U|Q|UNK||L|AMERICAN FEDERATION OF STATE COUNTY &|38.89531540217391|-77.01958254710144|20036|WASHINGTON|DC
C00011189|GLASS MOLDERS POTTERY PLASTICS & ALLIED WORKERS INTERNATIONAL UNION - POLITICAL ED LEAG|U|Q|||L|GLASS MOLDERS POTTERY...; INT'L UNION|39.92372866666667|-75.398211|19063|MEDIA|PA
C00011197|KENTUCKY STATE DEMOCRATIC CENTRAL EXECUTIVE COMMITTEE|U|Y|DEM|||DC Partnership Program|38.23052366666666|-84.87420244444445|40602|Frankfort|KY
C00011221|SAPEC-NJ NEW JERSEY LEAGUE OF COMMUNITY BANKERS|U|Q|||T|American Bankers Association BankPac|40.656302|-74.30371|07016|Cranford|NJ
C00011239|ROCHESTER REGIONAL JOIN BOARD UNITE HERE POLITICAL EDUCATION COMMITTEE|U|Q|||L|UNITE HERE TIP CAMPAIGN COMMITTEE|43.21979855319149|-77.64726129787233|14607|ROCHESTER|NY
C00011262|BROTHERHOOD OF RAILROAD SIGNALMEN POLITICAL ACTION COMMITTEE|U|Q|UNK||L|RAILROAD SIGNALMEN; BROTHERHOOD OF|38.936915|-78.19414699999999|22630|Front Royal|VA
C00011338|SAILORS' POLITICAL FUND (FKA) SAILORS' UNION OF THE PACIFIC POLITICAL FUND, DON|U|Q|||L|SEAFARERS INT'L UNION OF NORTH AMERICA|37.77660142253521|-122.6107330704225|94105|SAN FRANCISCO|CA
C00011387|COLORADO ADVOCATES FOR RURAL ELECTRIFICATION (CARE) COLORADO RURAL ELECTRIC ASSOCIATION|U|Q|UNK||T|COLORADO RURAL ELECTRIC ASSOCIATION|39.74108270666667|-104.83527397333336|80216|DENVER|CO
C00011544|OHIO DENTAL ASSOCIATION POLITICAL ACTION COMMITTEE|U|Q|||T|OHIO DENTAL ASSOCIATION|39.98950240816327|-82.9981626734694|43215|COLUMBUS|OH
C00011627|MINNESOTA BANKERS POLITICAL ACTION COMMITTEE|U|Q|||T|BANKERS ASS'N; AMERICAN|44.964115|-93.12261|55103|ST PAUL|MN
C00011643|REPUBLICAN CENTRAL COMMITTEE OF IMPERIAL COUNTY AKA IMPERIAL COUNTY REPUBLICAN PARTY|U|Y|REP|||CALIFORNIA REPUBLICAN PARTY|32.7890545|-115.635087|92243|EL CENTRO|CA
C00011767|PAC INTERNATIONAL UNION SECURITY POLICE FIRE PROFESSIONALS OF AMERICA (SPFPA)|U|Q|UNK||L|PLANT GUARD WORKERS INT'L UNION|42.503285|-82.93851|48066|Roseville|MI
C00012211|NORTH CAROLINA DENTAL PAC|U|Q|||M|NORTH CAROLINA DENTAL SOCIETY|35.7855464|-78.7732802|27519|CARY|NC
C00012229|ALASKANS FOR DON YOUNG INC.|P|H|REP|H6AK00045||Alaska 2008|61.15772075|-149.747957125|99503|Anchorage|AK
C00012245|UBS AMERICAS FUND FOR BETTER GOVERNMENT|U|Q|||C|UBS Americas Inc.|41.18111821052631|-73.45532831578949|06901|STAMFORD|CT
C00012310|BLACK & VEATCH GOOD GOVERNMENT FUND|U|Q|UNK||C|Black & Veatch Holding Company|39.095393654320986|-94.49784748148147|64114|Kansas City|MO
C00012328|FLORIDA SUGAR CANE LEAGUE PAC|U|Q|UNK||T|Florida Sugar Cane League|38.89531540217391|-77.01958254710144|20004|Washington|DC
C00012401|CALIFORNIA LEAGUE OF CONSERVATION VOTERS|U|Q|UNK||M|California League of Conservation Vote|37.755087999999986|-122.12827513793107|94612|Oakland|CA
C00012468|COCA-COLA COMPANY NONPARTISAN COMMITTEE FOR GOOD GOVERNMENT (COKE PAC); THE|U|Q|UNK||C|COCA-COLA COMPANY|33.828458666666684|-84.40236618918924|30313|ATLANTA|GA
C00012476|UNITED ASSOCIATION POLITICAL EDUCATION COMMITTEE (UNITED ASSOCIATION OF JOURNEYMEN AND APP|B|Q|||L|PLUMBERS & STEAMFITTERS LOCAL 22 PAC INC|38.98329971428571|-76.54007942857143|21401|ANNAPOLIS|MD
C00012484|FLORIDA BANKERS ASSOCIATION POLITICAL ACTION COMMITTEE|U|Q|NNE||T|ABA BankPac|30.46455347058824|-84.30047100000002|32302|Tallahassee|FL
C00012518|WACHOVIA CORPORATION EMPLOYEES GOOD GOVERNMENT FEDERAL FUND I|U|Q|UNK||C|Wachovia Corporation|35.24106722077923|-80.81472076623379|28288|Charlotte|NC
C00012575|TEXAS STATE COUNCIL OF INTERNATIONAL ASSOCIATION OF MACHINIST AND AEROSPACE WORKERS|U|Q|||L|MACHINISTS & AEROSPACE WRKRS; INT'L...|32.75317824561404|-97.33153931578948|76108|FORT WORTH|TX
C00012880|AMERICAN PHYSICAL THERAPY ASSOCIATION PHYSICAL THERAPY POLITICAL ACTION COMMITTEE (PT-PAC)|U|Q|||M|American Physical Therapy Association|38.79919622727272|-77.09773936363636|22314|Alexandria|VA
C00012914|TITLE INDUSTRY POLITICAL ACTION COMMITTEE|U|Q|||T|American Land Title Association|38.89531540217391|-77.01958254710144|20036|Washington|DC
C00013128|CONGRESSMAN WAXMAN CAMPAIGN COMMITTEE|P|H|DEM|H6CA24048|||33.94396584158416|-118.29928288118809|90048|Los Angeles|CA
C00013342|UNITED MINE WORKERS OF AMERICA - COAL MINERS POLITICAL ACTION COMMITTEE|U|Q|||L|United Mine Workers of America|38.83442477777778|-77.28774144444445|22031|FAIRFAX|VA
C00013573|HENRY J. HYDE FOR CONGRESS COMMITTEE|P|H|REP|H6IL06026|||41.908953499999996|-87.842895|60009|Elk Grove Village|IL
C00013672|FLORIDA DENTAL POLITICAL ACTION COMMITTEE|U|Q|UNK||M|Florida Dental Association Inc.|30.46455347058824|-84.30047100000002|32308|Tallahassee|FL
C00013748|NORTH DAKOTA DEMOCRATIC-NONPARTISAN LEAGUE PARTY|U|Y|DEM|||Committee for Change|46.877277285714285|-100.68709442857143|58501|Bismarck|ND
C00013961|SHEET METAL AND AIR CONDITIONING CONTRACTORS POLITICAL ACTION COMMITTEE|U|Q|||T|Sheet Metal & Air Conditioning Contrac|38.874878|-77.40961833333334|20151|Chantilly|VA
C00014019|COMMITTEE ORGANIZED FOR THE TRADING OF COTTON-PAC OF THE AMERICAN COTTON SHIPPERS ASSN.|U|Q|UNK||T|COTTON SHIPPERS ASS'N; AMERICAN|38.89531540217391|-77.01958254710144|20006|Washington|DC
C00014092|SAN BERNARDINO COUNTY REPUBLICAN CENTRAL COMMITTEE - FEDERAL|U|Y|REP|||REPUB. STATE CENT. CMTE. OF CALIFORNIA|33.639994|-117.60351|92688|RanchoStaMargarita|CA
C00014498|REPUBLICAN PARTY OF IOWA|U|Y|REP|||2004 Joint State Victory Committee|41.65428011864408|-93.58401089830507|50309|Des Moines|IA
C00014555|FOOD MARKETING INSTITUTE POLITICAL ACTION COMMITTEE FOODPAC|U|Q|UNK||T|Food Marketing Institute|38.87518503125|-77.09935687500001|22202|Arlington|VA
C00014878|GENERAL AVIATION MANUFACTURERS ASSOCIATION POLITICAL ACTION COMMITTEE|U|Q|UNK||T|AVIATION MANUFACTURERS ASS'N; GENERAL|38.904461|-77.03088|20005|Washington DC|DC
C00015024|WOMEN'S CAMPAIGN FUND|U|Q|UNK||T|NONE|38.89531540217391|-77.01958254710144|20005|Washington|DC
C00015149|HEFNER FOR CONGRESS COMMITTEE|P|H||H6NC08020|||34.350835|-86.30475|35976|GUNTERSVILLE|AL
C00015362|JEFFORDS FOR VERMONT COMMITTEE INC|P|S|REP|S8VT00018|||44.237045571428574|-72.59320885714286|05601|MONTPELIER|VT
C00015552|BEEF-PAC (BEEF POLITICAL ACTION COMMITTEE OF TEXAS CATTLE FEEDERS ASSOCIATION)|U|Q|UNK||T|CATTLE FEEDERS ASSOCIATION; TEXAS|35.30811969047619|-101.88064188095235|79106|AMARILLO|TX
C00015594|LOUISVILLE & JEFFERSON COUNTY REPUBLICAN EXECUTIVE COMMITTEE|U|Y|Rep|||NONE|38.20007860606061|-85.68525571212122|40224|LOUISVILLE|KY
C00015933|PINNACLE WEST CAPITAL CORPORATION PAC|U|Q|||C|Pinnacle West Capital Corporation|38.89531540217391|-77.01958254710144|20004|Washington|DC
C00016212|DERRICK FUND|P|H||H6SC03025|||38.89531540217391|-77.01958254710144|20016|WASHINGTON|DC
C00016386|AMERICAN BAKERS ASSOCIATION AMERICAN BAKERS POLITICAL ACTION COMMITTEE|U|Q|UNK||T|BAKERS ASS'N; AMERICAN|38.89531540217391|-77.01958254710144|20005|WASHINGTON|DC
C00016444|KENTUCKY MEDICAL ASSOCIATION PAC (KENTUCKY PHYSICIANS PAC FEDERAL - KPPAC FEDERAL)|U|Q|||T|American Medical Association PAC|38.20007860606061|-85.68525571212122|40222|Louisville|KY
C00016683|PFIZER INC. PAC|U|Q|UNK||C|PFIZER INC.|40.76633930120482|-73.97691936746988|10017|NEW YORK|NY
C00016899|OHIO DEMOCRATIC PARTY|U|Y|DEM|||DNC State Party Victory Fund|39.98950240816327|-82.9981626734694|43215|Columbus|OH
C00017194|INTERNATIONAL UNION OF OPERATING ENGINEERS LO 825 POLITICAL ACTION AND EDUCATION COMMITTEE|U|Q|||L|INTERNATIONAL UNION OF OPERATING ENGIN|40.701801|-74.32216|07081|SPRINGFIELD|NJ
C00017244|MARINE FIREMAN'S UNION POLITICAL ACTION FUND|U|Q|NNE||L|MARINE FIREMAN'S UNION|37.77660142253521|-122.6107330704225|94105|SAN FRANCISCO|CA
C00017525|AMERICAN NURSES ASSOCIATION PAC|U|Q|||L|American Nurses Association|39.0985292|-77.11824240000001|20910|Silver Spring|MD
C00017558|BIPARTISAN POLITICAL ACTION COMMITTEE/THE BANK OF NEW YORK MELLON CORPORATION BIPAC/BNYMC|U|Q|UNK||C|The Bank of New York Mellon Corporatio|40.43987933333333|-80.00114248717952|15258|PITTSBURGH|PA
C00017681|ALEXANDER AND  BALDWIN INC FEDPAC (A|U|Q|UNK||C|ALEXANDER & BALDWIN INC|23.99200566666667|-165.5305597777778|96801|HONOLULU|HI
C00017830|A LOT OF PEOPLE FOR DAVE OBEY|P|H|DEM|H6WI07033|||44.945145333333336|-89.67716333333334|54402|Wausau|WI
C00018028|PRINTING INDUSTRIES OF AMERICA|U|Q|NNE||T|PRINTING INDUSTRIES OF AMERICA, INC.|38.89531540217391|-77.01958254710144|20005|Washington|DC
C00018036|U.S. BANCORP POLITICAL PARTICIPATION PROGRAM|U|Q|||C|USBancorp|44.988124797101456|-93.35478904347828|55402|Minneapolis|MN
C00018135|DEMOCRATIC CANDIDATE FUND (AKA THOMAS P O'NEILL, JR CONGRESS FUND)|U|Q|DEM||M|NONE|38.89531540217391|-77.01958254710144|20036|WASHINGTON|DC
C00018929|NORTH DAKOTA REPUBLICAN PARTY|U|Y|REP|||NONE|46.877277285714285|-100.68709442857143|58501|Bismarck|ND
C00018945|DORSEY NATIONAL FUND|U|Q|||W|NONE|44.988124797101456|-93.35478904347828|55402|Minneapolis|MN
C00019075|MURTHA FOR CONGRESS COMMITTEE|P|H|DEM|H6PA12030||NONE|40.343568874999995|-78.881888875|15901|JOHNSTOWN|PA
C00019083|CALIFORNIA CANNING PEACH ASSOCIATION POLITICAL ACTION COMMITTEE (AKA PEACH-PAC)|U|Q|||T|CANNING PEACH ASS'N; CALIFORNIA|38.430597276190475|-121.44452857142855|95833|SACRAMENTO|CA
C00019331|DEMOCRATIC PARTY OF WISCONSIN|U|Y|DEM|||2008 Battleground Fund|43.07264378947367|-89.4054060526316|53703|Madison|WI
C00019380|KANSAS DEMOCRATIC STATE COMMITTEE|U|Y|DEM|||Democratic National Committee|39.041098899999994|-95.74326307499999|66601|Topeka|KS
C00019489|MISSOURI FARM BUREAU FARM PAC, NORTHEAST DISTRICT|U|Q|||C|Missouri Farm Bureau|40.14036|-92.01104|63446|Knox City|MO
C00019653|EDISON INTERNATIONAL PAC|U|Q|UNK||C|EDISON INTERNATIONAL|33.94396584158416|-118.29928288118809|90071|LOS ANGELES|CA
C00019976|SIXTY VOTES COALITION|U|Q|||M|NONE|38.79919622727272|-77.09773936363636|22314|ALEXANDRIA|VA
C00020453|CASS COUNTY REPUBLICAN CENTRAL COMMITTEE|U|Y|REP|||INDIANA REPUBLICAN PARTY|40.754787|-86.36684|46947|LOGANSPORT|IN
C00020818|REPUBLICAN CAMPAIGN COMMITTEE OF NEW MEXICO|U|Y|REP|||The Domenici Victory Fund|35.07455360000001|-106.63356884444445|87199|Albuquerque|NM
C00020974|PETE STARK RE-ELECTION COMMITTEE|P|H|DEM|H6CA09023|||37.571246200000004|-121.9727576|94537|Fremont|CA
C00021121|VOICE OF TEACHERS FOR EDUC/CMTE ON POL EDUC OF NY STATE UNTD TEACHERS (VOTE/COPE) OF NYSUT|U|Q|NNE||L|NEW YORK STATE UNITED TEACHERS|42.682246|-73.869416|12110|Latham|NY
C00021295|BRACEPAC|U|Q|||C|None|38.89531540217391|-77.01958254710144|20006|Washington|DC
C00021972|PHARMACEUTICAL RESEARCH & MANUFACTURERS OF AMERICA BETTER GOVERNMENT COMMITTEE|U|Q|||T|PHARMACEUTICAL RSCH & MANUFR'S OF AMER|38.89531540217391|-77.01958254710144|20004|Washington|DC
C00022178|GROUP PRACTICE POLITICAL ACTION COMMITTEE|U|Q|||T|GROUP PRACTICE ASS'N; AMERICAN|38.79919622727272|-77.09773936363636|22314|ALEXANDRIA|VA
C00022343|INDEPENDENT INSURANCE AGENTS & BROKERS OF AMERICA, INC. POLITICAL ACTION COMMITTEE (INSURP|U|Q|||T|Independent Insurance Agents & Brokers|38.89531540217391|-77.01958254710144|20003|Washington|DC
C00022368|NATIONAL ASSOCIATION OF CHAIN DRUG STORES POLITICAL ACTION COMMITTEE|U|Q|UNK||T|National Association of Chain Drug Sto|38.79919622727272|-77.09773936363636|22314|Alexandria|VA
C00022517|NEZ PERCE COUNTY DEMOCRATIC CENTRAL COMMITTEE|U|Y|DEM|||IDAHO DEMOCRATIC PARTY|46.332945|-116.52939|83548|REUBENS|ID
C00022756|DARIGOLD POLITICAL ACTION COMMITTEE (FKA NORTH PACIFIC DAIRYMEN'S COOPERATIVE TRUST)|U|Q|UNK||V|DAIRYMEN'S ASSOCIATION; NORTHWEST|47.53192905084746|-122.12633125423729|98124|SEATTLE|WA
C00022988|AMERICAN NURSERY AND LANDSCAPE ASSOCIATION - POLITICAL ACTION COMMITTEE|U|Q|UNK||T|American Nursery and Landscape Associa|38.89531540217391|-77.01958254710144|20005|Washington|DC
C00023028|NATIONAL COTTON COUNCIL COMMITTEE FOR THE ADVANCEMENT OF COTTON|U|Q|UNK||T|National Cotton Council of America|35.1797095|-89.877014|38088|Cordova|TN
C00023580|COMMITTEE ON LETTER CARRIERS POLITICAL EDUCATION (LETTER CARRIERS POLITICAL ACTION FUND)|U|Q|UNK||L|LETTER CARRIERS OF USA; NAT'L ASS'N OF|38.89531540217391|-77.01958254710144|20001|WASHINGTON|DC
C00023754|POLITICAL ACTION COUNCIL OF EDUCATORS(UNITED TEACHERS-LOS ANGELES)|U|Q|UNK||L|TEACHERS-LOS ANGELES; UNITED|33.94396584158416|-118.29928288118809|90010|LOS ANGELES|CA
C00023838|CONNECTICUT REPUBLICAN SCC|U|Y|REP|||Majority Fund 2008|41.6695865|-72.78511025|06051|New Britain|CT
C00024281|AMERICAN MEAT INSTITUTE POLITICAL ACTION COMMITTEE|U|Q|UNK||T|MEAT INSTITUTE; AMERICAN|38.89531540217391|-77.01958254710144|20036|Washington|DC
C00024299|AMERICAN GENERAL CORPORATION POLITICAL ACTION COMMITTEE, THE|U|Q|||C|American General Corporation|40.76633930120482|-73.97691936746988|10270|New York|NY
C00024349|ALASKA AIR GROUP INC. POLITICAL ACTION COMMITTEE|U|Q|NNE||C|ALASKA AIR GROUP INC.|47.53192905084746|-122.12633125423729|98188|SEATTLE|WA
C00024372|DEMOCRATIC PARTY OF ARKANSAS|U|Y|DEM|||Dollars for Democrats|34.757797833333335|-92.34247691666667|72201|Little Rock|AR
C00024422|SUPPORTERS OF ENGINEERS LOCAL 3 ENDORSED CANDIDATES|U|Q|NNE||L|ENGINEERS; INT'L UNION OF OPERATING|37.7519535|-122.24944500000001|94501|Alameda|CA
C00024455|FIRST CONGRESSIONAL DISTRICT DEMOCRATIC COMMITTEE|U|Y|DEM|||MICHIGAN DEMOCRATIC PARTY STATE CENTRA|46.042121|-86.33946|49854|MANISTIQUE|MI
C00024521|AMERICAN ASSOCIATION FOR JUSTICE POLITICAL ACTION COMMITTEE (AAJ PAC)|U|Q|UNK||M|American Association for Justice|38.89531540217391|-77.01958254710144|20001|Washington|DC
C00024679|VERMONT DEMOCRATIC PARTY|U|Y|DEM|||Vermont Victory 2004|44.237045571428574|-72.59320885714286|05601|Montpelier|VT
C00024752|MATSON NAVIGATION CO. FEDERAL ELECTION COMMITTEE|U|Q|UNK||C|MATSON NAVIGATION COMPANY INC|37.755087999999986|-122.12827513793107|94607|Oakland|CA
C00024869|GENERAL ELECTRIC COMPANY POLITICAL ACTION COMMITTEE (GEPAC)|U|Q|UNK||C|General Electric Company|38.89531540217391|-77.01958254710144|20004|Washington|DC
C00024935|NORTHERN TRUST COMPANY GOOD GOVERNMENT COMMITTEE|U|Q|UNK||C|NORTHERN TRUST COMPANY|41.85168971764706|-87.67981902352942|60603|CHICAGO|IL
C00024968|AMERICAN OPTOMETRIC ASSOCIATION POLITICAL ACTION COMMITTEE|U|Q|UNK||M|American Optometric Association|38.79919622727272|-77.09773936363636|22314|Alexandria|VA
C00025023|NL INDUSTRIES INC POLITICAL ACTION COMMITTEE|U|Q|||C|NL INDUSTRIES INC|32.785762754098364|-96.78275256557379|75240|Dallas|TX
C00025098|SPRINGS INDUSTRIES INC POLITICAL ACTION COMMITTEE|U|Q|UNK||C|SPRINGS INDUSTRIES INC|35.0374|-80.95991500000001|29715|FORT MILL|SC
C00025254|MINNESOTA DEMOCRATIC-FARMER-LABOR PARTY|U|Y|DFL|||Dollars for Democrats|44.928315|-93.08876|55107|St Paul|MN
C00025346|SUN PAC|U|Q|UNK||C|SUNOCO INC.|39.99641823809524|-75.13775460714287|19103|PHILADELPHIA|PA
C00025379|FRIENDS OF JOHN LAFALCE|P|H||H6NY36015|||43.048156|-78.86338|14120|North Tonawanda|NY
C00025395|PUBLIC SERVICE COMPANY OF NEW MEXICO RESPONSIBLE CITIZENS GROUP|U|Q|UNK||C|Public Service Company of New Mexico R|35.07455360000001|-106.63356884444445|87158|Albuquerque|NM
C00025536|TRW AUTOMOTIVE INC. GOOD GOVERNMENT FUND (TRW GOOD GOVERNMENT FUND)|U|Q|UNK||C|TRW Automotive Inc.|42.333966200000006|-83.2802752|48150|Livonia|MI
C00025668|PACIFIC CENTURY FINANCIAL CORPORATION SPECIAL POLITICAL EDUCATION COMMITTEE|U|Q|||C|BANCORP HAWAII INC|23.99200566666667|-165.5305597777778|96846|HONOLULU|HI
C00025973|IKE SKELTON FOR CONGRESS COMMITTEE|P|H|DEM|H6MO04141|||38.641509|-94.34126|64701|Harrisonville|MO
C00026757|FRIENDS OF CONGRESSMAN GEORGE MILLER|P|H|DEM|H6CA07043|||37.8959565|-121.985046875|94524|Concord|CA
C00027342|INTERNATIONAL BROTHERHOOD OF ELECTRICAL WORKERS POLITICAL ACTION COMMITTEE|U|Q|||L|ELECTRICAL WORKERS; INT'L BROTH'D OF|38.89531540217391|-77.01958254710144|20001|Washington|DC
C00027359|INT'L. ASSOCIATION OF BRIDGE, STRUCTURAL, ORNAMENTAL & REINFORCING IRON WORKERS (IPAL)|U|Q|||L|Int'l. Association of Bridge, Structur|38.89531540217391|-77.01958254710144|20006|Washington|DC
C00027466|NATIONAL REPUBLICAN SENATORIAL COMMITTEE|U|Y|REP|||CHAMBLISS VICTORY COMMITTEE|38.89531540217391|-77.01958254710144|20002|WASHINGTON|DC
C00027532|AMERICAN MARITIME OFFICERS VOLUNTARY POLITICAL ACTION FUND|U|Q|||L|American Maritime Officers|26.051916|-80.14526|33004|Dania Beach|FL
C00027987|FRIENDS OF ROBERT C BYRD COMMITTEE|P|S||S6WV00014|||38.89531540217391|-77.01958254710144|20005|WASHINGTON|DC
C00028316|STEVENS FOR SENATE COMMITTEE|P|S|REP|S2AK00010|||61.15772075|-149.747957125|99510|ANCHORAGE|AK
C00028332|HOLLINGS FOR SENATE|P|S||S4SC00018|||32.857942421052634|-79.92915105263158|29417|CHARLESTON|SC
C00028415|WYOMING MEDICAL POLITICAL ACTION COMMITTEE|U|Q|||T|MEDICAL ASS'N; WYOMING         [AMPAC]|41.255931875|-104.72717425|82003|CHEYENNE|WY
C00028720|AMERICAN RADIO ASSOCIATION AFL-CIO|U|Q|||L|RADIO ASSOCIATION; AMERICAN|39.910358454545445|-119.7081178181818|89502|RENO|NV
C00028787|NATIONAL CATTLEMEN'S BEEF ASSOCIATION POLITICAL ACTION COMMITTEE (NCBA-PAC)|U|Q|||T|National Cattlemen's Beef Associaiton|39.579454|-104.88288|80112|CENTENNIAL|CO
C00028860|AMERICAN FEDERATION OF TEACHERS, AFL-CIO COMMITTEE ON POLITICAL EDUCATION|U|Q|||L|American Federation of Teachers, AFL-C|38.89531540217391|-77.01958254710144|20001|Washington|DC
C00029348|AMERICAN FOREST & PAPER ASSOCIATION POLITICAL ACTION COMMITTEE|U|Q|||T|AMERICAN FOREST & PAPER ASSOCIATION|38.89531540217391|-77.01958254710144|20036|WASHINGTON|DC
C00029447|INTERNATIONAL ASSOCIATION OF FIREFIGHTERS INTERESTED IN REGISTRATION AND EDUCATION PAC|U|Q|||L|International Association of Fire Figh|38.89531540217391|-77.01958254710144|20006|Washington|DC
C00029504|ENGINEERS POLITICAL EDUCATION COMMITTEE (EPEC)/INTERNATIONAL UNION OF OPERATING ENGINEERS|U|Q|UNK||M|IUOE LOCAL 965 PEF|38.89531540217391|-77.01958254710144|20036|Washington|DC
C00029777|CITIZENS FOR SARBANES|P|S|DEM|S6MD00066|||39.30939096078431|-76.61851498039216|21210|BALTIMORE|MD
C00030007|OKLAHOMA STATE MEDICAL ASSOCIATION PAC|U|Q|||M|Oklahoma State Medical Association|35.505733112499996|-97.47160356250001|73154|Oklahoma City|OK
C00030593|CONSUMER DATA INDUSTRY ASSOCIATION INC POLITICAL ACTION COMMITTEE OR CDIA PAC|U|Q|||T|CONSUMER DATA INDUSTRY ASSOCIATION|38.89531540217391|-77.01958254710144|20005|WASHINGTON|DC
C00030676|UNITED STATES STEEL CORPORATION POLITICAL ACTION COMMITTEE|U|Q|NNE||C|United States Steel Corporation|40.43987933333333|-80.00114248717952|15219|Pittsburgh|PA
C00030718|NATIONAL ASSOCIATION OF REALTORS POLITICAL ACTION COMMITTEE|U|Q|UNK||M|National Association of Realtors (A No|41.85168971764706|-87.67981902352942|60611|Chicago|IL
C00030734|DISTILLED SPIRITS COUNCIL OF THE UNITED STATES INC POLITICAL ACTION COMMITTEE|U|Q|||T|DISTILLED SPIRITS COUNCIL OF U.S. INC|38.89531540217391|-77.01958254710144|20005|WASHINGTON|DC
C00030809|NATIONAL COMMUNITY PHARMACISTS  ASSOCIATION - PAC|U|Q|||T|DRUGGISTS; NAT'L ASS'N OF RETAIL|38.79919622727272|-77.09773936363636|22314|Alexandria|VA
C00031054|MICHIGAN DEMOCRATIC STATE CENTRAL COMMITEE|U|Y|DEM|||Dollars for Democrats|42.67509583333333|-84.52129325|48933|Lansing|MI
C00031088|WASHINGTON STATE REPUBLICAN PARTY|U|Y|REP|||Special Teams 2006 Committee|47.5618325|-122.065971125|98004|Bellevue|WA
C00032334|NEBRASKA REPUBLICAN PARTY|U|Y|REP|||JOHANNS VICTORY 2008 COMMITTEE|40.81781506666667|-96.69156293333332|68508|Lincoln|NE
C00032573|COORS BEWING COMPANY - POLITICAL ACTION BY COORS EMPLOYEES|U|Q|UNK||C|Coors Brewing Company|38.89531540217391|-77.01958254710144|20005|Washington|DC
C00032607|SYNOVUS FINANCIAL CORP. GEORGIA FUND FOR EFFECTIVE LEADERSHIP|U|Q|NNE||C|Synovus Financial Corp.|32.4919296|-84.918473|31902|Columbus|GA
C00032698|INDEPENDENT COMMUNITY BANKERS OF AMERICA POLITICAL ACTION COMMITTEE|U|Q|UNK||T|Independent Community Bankers of Ameri|38.89531540217391|-77.01958254710144|20036|Washington|DC
C00032797|NATIONAL GOOD GOVERNMENT FUND|U|Q|UNK||W|VINSON ELKINS SEARLS CONNALLY & SMITH|29.799726263736265|-95.41993828571431|77002|Houston|TX
C00032979|DRIVE - DEMOCRAT REPUBLICAN INDEPENDENT VOTER EDUCATION - PAC FOR INT'L BROTHERHOOD OF T|U|Q|NNE||L|Maintenance of Way Political League A|38.89531540217391|-77.01958254710144|20001|Washington|DC
C00032995|AMALGAMATED TRANSIT UNION-COPE|U|Q|||L|AMALGAMATED TRANSIT UNION-COPE|38.89531540217391|-77.01958254710144|20016|WASHINGTON|DC
C00033092|WIN-PAC OF WINN-DIXIE STORES, INC.|U|Q|NNE||C|Winn-Dixie Stores Inc.|30.30522279245282|-81.65284611320754|32254|Jacksonville|FL
C00033134|COLORADO REPUBLICAN FEDERAL CAMPAIGN COMMITTEE|U|Y|REP|||Schaffer Victory Committee|39.610431|-104.88139|80111|Greenwood Village|CO
C00033423|HSBC NORTH AMERICA POLITICAL ACTION COMMITTEE (H-PAC)|U|Q|UNK||C|HSBC North America|42.238087|-87.86093|60045|Mettawa|IL
C00033431|TENTH CONGRESSIONAL DISTRICT DEMOCRATIC COMMITTEE|U|Y|DEM||||42.596784|-82.88031|48043|Mt. Clemens|MI
C00033456|PHELPS DODGE EMPLOYEES FUND FOR GOOD GOVERNMENT|U|Q|UNK||C|FREEPORT-MCMORAN COPPER & GOLD INC|33.406690705128206|-112.12873824358972|85004|Phoenix|AZ
C00033555|FLOWERS INDUSTRIES INC POLITICAL ACTION COMMITTEE|U|Q|||C|FLOWERS INDUSTRIES INC|30.86250425|-83.92881175|31757|THOMASVILLE|GA
C00033589|CORNING INCORPORATED EMPLOYEES POLITICAL ACTION COMMITTEE (COREPAC)|U|Q|||C|Corning Incorporated|38.89531540217391|-77.01958254710144|20004|Washington|DC
C00033704|FMC CORPORATION GOOD GOVERNMENT PROGRAM|U|Q|||C|FMC CORPORATION|38.89531540217391|-77.01958254710144|20004|Washington|DC
C00033779|REAL ESTATE ROUNDTABLE POLITICAL ACTION COMMITTEE (REALPAC)|U|Q|||T|The Real Estate Roundtable|38.89531540217391|-77.01958254710144|20004|Washington|DC
C00033795|AZ COTTON GROWERS ASSOCATION|U|Q|||T|COTTON GROWERS ASS'N; ARIZONA|33.406690705128206|-112.12873824358972|85040|Phoenix|AZ
C00033944|FEED INDUSTRY POLITICAL ACTION COMMITTEE/AMERICAN FEED INDUSTRY ASSOCIATION|U|Q|UNK||T|FEED INDUSTRY ASS'N; AMERICAN|38.87518503125|-77.09935687500001|22209|ARLINGTON|VA
C00033969|NOVARTIS CORPORATION POLITICAL ACTION COMMITTEE (A.K.A. NOVARTIS PAC)|U|Q|NNE||C|Novartis Corporation|38.89531540217391|-77.01958254710144|20004|Washington|DC
C00033977|R.R. DONNELLEY & SONS COMPANY GOOD GOVERNMENT FUND|U|Q|UNK||C|R.R. Donnelley & Sons Company|41.85168971764706|-87.67981902352942|60606|Chicago|IL
C00034033|SOUTH CAROLINA REPUBLICAN PARTY|U|Y|REP|||Graham Victory 2008|34.02276891428572|-80.98945448571428|29211|Columbia|SC
C00034066|DISTRICT 1199C NAT'L UNION OF HOSPITAL & HEALTH CARE EMPLOYEES POLITICAL ACTION FUND|U|Q|||L|RETAIL WHOLESALE DEP'T STORE UNION|39.952112|-75.15853|19107|PHILA|PA
C00034132|FLUOR CORPORATION POLITICAL ACTION COMMITTEE (FLUOR PAC)|U|Q|||C|Fluor Corporation|32.820153250000004|-96.88390566666668|75039|Irving|TX
C00034157|AFLAC INCORPORATED POLITICAL ACTION COMMITTEE AFLACPAC|U|Q|UNK||C|AFLAC INCORPORATED|32.4919296|-84.918473|31999|COLUMBUS|GA
C00034173|AMT - THE ASSOCIATION FOR MANUFACTURING TECHNOLOGY MACHINE TOOLPAC|U|Q|NNE||T|AMT - The Association for Manufacturin|38.9058505|-77.22686449999999|22102|McLean|VA
C00034256|NATIONAL WOMEN'S POLITICAL CAUCUS CAMPAIGN SUPPORT COMMITTEE|U|Q|UNK||W|None|38.89531540217391|-77.01958254710144|20091|WASHINGTON|DC
C00034272|NATIONAL CHICKEN COUNCIL POLITICAL ACTION COMMITTEE|U|Q|||T|BROILER COUNCIL; NATIONAL|38.89531540217391|-77.01958254710144|20005|WASHINGTON|DC
C00034298|PPG BETTER GOVERNMENT TEAM; PPG INDUSTRIES INC.|U|Q|||C|PPG Industries, Inc.|40.43987933333333|-80.00114248717952|15272|Pittsburgh|PA
C00034330|OWENS-ILLINOIS INC EMPLOYEES GOOD CITIZENSHIP FUND|U|Q|NNE||C|OWENS-ILLINOIS|41.466537|-83.619018|43551|Perrysburg|OH
C00034355|PEOPLE PAC (PACCAR INC EMPLOYEES ORGANIZED FOR POLITICAL LEADERSHIP AND EDUCATION PAC)|U|Q|UNK||C|PACCAR Inc|47.5618325|-122.065971125|98009|BELLEVUE|WA
C00034405|INTERNATIONAL PAPER POLITICAL ACTION COMMITTEE|U|Q|UNK||C|International Paper|38.89531540217391|-77.01958254710144|20004|Washington|DC
C00034470|DIAGEO NORTH AMERICA INC.  EMPLOYEES' POLITICAL PARTICIPATION COMMITTEE|U|Q|||C|Diageo North America|41.17959218181818|-73.39992363636362|06851|NORWALK|CT
C00034488|ANHEUSER-BUSCH COMPANIES INC. POLITICAL ACTION COMMITTEE|U|Q|UNK||C|Anheuser-Busch Companies Inc.|38.594901|-90.2278|63118|St. Louis|MO
C00034595|WELLS FARGO AND COMPANY EMPLOYEE PAC (AKA WELLS FARGO EMPLOYEE PAC)|U|Q|||C|Wells Fargo and Company|44.988124797101456|-93.35478904347828|55479|Minneapolis|MN
C00034645|AMERICAN SOCIETY FOR CLINICAL LABORATORY SCIENCE POLITICAL ACTION COMMITTEE (FKA ASMT/PAC)|U|Q|||T|CLINICAL LAB SCIENCE; AMER SOCIETY FOR|39.07524977777778|-77.165865|20817|BETHESDA|MD
C00034678|AMERICAN WATERWAYS OPERATORS-PAC|U|Q|UNK||T|American Waterways Operators|38.87518503125|-77.09935687500001|22203|ARLINGTON|VA
C00034728|TRUE COMPANIES RESPONSIBLE GOVERNMENT COMMITTEE|U|Q|UNK||W|True Companies|42.87774939999999|-106.4548814|82602|CASPER|WY
C00034785|ACPAC ACA INTERNATIONAL POLITICAL ACTION COMMITTEE|U|Q|||T|ACA International|44.988124797101456|-93.35478904347828|55435|Minneapolis|MN
C00034827|EATON CORPORATION PUBLIC POLICY ASSOCIATION|U|Q|||C|EATON CORPORATION|41.55917763829786|-81.65604136170215|44114|CLEVELAND|OH
C00034876|SAFECO-PAC|U|Q|||C|Safeco Corporation|47.53192905084746|-122.12633125423729|98185|SEATTLE|WA
C00034884|ALTICOR POLITICAL ACTION COMMITTEE ALTIPAC|U|Q|||C|ALTICOR|43.01668975|-85.53219525000002|49355|ADA|MI
C00034934|SIMPSON INVESTMENT COMPANY POLITICAL ACTION COMMITTEE|U|Q|||C|Green Diamond Resource Company Politic|47.154465589743594|-122.30681994871797|98421|Tacoma|WA
C00034942|NATIONAL ASSOCIATION OF FEDERAL VETERINARIANS POLITICAL ACTION COMM.|U|Q|UNK||T|VETERINARIANS; NAT'L ASS'N OF FEDERAL|38.89531540217391|-77.01958254710144|20036|WASHINGTON|DC
C00035006|CHEVRON EMPLOYEES POLITICAL ACTION COMMITTEE - CHEVRON CORPORATION|U|Q|UNK||C|Chevron Corporation|37.75735|-121.95213|94583|San Ramon|CA
C00035204|PETROLEUM MARKETERS ASSOCIATION OF AMERICAN\SMALL BUSINESS COMMITTEE|U|Q|UNK||T|PETROLEUM MARKETERS ASS'N OF AMERICA|38.87518503125|-77.09935687500001|22209|Arlington|VA
C00035253|OREGON BANKERS POLITICAL ACTION COMMITTEE|U|Q|UNK||T|ABA BANKPAC|44.95135007692308|-122.93249292307691|97309|Salem|OR
C00035451|AIR LINE PILOTS ASSOCIATION PAC|U|Q|||L|United Pilots PAC (UP-PAC)|38.89531540217391|-77.01958254710144|20036|Washington|DC
C00035477|COTTON WAREHOUSE GOVERNMENT RELATIONS COMMITTEE|U|Q|||T|COTTON WAREHOUSE ASS'N OF AMERICA|38.89531540217391|-77.01958254710144|20003|Washington|DC
C00035519|BIPARTISAN VOLUNTARY PUBLIC AFFAIRS COMMITTEE OF PNC BANK N.A.|U|Q|UNK||C|PNC BANK NATIONAL ASSOCIATION|40.43987933333333|-80.00114248717952|15222|Pittsburgh|PA
C00035535|CONSUMER BANKERS ASSOCIATION POLITICAL ACTION COMMITTEE, THE|U|Q|UNK||T|BANKERS ASSOCIATION; THE CONSUMER|38.87518503125|-77.09935687500001|22209|ARLINGTON|VA
C00035600|IOWA DEMOCRATIC PARTY|U|Y|DEM|||Committee for Change|41.65428011864408|-93.58401089830507|50321|Des Moines|IA
C00035618|VERMONT REPUBLICAN FEDERAL ELECTIONS COMMITTEE|U|Y|REP|||VERMONT CONGRESSIONAL VICTORY COMMITTE|44.237045571428574|-72.59320885714286|05601|MONTPELIER|VT
C00035675|BRISTOL-MYERS SQUIBB CO. EMPLOYEE PAC|U|Q|UNK||C|Bristol-Myers Squibb Company|40.76633930120482|-73.97691936746988|10154|New York|NY
C00035683|UNITED TECHNOLOGIES CORPORATION POLITICAL ACTION COMMITTEE|U|Q|NNE||C|UNITED TECHNOLOGIES CORP|38.89531540217391|-77.01958254710144|20005|Washington|DC
C00035691|HALLIBURTON COMPANY PAC|U|Q|||C|Halliburton Company|38.89531540217391|-77.01958254710144|20036|Washington|DC
C00035766|OREGON MEDICAL ASSOCIATION POLITICAL ACTION COMMITTEE|U|Q|||M|Oregon Medical Association|45.52874850793652|-122.5663985079365|97223|PORTLAND|OR
C00035774|MAGAZINE PUBLISHERS OF AMERICA PAC FKA MAGAZINE PUBLISHES ASSOCIATION PAC|U|Q|UNK||T|MAGAZINE PUBLISHERS ASS'N|38.89531540217391|-77.01958254710144|20036|WASHINGTON|DC
C00035857|WHEELING-PITTSBURGH STEEL PAC|U|Q|||C|WHEELING PITTSBURGH STEEL CORPORATION|40.071472|-80.6868|26003|Wheeling|WV
C00037606|NORM DICKS FOR CONGRESS|P|H|DEM|H6WA06021|||47.154465589743594|-122.30681994871797|98401|Tacoma|WA
C00038323|ED JENKINS FOR CONGRESS|P|H||H6GA09029|||34.454934|-84.41583|30143|JASPER|GA
C00038505|NORTH CAROLINA REPUBLICAN EXECUTIVE COMMITTEE|U|Y|REP|||Tribute Victory Fund|35.81289577777778|-78.63090008888891|27605|Raleigh|NC
C00038604|AMERICAN FINANCIAL SERVICES ASSOCIATION PAC|U|Q|UNK||T|American Financial Services Associatio|38.89531540217391|-77.01958254710144|20006|Washington|DC
C00038612|SEARS HOLDINGS CORPORATION PAC|U|Q|UNK||C|Sears Holdings Corporation|42.079336|-88.223655|60179|Hoffman Estates|IL
C00038794|DRAVO CORPORATION EMPLOYEES FOR BETTER GOVERNMENT FUND|U|Q|||C|DRAVO CORPORATION|40.43987933333333|-80.00114248717952|15222|PITTSBURGH|PA
C00038927|SUPIMA POLITICAL ACTION COMMITTEE-SUPAC|U|Q|UNK||T|SUPIMA|33.406690705128206|-112.12873824358972|85040|PHOENIX|AZ
C00038968|MISSOURI FARM BUREAU FARM PAC, WEST CENTRAL DISTRICT|U|Q|||T|FARM BUREAU FEDERATION; MISSOURI|38.61917|-93.41123|65332|GREEN RIDGE|MO
C00039016|CLEVELAND-CLIFFS INC POLITICAL ACTION COMMITTEE (CLIFFSPAC)|U|Q|UNK||C|CLEVELAND-CLIFFS INC|41.55917763829786|-81.65604136170215|44114|Cleveland|OH
C00039040|WHIRLPOOL CORPORATION POLITICAL ACTION COMMITTEE|U|Q|||C|Whirlpool Corporation - Maytag Dependa|38.89531540217391|-77.01958254710144|20004|Washington|DC
C00039057|ROHM AND HAAS EMPLOYEES ASSOCIATION FOR BETTER GOVERNMENT|U|Q|||C|ROHM AND HAAS COMPANY|39.99641823809524|-75.13775460714287|19106|Philadelphia|PA
C00039123|NEW JERSEY MEDICAL POLITICAL ACTION COMMITTEE|U|Q|||M|New Jersey Medical Action Committee|40.276782|-74.72951|08648|Lawrenceville|NJ
C00039164|TEAMSTERS LOCAL 959 ALASKA LABOR INDEPENDENT VOTER EDUCATION|U|Q|||L|TEAMSTERS; INT'L BROTHERHOOD OF|61.15772075|-149.747957125|99503|ANCHORAGE|AK
C00039206|WILLIAMS AND JENSEN, PLLC POLITICAL ACTION COMMITTEE|U|Q|||C|Williams & Jensen, PLLC|38.89531540217391|-77.01958254710144|20036|Washington|DC
C00039214|NATIONAL LUMBER AND BUILDING MATERIAL DEALERS ASSN POLITICAL ACTION COMMITTEE (LUDPAC)|U|Q|NNE||T|National Lumber and Building Material|38.89531540217391|-77.01958254710144|20036|Washington|DC
C00039248|NEVADA MEDICAL POLITICAL ACTION COMMITTEE (NEMPAC)|U|Q|NNE||T|MEDICAL ASS'N; NEVADA          [AMPAC]|39.910358454545445|-119.7081178181818|89509|RENO|NV
C00039305|CITIGROUP INC. POLITICAL ACTION COMMITTEE - FEDERAL/STATE (CITIGROUP PAC-FEDERAL/STATE)|U|Q|UNK||C|CITIGROUP INC.|38.89531540217391|-77.01958254710144|20004|WASHINGTON|DC
C00039321|PEPSICO INC. CONCERNED CITIZENS FUND|U|Q|NNE||C|PepsiCo Inc|41.037203|-73.71588|10577|Purchase|NY
C00039461|BALL CORPORATION POLITICAL ACTION COMMITTEE (BALLPAC)|U|Q|UNK||C|-|39.96782766666667|-105.175859|80021|Broomfield|CO
C00039503|SHELL OIL COMPANY EMPLOYEES' POLITICAL AWARENESS COMMITTEE|U|Q|||C|Shell Oil Company|29.799726263736265|-95.41993828571431|77252|HOUSTON|TX
C00039552|KELLOGG BETTER GOVERNMENT COMMITTEE|U|Q|||C|Kellogg Company|42.312176199999996|-85.1719662|49016|Battle Creek|MI
C00039578|COUNCIL OF INSURANCE AGENTS & BROKERS POLITICAL ACTION COMMITTEE; THE|U|Q|||T|CASUALTY & SURETY AGENTS; NAT'L ASS'N|38.89531540217391|-77.01958254710144|20004|Washington|DC
C00039941|ARIZONA BANKERS ASSOCIATION POLITICAL ACTION COMMITTEE|U|Q|UNK||C|Arizona Bankers Association|33.406690705128206|-112.12873824358972|85003|PHOENIX|AZ
C00040220|TENNESSEE REPUBLICAN PARTY FEDERAL ELECTION ACCOUNT|U|Y|REP|||Tennessee-Alexander Victory Committee|36.1671290888889|-86.78986146666668|37212|Nashville|TN
C00040238|ITG GOOD GOVERNMENT COMMITTEE|U|Q|UNK||C|International Textile Group Inc|36.0831189642857|-79.93603567857141|27408|Greensboro|NC
C00040246|DOW CORNING CORPORATION EMPLOYEE'S PAC|U|Q|||C|DOW CORNING CORPORATION|43.62015171428571|-84.300764|48686|MIDLAND|MI
C00040253|ALLSTATE INSURANCE COMPANY POLITICAL ACTION COMMITTEE|U|Q|||C|Allstate Insurance Company|41.9682525|-87.765175|60062|Northbrook|IL
C00040279|ABBOTT LABORATORIES EMPLOYEE POLITICAL ACTION COMMITTEE|U|Q|UNK||C|Abbott Laboratories|42.326072|-87.85202|60064|Abbott Park|IL
C00040329|NATIONAL RETAIL FEDERATION RETAILPAC|U|Q|||T|NATIONAL RETAIL FEDERATION|38.89531540217391|-77.01958254710144|20004|WASHINGTON|DC
C00040394|WILLIAMS COMPANIES, INC. PAC, THE|U|Q|||C|THE WILLIAMS COMPANIES INC.|38.89531540217391|-77.01958254710144|20006|WASHINGTON|DC
C00040428|MISSOURI FARM BUREAU FARM PAC, NORTHWEST DISTRICT|U|Q|||T|FARM BUREAU FEDERATION; MISSOURI|39.827889|-94.56785|64430|CLARKSDALE|MO
C00040535|AMERICAN EXPRESS COMPANY POLITICAL ACTION COMMITTEE (AXPPAC)|U|Q|UNK||C|American Express Company|38.89531540217391|-77.01958254710144|20004|Washington|DC
C00040550|MERRILL LYNCH & CO., INC. POLITICAL ACTION COMMITTEE|U|Q|||C|MERRILL LYNCH & CO. INC.|38.89531540217391|-77.01958254710144|20004|Washington|DC
C00040568|MARATHON OIL COMPANY EMPLOYEES POLITICAL ACTION COMMITTEE (MEPAC)|U|Q|UNK||C|Marathon Oil Company|42.30390803846153|-83.1278015|48275|Detroit|MI
C00040584|CONSUMER HEALTHCARE PRODUCTS ASSOCIATION PAC  (CHPA/PAC)|U|Q|NNE||T|Consumer Healthcare Products Associati|38.89531540217391|-77.01958254710144|20006|Washington|DC
C00040659|NATIONAL ASSOCIATION OF FEDERAL CREDIT UNIONS POLITICAL ACTION COMMITTEE|U|Q|UNK||T|National Association of Federal Credit|38.87518503125|-77.09935687500001|22201|Arlington|VA
C00040725|UNITED FRESH PRODUCE ASSOCIATION  FRESH POLITICAL ACTION COMMITTEE (FRESH PAC)|U|Q|||T|United Fresh Produce Association|38.89531540217391|-77.01958254710144|20006|Washington|DC
C00040741|UTILITY WORKERS UNION OF AMERICA COPE|U|Q|UNK||L|UTILITY WORKERS UNION OF AMERICA (THE|38.89531540217391|-77.01958254710144|20006|WASHINGTON|DC
C00040840|NAVISTAR, INC. GOOD GOVERNMENT COMMITTEE|U|Q|UNK||C|Navistar, Inc.|41.82552|-88.19452|60555|Warrenville|IL
C00040857|OAKLAND COUNTY DEMOCRATIC PARTY|U|Y|DEM|||MICHIGAN DEMOCRATIC PARTY|42.524134|-83.25454|48025|Bingham Farms|MI
C00040881|OH ACTION COMMITTEE FOR RURAL ELECTRIFICATION (ACRE)/OH RURAL ELECTRIC COOPERATIVES INC|U|Q|UNK||T|OHIO RURAL ELECTRIC COOPERATIVES INC/N|39.98950240816327|-82.9981626734694|43226|COLUMBUS|OH
C00040923|METLIFE INC. EMPLOYEES' POLITICAL PARTICIPATION FUND A|U|Q|UNK||C|MetLife Inc.|40.76633930120482|-73.97691936746988|10036|New York|NY
C00040949|BOILERMAKERS BLACKSMITHS FORGERS AND HELPERS OF AMERICA LOCAL 169 BOILERMAKERS PAC|U|Q|NNE||L|BOILERMAKERS; INT'L BROTH'D|42.28919416666667|-83.19354600000001|48126|DEARBORN|MI
C00040998|DEALERS ELECTION ACTION COMMITTEE OF THE NATIONAL AUTOMOTIVE DEALERS ASSOCIATION|U|Q|UNK||T|National Automobile Dealers Associatio|38.9058505|-77.22686449999999|22102|McLean|VA
C00041038|AVISTA EMPLOYEES FOR EFFECTIVE GOVERNMENT|U|Q|||C|Avista Employees for Effective Governm|47.66256624137931|-117.41345424137934|99220|Spokane|WA
C00041061|AMERICAN PILOTS' ASSOCIATION POLITICAL ACTION COMMITTEE|U|Q|UNK||T|PILOTS' ASSOCIATION INC; AMERICAN|38.89531540217391|-77.01958254710144|20003|WASHINGTON|DC
C00041160|MICHIGAN REPUBLICAN PARTY|U|Y|REP|||Majority Fund 2008|42.67509583333333|-84.52129325|48933|Lansing|MI
C00041236|STANISLAUS REPUBLICAN CENTRAL COMMITTEE|U|Y|REP|||None|37.6421951|-120.97390659999999|95353|Modesto|CA
C00041269|GEORGIA FEDERAL ELECTIONS COMMITTEE|U|Y|DEM|H8TX06035||Committee for Change|33.794055|-84.38525|30309|Altanta|GA
C00041376|CONSTELLATION ENERGY GROUP INC. FEDERAL PAC|U|Q|UNK||C|Constellation Energy Group Inc.|39.30939096078431|-76.61851498039216|21202|Baltimore|MD
C00041566|AMERICAN SOCIETY OF ASSOCIATION EXECUTIVES APAC|U|Q|||M|American Society of Association Execut|38.89531540217391|-77.01958254710144|20005|Washington|DC
C00041590|ASSOCIATION OF AMERICAN PHYSICIANS AND SURGEONS POLITICAL ACTION COMMITTEE (AAPS-PAC)|U|Q|UNK||M|PHYSICIANS & SURGEONS; ASS'N OF AMER|32.15193782692308|-111.18440194230767|85716|TUCSON|AZ
C00041608|POTLATCH EMPLOYEES POLITICAL FUND|U|Q|UNK||C|Potlatch|47.66256624137931|-117.41345424137934|99201|Spokane|WA
C00041939|ELECTRICAL WORKERS VOLUNTARY, POL, EDU & LEG FUND IBEW LOCAL UNION NO 1|U|Q|UNK||L|IBEW LOCAL UNION NO 1|38.622601|-90.26182|63110|ST. LOUIS|MO
C00041947|ASEA BROWN BOVERI (ABB) POLICY IMPROVEMENT PROGRAM|U|Q|||C|ASEA BROWN BOVERI INC|38.89531540217391|-77.01958254710144|20004|WASHINGTON|DC
C00041954|CALIFORNIA FARM BUREAU FUND TO PROTECT THE FAMILY FARM (FARM PAC )|U|Q|||T|California  Farm Bureau Federation|38.430597276190475|-121.44452857142855|95833|Sacramento|CA
C00042002|R.J. REYNOLDS POLITICAL ACTION COMMITTEE; REYNOLDS AMERICAN INC.|U|Q|UNK||C|Reynolds American Inc.|36.032304|-80.396168|27102|Winston-Salem|NC
C00042069|MONSANTO COMPANY CITIZENSHIP FUND AKA MONSANTO CITIZENSHIP FUND|U|Q|NNE||C|Monsanto Company|38.638318|-90.427118|63167|St. Louis|MO
C00042267|HILLSDALE COUNTY REPUBLICAN COMMITTEE|U|Y|REP|||INDIANA REPUBLICAN PARTY|41.89958|-84.62624|49242|HILLSDALE|MI
C00042366|DEMOCRATIC SENATORIAL CAMPAIGN COMMITTEE|U|Y|DEM|||MICHIGAN SENATE 2008|38.89531540217391|-77.01958254710144|20002|WASHINGTON|DC
C00042622|MASSACHUSETTS REPUBLICAN STATE CONGRESSIONAL COMMITTEE|U|Y|REP|||1999 STATE VICTORY FUND COMMITTEE|42.34437557407409|-71.0031983888889|02114|BOSTON|MA
C00042663|KANSAS CITY LIFE INSURANCE COMPANY EMPLOYEES' POLITICAL ACTION COMMITTEE-FUND II|U|Q|||C|KANSAS CITY LIFE INSURANCE CO|39.095393654320986|-94.49784748148147|64111|KANSAS CITY|MO
C00042895|PENNEYPAC - J.C.PENNEY CORP. INC. POLITICAL ACTION COMMITTEE|U|Q|||C|J C PENNEY CO INC|33.0617341|-96.70679650000001|75024|PLANO|TX
C00042960|AMERICAN FROZEN FOOD INSTITUTE POLITICAL ACTION COMMITTEE (AFFI-PAC)|U|Q|NNE||T|FOOD INSTITUTE; AMERICAN FROOZEN|38.9058505|-77.22686449999999|22102|MCLEAN|VA
C00043059|AMERICAN SHEEP INDUSTRY ASSOCIATION INC RAMS PAC|U|Q|UNK||M|AMERICAN SHEEP INDUSTRY ASSOC INC|39.579454|-104.88288|80112|CENTENNIAL|CO
C00043091|NATIONAL TOOLING & MACHINING ASSOCIATION (NTMA) COMMITTEE FOR A STRONG ECONOMY|U|Q|||T|NATIONAL TOOLING & MACHINING ASSOC|38.833563|-76.877743|20749|FT WASHINGTON|MD
C00043265|SUNTRUST BANKS OF TENNESSEE, INC., GOOD GOVERNMENT FUND|U|Q|||C|SunTrust Banks of GA, FL, Mid-Atlantic|36.1671290888889|-86.78986146666668|37230|Nashville|TN
C00043463|MANUFACTURED HOUSING INSTITUTE PAC|U|Q|||T|Manufactured Housing Institute PAC|38.87518503125|-77.09935687500001|22201|ARLINGTON|VA
C00043471|CHIROPRACTORS OF NEBRASKA POLITICAL ACTION COMMITTEE (CN-PAC)|U|Q|||T|NEBRASKA CHIROPRACTIC PHYSICIANS ASSOC|41.27046787755102|-96.0905979591837|68164|OMAHA|NE
C00043489|BANK OF AMERICA CORPORATION STATE AND FEDERAL PAC|U|Q|||C|Bank of America Corporation|39.64413388888888|-75.58563588888889|19884|Wilmington|DE
C00043687|CHRYSLER SERVICE CONTRACTS INC. POLITICAL SUPPORT CMTE|U|Q|||C|Chrysler Service Contracts Inc.|42.660610000000005|-83.316005|48326|Auburn Hills|MI
C00043919|8TH DISTRICT REPUBLICAN COMMITTEE (VA)|U|Y|REP|||REPUBLICAN PARTY OF VIRGINIA INC|38.79919622727272|-77.09773936363636|22307|Alexandria|VA
C00043992|CITIZENS FOR GLOBAL SOLUTIONS POLITICAL ACTION COMMITTEE -- GLOBAL SOLUTIONS PAC|U|Q|UNK||M|Citizens for Global Solutions|38.89531540217391|-77.01958254710144|20003|Washington|DC
C00044776|ALABAMA REPUBLICAN PARTY|U|Y|REP|||Sessions/ALGOP Committee|33.52148017567568|-86.87121170270271|35255|Birmingham|AL
C00044818|TENNESSEE DENTAL ASSOCIATION POLITICAL ACTION COMMITTEE|U|Q|||M|Tennessee Dental Association|35.91246639999999|-86.8839802|37067|FRANKLIN|TN
C00044842|REPUBLICAN FEDERAL COMMITTEE OF PENNSYLVANIA|U|Y|REP|||2004 Joint State Victory Committee|40.28232126923077|-76.85854892307692|17102|HARRISBURG|PA
C00044990|SOUTH DAKOTA REPUBLICAN PARTY|U|Y|REP|||Thune for Americas Future Committee|44.425356|-100.29145|57501|Pierre|SD
C00045781|OUTDOOR ADVERTISING ASSOCIATION OF AMERICA POLITICAL ACTION COMMITTEE|U|Q|||T|ADVERTISING ASS'N OF AMERICA; OUTDOOR|38.89531540217391|-77.01958254710144|20036|WASHINGTON|DC
C00046086|INSTITUTE OF SCRAP RECYCLING INDUSTRIES INC. POLITICAL ACTION COMMITTEE|U|Q|||T|Institute of Scrap Recycling Industrie|38.89531540217391|-77.01958254710144|20036|Washington|DC
C00046474|FORD MOTOR COMPANY CIVIC ACTION FUND|U|Q|UNK||C|Ford Motor Company|42.30390803846153|-83.1278015|48275|Detroit|MI
C00047415|KAISER ALUMINUM POLITICAL ACTION COMMITTEE|U|Q|||C|KAISER ALUMINUM|33.685479|-117.6669|92610|Foothill Ranch|CA
C00047548|KEEP MCDADE IN CONGRESS COMMITTEE|P|H||H6PA10026|||41.406026|-75.65548642857142|18503|SCRANTON|PA
C00048165|ZACOPAC (ZACHRY CONSTRUCTION CORPORATION)|U|Q|UNK||C|H B ZACHRY COMPANY|29.463401422222216|-98.49665103333332|78221|San Antonio|TX
C00048181|WISCONSIN BANKERS ASSOCIATION (WISBANKPAC)|U|Q|||T|AMERICAN BANKERS ASSOCIATION PAC (BANK|43.07264378947367|-89.4054060526316|53708|Madison|WI
C00048371|RONNIE G FLIPPO COMMITTEE|P|H|DEM|H6AL05038|||34.8690518|-87.6914696|35631|FLORENCE|AL
C00048579|SALT RIVER VALLEY WATER USERS' ASSOCIATION POLITICAL INVOLVEMENT COMMITTEE ( SRPPIC)|U|Q|||C|SALT RIVER VALLEY WATER USERS' ASS'N|33.406690705128206|-112.12873824358972|85072|PHOENIX|AZ
C00048702|NATIONAL GRID USA POLITICAL ACTION COMMITTEE|U|Q|||C|KEYSPAN CORPORATION POLITICAL ACTION C|42.32150849999999|-71.74839225|01582|Westborough|MA
C00049056|KANEB SERVICES CONCERNED CITIZENS FUND|U|Q|||C|KANEB SERVICES INC|32.8892876|-96.7328704|75080|RICHARDSON|TX
C00051227|CONGRESSMAN BILL YOUNG CAMPAIGN COMMITTEE|P|H|REP|H6FL06035|||27.891809|-82.724763|33743|St. Petersburg|FL
C00051979|NISOURCE INC. PAC|U|Q|NNE||C|NiSource Inc.|39.98950240816327|-82.9981626734694|43215|Columbus|OH
C00053553|NATIONAL RIFLE ASSOCIATION OF AMERICA POLITICAL VICTORY FUND|U|Q|UNK||M|The National Rifle Association of Amer|38.83442477777778|-77.28774144444445|22030|Fairfax|VA
C00053751|FRIENDS OF BOB LIVINGSTON PAC|U|Q|UNK||||38.79919622727272|-77.09773936363636|22314|ALEXANDRIA|VA
C00055582|NEW YORK REPUBLICAN FEDERAL CAMPAIGN COMMITTEE|U|Y|REP|||NEW YORK SALUTE 2000|42.62976221568628|-73.92296152941177|12210|Albany|NY
C00056523|IDAHO BANKERS POLITICAL ACTION COMMITTEE|U|Q|UNK||T|BANKERS ASS'N; AMERICAN|43.51203700000001|-116.23286|83701|BOISE|ID
C00056564|TATE AND LYLE PAC OF TATE AND LYLE INGREDIENTS AMERICAS INC|U|Q|||C|TATE & LYLE INGREDIENTS AMERICAS INC|39.850448285714286|-88.96984757142856|62521|DECATUR|IL
C00059238|KROGER POLITICAL ACTION COMMITTEE|U|Q|NNE||C|KROGER CO|39.16559364383562|-84.49549378082193|45202|Cincinnati|OH
C00059329|INTERNATIONAL ASSOCIATION OF DRILLING CONTRACTORS POLITICAL ACTION COMMITTEE|U|Q|UNK||T|INTERNATIONAL ASSOCIATION OF DRILLING|29.799726263736265|-95.41993828571431|77210|HOUSTON|TX
C00059733|BROWN-FORMAN CORPORATION NON-PARTISAN COMMITTEE FOR RESPONSIBLE GOVERNMENT|U|Q|UNK||C|BROWN-FORMAN CORPORATION|38.20007860606061|-85.68525571212122|40210|LOUISVILLE|KY
C00059832|AUCTION MARKETS POLITICAL ACTION COMMITTEE OF THE CHICAGO BOARD OF TRADE|U|Q|UNK||C|CME/PAC Chicago Mercantile Exchange In|38.89531540217391|-77.01958254710144|20004|Washington|DC
C00059907|SOUTH CAROLINA CREDIT UNION LEAGUE, INC. CREDIT UNION DEFENSE FUND|U|Q|UNK||T|S C Credit Union League|34.120487|-81.19686|29063|Irmo|SC
C00060103|BP CORPORATION NORTH AMERICA INC. POLITICAL ACTION COMMITTEE|U|Q|UNK||C|BP Corporation North America Inc|29.799726263736265|-95.41993828571431|77079|Houston|TX
C00060582|"DC FRIENDS OF ""BILL CLAY"""|A|H|DEM|H6MO01022|||39.0985292|-77.11824240000001|20905|SILVER SPRING|MD
C00060707|NATIONAL ASSOC OF SOCIAL WORKERS, INC POLITICAL ACTION FOR CANDIDATE ELECTION (PACE)|U|Q|NNE||M|National Association of Social Workers|38.89531540217391|-77.01958254710144|20002|WASHINGTON|DC
C00062224|CLOROX COMPANY EMPLOYEES' POLITICAL ACTION COMMITTEE,THE|U|Q|UNK||C|THE CLOROX COMPANY|37.755087999999986|-122.12827513793107|94612|OAKLAND|CA
C00062646|GENERAL MILLS POLITICAL ACTION COMMITTEE|U|Q|UNK||C|GENERAL MILLS INC|44.988124797101456|-93.35478904347828|55426|Minneapolis|MN
C00062836|KENTUCKY BANKERS POLITICAL ACTION COMMITTEE|U|Q|UNK||T|BANKERS ASS'N; AMERICAN|38.20007860606061|-85.68525571212122|40202|Louisville|KY
C00063024|SERVICE STATION DEALERS OF AMERICA, INC., SSDA-PAC (FORMERLY NCPR-PAC)|U|Q|DEM||T|SERVICE STATION DEALERS OF AMERICA INC|38.90231957142857|-76.81168271428571|20716|BOWIE|MD
C00063164|MCDONALDS CORPORATION POLITICAL ACTION COMMITTEE|U|Q|UNK||C|McDonalds Corporation|41.837716|-87.96041|60523|OAK BROOK|IL
C00063461|BABCOCK  AND WILCOX COMPANY GOOD GOVERNMENT FUND ;THE|U|Q|UNK||C|BETTER GOV FUND OF MCDERMOTT INCORP|37.366605899999996|-79.1651669|24504|Lynchburg|VA
C00063586|UNITED STATES BEET SUGAR ASSOCIATION POLITICAL ACTION COMMITTEE|U|Q|||T|BEET SUGAR ASS'N; UNITED STATES|38.89531540217391|-77.01958254710144|20005|WASHINGTON|DC
C00064097|FEDERAL CREDIT UNION LEGISLATIVE ACTION FUND (FEDERAL CULAF) (FKA WASHINGTON CREDIT UNION)|U|Q|||M|CREDIT UNION LEGISLATIVE ACTION CMTY|47.34084625|-122.14770974999999|98003|FEDERAL WAY|WA
C00064337|APPLEPAC FKA:  APPLEGATE FOR CONGRESS COMMITTEE|U|Q|DEM||||40.561512|-80.71859|43932|IRONDALE|OH
C00064766|UNITED PARCEL SERVICE INC. PAC|U|Q|||C|United Parcel Service Inc.|33.828458666666684|-84.40236618918924|30328|Atlanta|GA
C00064774|FPL PAC FLORIDA POWER & LIGHT CO EMPLOYEES POLITICAL ACTION COMMITTEE|U|Q|||C|Florida Power & Light Co.|26.840684|-80.06312|33408|Juno Beach|FL
C00065219|WINE INSTITUTE POLITICAL ACTION COMMITTTE|U|Q|UNK||T|The Wine Institute|38.89531540217391|-77.01958254710144|20005|Washington|DC
C00065870|POLITICAL EDUCATION PATTERNS POLITICAL ARM INTL UNION OPERATING ENG LOCAL 18|U|Q|UNK||L|ENGINEERS; INT'L UNION OF OPERATING|41.55917763829786|-81.65604136170215|44115|CLEVELAND|OH
C00065987|MEADWESTVACO CORPORATION POLITICAL ACTION COMMITTEE|U|Q|UNK||C|MeadWestvaco Corporation|37.626365|-77.49297766666668|23060|Glen Allen|VA
C00066472|PROPERTY CASUALTY INSURERS ASSOCIATION OF AMERICA POLITICAL ACTION COMMITTEE  (PCIPAC)|U|Q|||T|Property Casualty Insurers Association|42.027166|-87.89608799999999|60018|Des Plaines|IL
C00067231|HCA INC. GOOD GOVERNMENT FUND|U|Q|||C|HCA Inc.|36.1671290888889|-86.78986146666668|37203|NASHVILLE|TN
C00067504|SECURITIES INDUSTRY AND FINANCIAL MARKETS ASSOCIATION FUND A|U|Q|||T|Securities Industry and Financial Mark|38.89531540217391|-77.01958254710144|20005|Washington|DC
C00067884|CARGILL INCORPORATED POLITICAL ACTION COMMITTEE|U|Q|||C|Cargill Incorporated|44.988124797101456|-93.35478904347828|55440|Minneapolis|MN
C00068056|CITIZENS FOR RESPONSIBLE GOVERNMENT - EMPLOYEES OF NORTHWESTERN ENERGY|U|Q|UNK||C|MONTANA POWER CO|47.47560120000001|-111.29388800000001|59403|GREAT FALLS|MT
C00068353|LEAHY FOR U.S. SENATOR COMMITTEE|P|S||S4VT00017|||44.237045571428574|-72.59320885714286|05601|MONTPELIER|VT
C00068452|IOWA CONSTRUCTION INDUSTRY PAC/ ASSOCIATED GENERAL CONTRACTORS OF IOWA|U|Q|||T|CONTRACTORS OF IOWA; ASS'D GEN'L|41.65428011864408|-93.58401089830507|50303|DES MOINES|IA
C00068528|PACIFIC LIFE INSURANCE COMPANY POLITICAL ACTION COMMITTEE|U|Q|UNK||C|Pacific Life Insurance Company|33.618939166666664|-117.87561050000001|92660|Newport Beach|CA
C00068692|FEDERAL EXPRESS POLITICAL ACTION COMMITTEE|U|Q|UNK||C|Federal Express Corporation|35.16473077142859|-89.95803939999998|38120|Memphis|TN
C00068981|MINNESOTA 2ND DISTRICT DFL|U|Y|DEM||||44.761796|-93.3722|55378|SAVAGE|MN
C00071365|DEMOCRATIC STATE CENTRAL COMMITTEE OF LA|U|Y|DEM|||Association of State Democratic Chairs|30.475762928571427|-91.10245178571428|70821|Baton Rouge|LA
C00072025|NATIONAL RURAL LETTER CARRIERS' ASSOCIATION POLITICAL ACTION COMMITTEE|U|Q|UNK||L|National Rural Letter Carriers' Associ|38.79919622727272|-77.09773936363636|22314|Alexandria|VA
C00072751|STATE STREET BANK AND TRUST COMPANY VOLUNTARY POLITICAL ACTION COMMMITTEE|U|Q|||C|STATE STREET BANK & TRUST CO|42.34437557407409|-71.0031983888889|02206|BOSTON|MA
C00072769|ROCHE INC. GOOD GOVERNMENT FUND|U|Q|||C|Roche Inc.|40.8196|-74.15877|07110|Nutley|NJ
C00072967|COMMERCE BANCS PAC|U|Q|||C|COMMERCE BANCSHARES INC|39.095393654320986|-94.49784748148147|64199|KANSAS CITY|MO
C00073056|MASTERS, MATES AND PILOTS POLITICAL CONTRIBUTION FUND|U|Q|||L|MASTERS MATES & PILOTS; INT'L|39.209529|-76.66177|21090|LINTHICUM HEIGHTS|MD
C00073155|KEYCORP ADVOCATES FUND|U|Q|||C|KeyCorp|41.55917763829786|-81.65604136170215|44114|Cleveland|OH
C00073627|AMERICAN FEDERATION OF MUSICIANS - TEMPO POLITICAL CONTRIBUTIONS COMMITTEE|U|Q|||L|MUSICIANS; AMERICAN FED'N OF|40.76633930120482|-73.97691936746988|10036|NEW YORK|NY
C00073791|DOLLARS FOR DEMOCRATS|U|Y|DEM|||Fifty Six State Democratic Parties|38.89531540217391|-77.01958254710144|20003|Washington|DC
C00074096|DOW CHEMICAL COMPANY EMPLOYEES PAC (DOWPAC), THE|U|Q|||C|The Dow Chemical Company|43.62015171428571|-84.300764|48674|Midland|MI
C00074393|INLANDBOATMEN'S UNION POLITICAL ACTION COMMITTEE-(IBU-PAC)|U|Q|||L|MARINE DIVISION I L W U|47.53192905084746|-122.12633125423729|98119|SEATTLE|WA
C00074450|REPUBLICAN PARTY OF WISCONSIN|U|Y|REP|||2004 Joint State Victory Committee|43.07264378947367|-89.4054060526316|53703|Madison|WI
C00074633|PACEG COMMITTEE|U|Q|||M|RUAN CORPORATION|41.65428011864408|-93.58401089830507|50304|DES MOINES|IA
C00074799|OHIO BANKERS ASSOCIATION POLITICAL ACTION COMMITTEE(FEDERAL)|U|Q|||T|AMERICA'S COMMUNITY BANKERS COMMUNITY|39.98950240816327|-82.9981626734694|43219|Columbus|OH
C00075275|NATIONAL ASSOCIATION OF WATER COMPANIES POLITICAL ACTION COMMITTEE (NAWC - PAC)|U|Q|||T|WATER COMPANIES; NAT'L ASS'N OF|38.89531540217391|-77.01958254710144|20006|WASHINGTON|DC
C00075291|BRANCH BANK & TRUST POLITICAL ACTION COMMITTEE|U|Q|||C|BB&T|36.04826437037037|-80.23130251851853|27104|Winston Salem|NC
C00075341|MOTOROLA, INC. POLITICAL ACTION COMMITTEE|U|Q|||C|Motorola, Inc.|38.89531540217391|-77.01958254710144|20004|Washington|DC
C00075358|NATIONAL ASSOCIATION OF AIR TRAFFIC SPECIALISTS POLITICAL ACTION FUND|U|Q|||L|AIR TRAFFIC SPECIALISTS; NAT'L ASS'N|64.8607398|-147.5316743|99709|FAIRBANKS|AK
C00075473|CMS ENERGY CORPORATION EMPLOYEES FOR BETTER GOVERNMENT- FEDERAL|U|Q|||C|CMS Energy Corporation|42.2486965|-84.35545625|49201|Jackson|MI
C00075820|NATIONAL REPUBLICAN CONGRESSIONAL COMMITTEE|U|Y|REP|||2007 PRESIDENT'S DINNER COMMITTEE, THE|38.89531540217391|-77.01958254710144|20003|WASHINGTON|DC
C00075994|ASHLAND INC. POLITICAL ACTION COMMITTEE FOR EMPLOYEES (PACE)|U|Q|||C|Ashland Inc.|39.023985999999994|-84.52322239999998|41011|Covington|KY
C00076133|DELTA AIRLINES INC POLITICAL ACTION COMMITTEE|U|Q|||C|DELTA AIR LINES INC|33.828458666666684|-84.40236618918924|30320|ATLANTA|GA
C00076174|NATIONWIDE MUTUAL INSURANCE COMPANY POLITICAL ACTION COMMITTEE|U|Q|||C|Nationwide|39.98950240816327|-82.9981626734694|43215|Columbus|OH
C00076182|NATIONAL TURKEY FEDERATION POLITICAL ACTION COMMITTEE|U|Q|||T|TURKEY FED'N; NAT'L|38.89531540217391|-77.01958254710144|20005|WASHINGTON|DC
C00076299|CME GROUP, INC. PAC (CME/CBOT PAC)|U|Q|||C|CME Group, Inc.|41.85168971764706|-87.67981902352942|60606|Chicago|IL
C00076588|CF INDUSTRIES INC. EMPLOYEES' GOOD GOVERNMENT FUND|U|Q|||C|CF Industries Inc.|42.169325|-87.86556|60015|Deerfield|IL
C00076703|IOWA FRIENDS OF RURAL ELECTRIFICATION - IAEC PAC|U|Q|||T|Action Committee For Rural Electrifica|41.6281545|-93.763075|50322|Urbandale|IA
C00076737|SOUTHWEST GAS CORPORATION POLITICAL ACTION COMMITTEE|U|Q|||C|SOUTHWEST GAS CORPORATION|36.06223526153846|-115.10904812307692|89150|LAS VEGAS|NV
C00076810|GENERAL MOTORS CORPORATION POLITICAL ACTION COMMITTEE (GM PAC)|U|Q|||C|General Motors Corporation|38.89531540217391|-77.01958254710144|20001|Washington|DC
C00076836|NATIONAL ALLIANCE FOR POLITICAL ACTION (NAPA)|U|Q|||L|POSTAL & FED'L EMPS; NAT'L ALLIANCE OF|38.89531540217391|-77.01958254710144|20001|WASHINGTON|DC
C00076893|MARYLAND BANKERS ASSOCIATION POLITICAL ACTION COMMITTEE (AKA MARYLAND BANKPAC)|U|Q|||T|AMERICAN BANKERS ASSOCIATION PAC (BANK|38.98329971428571|-76.54007942857143|21401|ANNAPOLIS|MD
C00077289|PENN STATE PAC|U|Q||||NONE|40.8847825|-77.8174085|16804|STATE COLLEGE|PA
C00077305|ALABAMA POWER CO EMPLOYEES FEDERAL POLITICAL ACTION CMTE (APC EMPLOYEES FEDERAL PAC)|U|Q|||C|Alabama Power Company|33.52148017567568|-86.87121170270271|35291|Birmingham|AL
C00077321|AMERICAN INSTITUTE OF CERTIFIED PUBLIC ACCOUNTANTS POLITICAL ACTION COMMITTEE|U|Q|||M|American Institute of Certified Public|36.0219741875|-78.8881373125|27707|Durham|NC
C00077354|UNITED SENIORS PAC INC|U|Q|||W|NONE|43.6194702|-96.766635|57106|Sioux Falls|SD
C00077362|AMERICAN HOME FURNISHINGS ALLIANCE POLITICAL ACTION COMMITTEE|U|Q|||T|American Home Furnishings Alliance|38.89531540217391|-77.01958254710144|20036|Washington|DC
C00077552|BAKER BOTTS BLUEBONNET FUND|U|Q|||C|BAKER & BOTTS|29.799726263736265|-95.41993828571431|77002|Houston|TX
C00077701|KRAFT FOODS GLOBAL INC. POLITICAL ACTION COMMITTEE (KRAFT PAC)|U|Q|||C|Kraft Foods Global Inc.|38.89531540217391|-77.01958254710144|20004|Washington|DC
C00078105|KILDEE FOR CONGRESS COMMITTEE|P|H|DEM|H6MI07108|||43.00962215789474|-83.71120415789473|48501|Flint|MI
C00078196|RHODE ISLAND REPUBLICAN STATE CENTRAL COMMITTEE|U|Y|REP|||Chafee - Rhode Island Victory Committe|41.710699250000005|-71.4524605|02886|Warwick|RI
C00078261|UNITED AIRLINES POLITICAL ACTION COMMITTEE|U|Q|||C|United Airlines|41.85168971764706|-87.67981902352942|60666|Chicago|IL
C00078287|CNA FINANCIAL CORPORATION CITIZENS FOR GOOD GOVERNMENT|U|Q|||C|CNA Financial Corporation|41.85168971764706|-87.67981902352942|60604|CHICAGO|IL
C00078451|GENERAL DYNAMICS VOLUNTARY POLITICAL CONTRIBUTION PLAN (GDVPCP)|U|Q|||C|Anteon PAC|38.868151714285716|-77.18873671428572|22042|Falls Church|VA
C00078535|DIRECT SELLING ASSOCIATION POLITICAL ACTION COMMITTEE|U|Q|||T|Direct Selling Association|38.89531540217391|-77.01958254710144|20006|Washington|DC
C00079145|UMB FINANCIAL CORPORATION PAC|U|Q|||C|UMB FINANCIAL CORPORATION AND AFFILIAT|39.095393654320986|-94.49784748148147|64141|KANSAS CITY|MO
C00079327|DISTRICT 1199JNUHHCEAFSCMEAFL-CIO|U|Q|||L|DIST 1199J-NAT UN/HOSP/HLTH CARE EMP|40.76504404166666|-74.22013475|07102|NEWARK|NJ
C00079541|NARAL PRO-CHOICE AMERICA PAC|U|Q|||M|NARAL Pro-Choice America PAC|38.89531540217391|-77.01958254710144|20005|Washington|DC
C00079566|CALIFORNIA WESTSIDE FARMERS FED PAC|U|Q|||T|FARMERS - INC; CALIFORNIA WESTSIDE|36.75393231666668|-119.67922220000001|93704|Fresno|CA
C00079681|NATIONAL PROPANE GAS ASSOCIATION POLITICAL ACTION COMMITTEE -PROPANEPAC|U|Q|||C|National Propane Gas Associatiion|38.89531540217391|-77.01958254710144|20036|Washington|DC
C00079855|BOWLING PROPRIETORS ASSN OF AMERICA PAC|U|Q|||T|BOWLING PROPRIETORS ASS'N OF AMERICA|32.72377110526317|-97.17981410526316|76005|ARLINGTON|TX
C00080135|BLUE DIAMOND GROWERS POLITICAL ACTION COMMITTEE (FKA CALIF ALMOND GROWERS EXCHANGE PAC)|U|Q|||W|BLUE DIAMOND GROWERS|38.430597276190475|-121.44452857142855|95814|SACRAMENTO|CA
C00080515|EMERSON ELECTRIC CO. RESPONSIBLE GOVERNMENT FUND|U|Q|||C|Emerson Electric Co.|38.73835|-90.26154|63136|St. Louis|MO
C00080648|MICHIGAN BANKERS ASSOCIATION - MIBANKPAC-FEDERAL|U|Q|||T|MICHIGAN BANKERS ASSOCIATION|42.67509583333333|-84.52129325|48933|LANSING|MI
C00080655|NEW LEADERSHIP FOR AMERICA PAC|U|Q|DEM|||DEDICATED AMERICANS FOR THE SENATE AND|44.916657|-97.11346|57201|Watertown|SD
C00080721|COMMITTEE FOR RESPONSIBLE GOVERNMENT OF TEMPLE-INLAND INC.|U|Q|||C|Temple-Inland Inc.|30.319931120481932|-97.75807027710842|78701|Austin|TX
C00081273|MIDAMERICAN ENERGY COMPANY EFFECTIVE GOVERNMENT COMMITTEE|U|Q|||C|MidAmerican Energy Company Executive P|41.65428011864408|-93.58401089830507|50306|Des Moines|IA
C00081356|KEEP NICK RAHALL IN CONGRESS COMMITTEE|P|H|DEM|H6WV04057|||37.76978750000001|-81.212019|25802|Beckley|WV
C00081414|AMERICAN SUGAR CANE LEAGUE OF USA INC POLITICAL ACTION COMMITTEE|U|Q|||T|American Sugar Cane League of USA, Inc|29.686582333333334|-90.71261733333334|70302|Thibodaux|LA
C00081422|NEW YORK BANKERS ASSOCIATION POLITICAL ACTION COMMITTEE|U|Q|||T|NEW YORK BANKERS ASSOCIATION POLITICAL|40.76633930120482|-73.97691936746988|10016|New York|NY
C00081455|RELIANT ENERGY INC.POLITICAL ACTION COMMITTEE|U|Q|||C|Reliant Energy Inc.|29.799726263736265|-95.41993828571431|77001|Houston|TX
C00081547|DTE ENERGY CO. PAC - FEDERAL|U|Q|||C|DTE Energy Company|42.30390803846153|-83.1278015|48226|Detroit|MI
C00081802|WV REPUBLICAN STATE EXEC COMMITTEE|U|Y|Rep|||2004 JOINT STATE VICTORY COMMITTEE|38.321258106382984|-81.57999429787233|25330|CHARLESTON|WV
C00082040|US CHAMBER OF COMMERCE PAC (NCAP)|U|Q|||M|US Chamber Of Commerce|38.89531540217391|-77.01958254710144|20062|Washington|DC
C00082255|DEERE & COMPANY POLITICAL ACTION COMMITTEE-IOWA (AKA DEERE PAC-IOWA)|U|Q|||C|Deere & Company|41.522617|-90.5580175|61265|Moline|IL
C00082271|PRECISION METALFORMING ASSOCIATION VOICE OF THE INDUSTRY COMMITTEE (PMAVIC)|U|Q|||T|PMA|41.391753|-81.65816|44131|INDEPENDENCE|OH
C00082636|INDIANA DENTAL PAC|U|Q|||T|AMERICAN DENTAL POLITICAL ACTION CMTE.|39.797402600000005|-86.1365729|46204|Indianapolis|IN
C00082677|J. G. BOSWELL EMPLOYEES' POLITICAL ACTION COMMITTEE|U|Q|||C|J. G. Boswell Company|33.85738706451613|-118.26673387096778|91103|Pasadena|CA
C00082792|ELI LILLY AND COMPANY POLITICAL ACTION COMMITTEE|U|Q|||C|Eli Lilly and Company|39.797402600000005|-86.1365729|46285|INDIANAPOLIS|IN
C00082800|PACIFICORP/MIDAMERICAN POLITICAL ACTION COMMITTEE|U|Q|||C|PacifiCorp|45.52874850793652|-122.5663985079365|97232|PORTLAND|OR
C00082834|CALIFORNIA BANKERS ASSOCIATION FEDERAL (CALBANKPAC)|U|Q|||T|California Bankers Association|38.430597276190475|-121.44452857142855|95814|Sacramento|CA
C00082917|ASSOCIATED GENERAL CONTRACTORS OF AMERICA POLITICAL ACTION COMMITTEE|U|Q|||T|Associated General Contractors of Amer|38.87518503125|-77.09935687500001|22201|Arlington|VA
C00082925|NEVADA REPUBLICAN STATE CENTRAL COMMITTEE|U|Y|REP|||Majority Fund 2008|36.06223526153846|-115.10904812307692|89107|Las Vegas|NV
C00083279|CALIFORNIA REAL ESTATE POLITICAL ACTION COMMITTEE/FEDERAL|U|Q|||M|NATIONAL ASSOCIATION OF REALTORS POLIT|33.94396584158416|-118.29928288118809|90020|LOS ANGELES|CA
C00083287|JSJ CORPORATION POLITICAL ACTION COMMITTEE|U|Q|||C|JSJ CORPORATION|43.04117|-86.19013|49417|GRAND HAVEN|MI
C00083337|LOUISIANA ACTION COMMITTEE FOR RURAL ELECTRIFICATION|U|Q|||T|ELECTRIC COOP. ASS'N; NAT'L RURAL|30.475762928571427|-91.10245178571428|70816|BATON ROUGE|LA
C00083428|SENSENBRENNER COMMITTEE|P|H|REP|H8WI09050|||43.044961|-88.18269233333335|53008|Brookfield|WI
C00083535|DUKE ENERGY CORPORATION PAC|U|Q|||C|Duke Energy Corporation|35.24106722077923|-80.81472076623379|28285|Charlotte|NC
C00083709|IOWANS FOR JIM LEACH|P|H|REP|H6IA01015||Iowans For Jim Leach|41.6400535|-91.5654025|52240|Iowa City|IA
C00083758|NATIONAL FUEL GAS FEDERAL POLITICAL ACTION COMMITTEE|U|Q|||C|National Fuel Gas|42.977456|-78.73356|14221|Williamsville|NY
C00083782|TEXTILE MACHINERY GOOD GOVERNMENT COMMITTEE|U|Q|||T|TEXTILE MACHINERY ASS'N; AMER|38.868151714285716|-77.18873671428572|22046|FALLS CHURCH|VA
C00083790|NEBRASKA BANKERS ASSOCIATION FEDERAL POLITICAL ACTION COMMITTEE|U|Q|||T|BANKERS ASS'N; AMERICAN|40.81781506666667|-96.69156293333332|68508|LINCOLN|NE
C00083808|MICHIGAN PETROLEUM PAC|U|Q|||M|NONE|42.67509583333333|-84.52129325|48901|LANSING|MI
C00083832|IDA-PAC POLITICAL ACTION COMMITTEE|U|Q|||C|IDAHO POWER COMPANY|43.51203700000001|-116.23286|83707|BOISE|ID
C00083857|OCCIDENTAL PETROLEUM CORPORATION POLITICAL ACTION COMMITTEE|U|Q|||C|Occidental Petroleum Corporation|33.94396584158416|-118.29928288118809|90024|Los Angeles|CA
C00083915|NATIONAL PEST CONTROL ASSOCIATION POLITICAL ACTION COMMITTEE|U|Q|||T|PEST CONTROL ASSOCIATION; NATIONAL|38.83442477777778|-77.28774144444445|22031|Fairfax|VA
C00084061|BLUE CROSS BLUE SHIELD OF MICHIGAN PAC|U|Q|||M|BluePAC (Blue Cross Blue Shield Associ|42.67509583333333|-84.52129325|48933|Lansing|MI
C00084145|HARSCO CORPORATION POLITICAL ACTION COMMITTEE|U|Q|||C|HARSCO PENNPAC|40.199058199999996|-77.0554984|17011|CAMP HILL|PA
C00084285|DEAN OPERATIONS INC PAC (DEANPAC)|U|Q|||C|DEAN OPERATIONS INC|39.095393654320986|-94.49784748148147|64141|KANSAS CITY|MO
C00084368|MISSISSIPPI REPUBLICAN PARTY|U|Y|REP|||The Mississippi Majority Committee|32.30845729411766|-90.2704443235294|39205|Jackson|MS
C00084475|3M COMPANY|U|Q|PAC||C|Minnesota Mining and Manufacturing Com|45.005902|-93.105869|55144|St. Paul|MN
C00084491|INTERNATIONAL FRANCHISE ASSOCIATION FRANCHISING POLITICAL ACTION COMMITTEE INC.|U|Q|||M|International Franchise Association|38.89531540217391|-77.01958254710144|20005|Washington|DC
C00084582|FEDERAL-MOGUL CORPORATION EMPLOYEES' POLITICAL ACTION COMMITTEE|U|Q|||C|FEDERAL-MOGUL CORPORATION|42.533295599999995|-83.25634960000001|48034|SOUTHFIELD|MI
C00084822|INTERNATIONAL ASSOCIATION OF HOLIDAY INNS|U|Q|||C|HOLIDAY INNS INC|33.828458666666684|-84.40236618918924|30346|ATLANTA|GA
C00084871|CELANESE CORPORATION POLITICAL ACTION COMMITTEE|U|Q|||C|Celanese Corporation|32.785762754098364|-96.78275256557379|75234|Dallas|TX
C00084954|REPUBLICAN PARTY OF ARKANSAS|U|Y|REP|||ARKANSAS LEADERSHIP COMMITTEE 2004 FCR|34.757797833333335|-92.34247691666667|72201|Little Rock|AR
C00085019|ARIZONA DAIRYMEN POLITICAL ACTION COMMITTEE (ADPAC)|U|Q|||T|DAIRYMEN OF ARIZONA; UNITED|33.276539|-112.18717|85285|TEMPE|AR
C00085316|CIGNA CORPORATION POLITICAL ACTION COMMITTEE|U|Q|||C|CIGNA Corporation|39.99641823809524|-75.13775460714287|19192|Philadelphia|PA
C00085480|OMEGA PROTEIN INC. PAC|U|Q|||C|Omega Protein Inc. PAC|30.475762928571427|-91.10245178571428|70801|Baton Rouge|LA
C00085506|HAWAII REPUBLICAN PARTY|U|Y|REP|||REPUBLICAN PARTY OF HAWAII|23.99200566666667|-165.5305597777778|96813|HONOLULU|HI
C00085910|FERT PAC (THE POLITICAL ACTION COMMITTEE OF THE FERTILIZER INSTITUTE)|U|Q|||T|The Fertilizer Institute|38.89531540217391|-77.01958254710144|20002|Washington|DC
C00085951|COMMITTEE FOR QUALIFIED CANDIDATES FKA FRIENDS OF HOWELL HEFLIN COMMITTEE|U|Q|DEM||||34.70017|-87.7142|35674|TUSCUMBIA|AL
C00085977|BANKERS UNITE IN LEGISLATIVE DECISIONS AKA BUILD (FKA IOWA BANKERS ASSOC)|U|Q|||T|BANKERS ASS'N; AMERICAN|41.674757|-93.71865|50131|JOHNSTON|IA
C00086256|HARRIS GOVERNMENT AFFAIRS FUND|U|N|||C|HARRIS N A|41.85168971764706|-87.67981902352942|60690|CHICAGO|IL
C00086298|UNITED STATES 7-ELEVEN EMPLOYEES' POLITICAL ACTION COMMITTEE ('U S SEPAC')|U|Q|||C|SOUTHLAND CORPORATION|32.785762754098364|-96.78275256557379|75221|DALLAS|TX
C00086348|NATIONAL ASSOCIATION FOR UNIFORMED SERVICES PAC|U|Q|||M|NATIONAL ASSOCIATION FOR UNIFORMED SER|38.80418333333333|-77.24831822222221|22151|SPRINGFIELD|VA
C00086355|NEW JERSEY BANKERS ASSOC JERSEY BANKERS POLITICAL ACTION COMMITTEE (JEBPAC) FEDERAL FUND|U|Q|||T|NEW JERSEY BANKERS ASSOCIATION|40.3244262|-74.6770994|08542|PRINCETON|NJ
C00086611|KANSAS BANKERS ASSOCIATION BANKPAC|U|Q|||T|KANSAS BANKERS ASSOCIATION|39.041098899999994|-95.74326307499999|66604|TOPEKA|KS
C00086728|MARTIN OLAV SABO FOR CONGRESS VOLUNTEER COMMITTEE|P|H|DEM|H8MN05023|||43.731479|-93.71837|56097|Wells|MN
C00087155|FIRST FINANCIAL CORPORATION POLITICAL ACTION COMMITTEE|U|Q|||C|NONE|31.552818000000002|-97.16431858823529|76701|Waco|TX
C00087478|CINCINNATI BELL INC FEDERAL PAC|U|Q|||C|CINCINNATI BELL INC|39.16559364383562|-84.49549378082193|45202|CINCINNATI|OH
C00087502|SUNTRUST BANK GOOD GOVENMENT GROUP - CAROLINAS|U|Q|||C|SunTrust Bank|36.0219741875|-78.8881373125|27701|Durham|NC
C00087874|CONAGRA FOODS GOOD GOVERNMENT ASSOCIATION|U|Q|||C|CONAGRA FOODS|41.27046787755102|-96.0905979591837|68102|OMAHA|NE
C00087882|NESTLE USA INC. POLITICAL ACTION COMMITTEE|U|Q|||C|Nestle USA Inc.|41.388387|-81.44365|44139|Solon|OH
C00088120|REELECT EXON FOR US SENATE COMMITTEE|P|S||S8NE00026|||40.81781506666667|-96.69156293333332|68508|LINCOLN|NE
C00088435|RYDER SYSTEM INC. EMPLOYEES POLITICAL ACTION COMMITTEE|U|Q|||C|Ryder System, Inc.|25.69783154166667|-80.34412848958333|33178|Miami|FL
C00088484|FRIENDS OF SENATOR CARL LEVIN|P|S|DEM|S8MI00158|||38.89531540217391|-77.01958254710144|20002|WASHINGTON|DC
C00088591|EMPLOYEES OF NORTHROP GRUMMAN CORPORATION PAC|U|Q|||C|NORTHROP GRUMMAN CORPORATION|33.94396584158416|-118.29928288118809|90071|LOS ANGELES|CA
C00088658|DREIER FOR CONGRESS COMMITTEE|P|H|REP|H8CA35032|||34.360066|-117.09612366666666|91785|UPLAND|CA
C00089086|AMERICAN OCCUPATIONAL THERAPY ASSOCIATION INC. POLITICAL ACTION COMMITTEE (AOTPAC), THE|U|Q|||M|The American Occupational Therapy Asso|39.07524977777778|-77.165865|20824|Bethesda|MD
C00089136|ALTRIA GROUP, INC. POLITICAL ACTION COMMITTEE (ALTRIAPAC)|U|Q|||C|Altria Group, Inc.|38.89531540217391|-77.01958254710144|20001|Washington|DC
C00089243|MASSACHUSETTS DEMOCRATIC STATE COMMITTEE - FED FUND|U|Y|DEM|||ASSOCIATION OF STATE DEMOCRATIC CHAIRS|42.34437557407409|-71.0031983888889|02129|BOSTON|MA
C00089342|SPRINT NEXTEL CORPORATION POLITICAL ACTION COMMITTEE|U|Q|||C|SPRINT NEXTEL CORPORATION|38.89531540217391|-77.01958254710144|20001|Washington|DC
C00089458|NATIONAL STONE, SAND & GRAVEL ASSOCIATION ROCKPAC|U|Q|||T|National Stone, Sand and Gravel Associ|38.79919622727272|-77.09773936363636|22314|Alexandria|VA
C00089482|UTAH REPUBLICAN PARTY|U|Y|REP|||UTAH REPUBLICAN PARTY|40.70252124590164|-111.89052680327868|84111|Salt Lake CIty|UT
C00089540|ANDREWS & KURTH FEDERAL PAC|U|Q|||T|ANDREWS & KURTH STATE PAC|29.799726263736265|-95.41993828571431|77002|HOUSTON|TX
C00089557|AMERICAN MARITIME OFFICERS RETIREES ASSOCIATION VOLUNTARY POLITICAL ACTION FUND|U|Q|||L|AMERICAN MARITIME OFFICERS|26.051916|-80.14526|33004|Dania Beach|FL
C00089839|MISSOURI FARM BUREAU FARM PAC, SOUTHEAST DISTRICT|U|Q|||T|FARM BUREAU FEDERATION; MISSOURI|37.413716|-89.65428|63755|JACKSON|MO
C00089987|AMERICAN HORSE COUNCIL, INC COMMITTEE ON LEGISLATION AND TAXATION (COLT)|U|Q|||T|HORSE COUNCIL INC; AMERICAN|38.89531540217391|-77.01958254710144|20006|WASHINGTON|DC
C00090209|YRC WORLDWIDE INC. PAC|U|Q|||C|YRC Worldwide Inc.|38.925159|-94.64136|66211|Overland Park|KS
C00090357|LEWIS FOR CONGRESS COMMITTEE|P|H|REP|H8CA37079||NONE|34.31264733333333|-116.76966033333333|92373|Redlands|CA
C00090415|NATIONAL SOCIETY OF PROFESSIONAL ENGINEERS POLITICAL ACTION COMMITTEE (NSPE-PAC)|U|Q|||M|National Society of Professional Engin|38.79919622727272|-77.09773936363636|22314|Alexandria|VA
C00091561|NATIONAL ACTIVE AND RETIRED FEDERAL EMPLOYEES ASSOCIATION POLITICAL ACTION COM (NARFE-PAC)|U|Q|||M|NATIONAL ACTIVE AND RETIRED FEDERAL EM|38.79919622727272|-77.09773936363636|22314|ALEXANDRIA|VA
C00091884|PROGRESS ENERGY EMPLOYEES' FEDERAL PAC|U|Q|||C|Progress Energy Employees' Carolinas P|35.81289577777778|-78.63090008888891|27602|Raleigh|NC
C00091892|CITIZENS FOR COCHRAN|P|S|REP|S8MS00055|||34.23267224999999|-88.74612425000001|38802|TUPELO|MS
C00092247|NATIONAL ORGANIZATION FOR WOMEN PAC|U|Q|||T|WOMEN INC; NAT'L ORGANIZATION FOR|38.89531540217391|-77.01958254710144|20005|Washington|DC
C00092841|GEORGIA BANKERS ASSOCIATION PAC|U|Q|||T|AMERICAN BANKERS ASSOCIATION BANKPAC|33.828458666666684|-84.40236618918924|30303|ATLANTA|GA
C00092957|NATIONAL ASSOCIATION OF POSTAL SUPERVISORS POLITICAL ACTION COMMITTEE|U|Q|||M|National Association of Postal Supervi|38.79919622727272|-77.09773936363636|22314|Alexandria|VA
C00093054|WAL-MART STORES INC. PAC FOR RESPONSIBLE GOVERNMENT|U|Q|||C|Wal-Mart Stores Inc.|36.331016|-94.0949405|72716|Bentonville|AR
C00093096|BASIC AMERICAN INC POLITICAL ACTION COMMITTEE DBA BASIC AMERICAN FOODS PAC|U|Q|||C|BASIC AMERICAN INC|43.211238|-112.39454|83221|BLACKFOOT|ID
C00093179|AUSTIN INDUSTRIES COMPANIES POLITICAL ACTION COMMITTEE|U|Q|||C|Austin Industries Companies Political|32.785762754098364|-96.78275256557379|75221|Dallas|TX
C00093195|RUSSELL CORPORATION POLITICAL ACTION COMMITTEE|U|Q|||C|RUSSELL CORPORATION|32.9468115|-85.94234549999999|35011|ALEXANDER CITY|AL
C00093898|MISSOURI FARM BUREAU FARM PAC SOUTHWEST DISTRICT|U|Q|||T|FARM BUREAU FEDERATION; MISSOURI|37.021086|-93.21541|65721|Ozark|MO
C00093948|EL PASO CORPORATION PAC|U|Q|||C|El Paso Corporation|29.799726263736265|-95.41993828571431|77002|HOUSTON|TX
C00093963|ARCHER DANIELS MIDLAND COMPANY-ADM PAC|U|Q|||C|Archer Daniels Midland Company|39.850448285714286|-88.96984757142856|62525|Decatur|IL
C00093989|INTERNATIONAL UNION OF OPERATING ENGINEERS LOCAL 324 NATIONAL POLITICAL ACTIVITIES COMM.|U|Q|||L|International Union of Operating Engin|42.333966200000006|-83.2802752|48150|Livonia|MI
C00094185|COMPUTER AND COMMUNICATIONS INDUSTRY ASSOCIATION PAC|U|Q|||T|COMPUTER & COMMUNICATIONS INDSRY ASS'N|38.89531540217391|-77.01958254710144|20006|WASHINGTON|DC
C00094318|CITIZENS STATE BANK WOODVILLE TEXAS POLITICAL ACTION COMMITTEE|U|Q|||C|CITIZENS STATE BANK|31.552818000000002|-97.16431858823529|76701|Waco|TX
C00094573|ELECT - THE PAC OF THE ALABAMA FARMERS FEDERATION|U|Q|||C|Alabama Farmers Federation|32.293839742857145|-86.24048460000002|36191|Montgomery|AL
C00094581|MUTUAL OF OMAHA COMPANIES PAC (IMPAC)|U|Q|||C|Mutual of Omaha Companies|41.27046787755102|-96.0905979591837|68175|Omaha|NE
C00094870|LEAGUE OF CONSERVATION VOTERS ENVIRONMENTAL VOTER INC|U|Q|||M|League of Conservation Voters|38.89531540217391|-77.01958254710144|20036|Washington|DC
C00094896|PENNSYLVANIA BANKERS ASSOCIATION PUBLIC AFFAIRS COMMITTEE (FEDERAL)|U|Q|||T|ABA BankPAC|40.28232126923077|-76.85854892307692|17108|Harrisburg|PA
C00094904|LOCAL 500 PAC|U|Q|||L|Teamsters Local Union 500|39.99641823809524|-75.13775460714287|19134|PHILADELPHIA|PA
C00095059|L A PAC|U|Q|NNE||M|NONE|33.94396584158416|-118.29928288118809|90048|Los Angeles|CA
C00095109|ALLIANZ OF AMERICA CORPORATION/FIREMAN'S FUND POLITICAL ACTION COMMITTEE|U|Q|||C|ALLIANZ OF AMERICA CORPORATION|38.028693833333335|-122.60435966666665|94901|SAN RAFAEL|CA
C00095117|GRAND TRUNK RAIL- ILLINOIS CENTRAL RAIL CO PAC (GTR-ICR PAC)|U|Q|||C|GRAND TRUNK WESTERN RAILROAD INC.|41.556734|-87.66464|60430|HOMEWOOD|IL
C00095869|POWERPAC OF THE EDISON ELECTRIC INSTITUTE|U|Q|||T|Edison Electric Institute|38.89531540217391|-77.01958254710144|20004|Washington|DC
C00096156|HONEYWELL INTERNATIONAL POLITICAL ACTION COMMITTEE|U|Q|||C|Honeywell International|38.89531540217391|-77.01958254710144|20001|Washington|DC
C00096362|MICHIGAN FARM BUREAU POLITICAL ACTION COMMITTEE|U|Q|||M|MICHIGAN FARM BUREAU|42.67509583333333|-84.52129325|48917|LANSING|MI
C00096412|COMMITTEE TO REELECT CONGRESSMAN CHRIS SMITH|P|H|REP|H8NJ04014|||40.240558|-74.69588|08619|Hamilton|NJ
C00096594|MICHIGAN MILK PRODUCERS ASSOCIATION POLITICAL ACTION COMMITTEE|U|Q|||V|MILK PRODUCERS ASS'N; MICHIGAN|42.47835725|-83.48105875|48375|NOVI|MI
C00096842|AMERICAN ELECTRIC POWER COMMITTEE FOR RESPONSIBLE GOVERNMENT, THE|U|Q|||C|American Electric Power|39.98950240816327|-82.9981626734694|43215|Columbus|OH
C00097196|OHIO RIGHT TO LIFE SOCIETY, INC. PAC|U|Q|||M|Ohio Right to Life Society, Inc.|39.98950240816327|-82.9981626734694|43229|Columbus|OH
C00097238|VIAD GOOD GOVERNMENT PROJECT|U|Q|||C|VIAD CORP|33.406690705128206|-112.12873824358972|85004|PHOENIX|AZ
C00097485|MERCK & CO., INC., EMPLOYEES POLITICAL ACTION COMMITTEE (MERCK PAC)|U|Q|||C|Merck & Co., Inc.|38.89531540217391|-77.01958254710144|20004|Washington|DC
C00097550|WASHINGTON DIVISION OF URS CORPORATION POLITICAL ACTION COMMITTEE|U|Q|||C|URS Corporation|38.87518503125|-77.09935687500001|22202|Arlington|VA
C00097568|RAYTHEON COMPANY POLITICAL ACTION COMMITTEE|U|Q|||C|Raytheon Company|38.87518503125|-77.09935687500001|22209|Arlington|VA
C00097725|AMERICAN INTERNATIONAL GROUP INC. EMPLOYEE POLITICAL ACTION COMMITTEE|U|Q|||C|AMERICAN INTERNATIONAL GROUP INC.|40.76633930120482|-73.97691936746988|10270|NEW YORK|NY
C00097758|QUESTAR CORPORATION EMPLOYEE POLITICAL ACTION COMMITTEE|U|Q|||C|Questar Corporation|40.70252124590164|-111.89052680327868|84145|Salt Lake City|UT
C00097865|NATSO INC. NATSO PAC|U|Q|||T|NATSO, Inc.|38.79919622727272|-77.09773936363636|22314|Alexandria|VA
C00098061|TARGETCITIZENS POLITICAL FORUM|U|Q|||C|Target Corporation|44.988124797101456|-93.35478904347828|55403|Minneapolis|MN
C00098301|NEW YORK BANKERS ASSOCIATION COMMUNITY POLITICAL ACTION COMMITTEE|U|Q|||T|New York Bankers Association|40.76633930120482|-73.97691936746988|10016|NEW YORK|NY
C00099002|SUNKIST GROWERS, INC., PAC|U|Q|||M|SUNKIST GROWERS, INC.|33.96983225|-118.373376|91413|SHERMAN OAKS|CA
C00099234|BROTHERHOOD OF LOCOMOTIVE ENGINEERS AND TRAINMEN PAC FUND|U|Q|||L|DRIVE|41.55917763829786|-81.65604136170215|44113|Cleveland|OH
C00099259|REPUBLICAN PARTY OF FLORIDA|U|Y|REP|||McCain Victory Florida|30.46455347058824|-84.30047100000002|32301|Tallahassee|FL
C00099267|TEXAS DEMOCRATIC PARTY|U|Y|DEM|||Texas Democratic Party|30.319931120481932|-97.75807027710842|78701|Austin|TX
C00099366|CONNECTICUT NATURAL GAS CORPORATION POLITICAL ACTION COMMITTEE|U|Q|||C|CONNECTICUT NATURAL GAS CORPORATION|41.77680425|-72.66721600000001|06108|EAST HARTFORD|CT
C00099465|4TH CONGRESSIONAL DISTRICT DEMOCRATIC COMMITTEE|U|Y|DEM|||10TH CONGRESSIONAL DIST DEM CMTE|43.383187500000005|-84.66461050000001|48801|ALMA|MI
C00099473|GRAY PLANT MOOTY MOOTY AND BENNETT PUBLIC AFFIAIRS COMMITTEE|U|Q|||W|GRAY, PLANT, MOOTY, MOOTY & BENNETT|44.975565|-93.27053|55402|MINNEAPOLIS|IN
C00099754|BAKEPAC - THE POLITICAL ACTION COMMITTEE OF THE INDEPENDENT BAKERS ASSOCIATION|U|Q|||T|BAKERS ASS'N; INDEPENDENT|38.89531540217391|-77.01958254710144|20007|WASHINGTON|DC
C00099937|COOPER INDUSTRIES POLITICAL ACTION COMMITTEE|U|Q|||C|Cooper Industries Political Action Com|29.799726263736265|-95.41993828571431|77210|Houston|TX
C00099945|WISCONSIN ENERGY POLITICAL ACTION COMMITTEE|U|Q|||C|WISCONSIN ENERGY CORPORATION|43.04538821276595|-87.90733217021277|53203|MILWAUKEE|WI
C00100107|AMERICAN BEVERAGE ASSOCIATION POLITICAL ACTION COMMITTEE  (AKA AMERICAN BEVERAGE PAC)|U|Q|NNE||T|American Beverage Association|38.89531540217391|-77.01958254710144|20036|Washington|DC
C00100131|GOODYEAR TIRE & RUBBER COMPANY GOOD GOVERNMENT FUND (GOODYEAR GOOD GOVERNMENT FUND) THE|U|Q|||C|The Goodyear Tire & Rubber Company|41.08549603125|-81.5288633125|44316|AKRON|OH
C00100289|GEORGIA MINING ASSOCIATION POLITICAL A|U|Q|||T|CHINA CLAY PRODUCERS ASSOCIATION INC|32.81715886956521|-83.67255700000001|31210|MACON|GA
C00100305|PETER PAN SEAFOODS POLITICAL ACTION COMMITTEE (1220 ASSOCIATES)|U|N|||C|PETER PAN SEAFOODS INC|47.53192905084746|-122.12633125423729|98121|SEATTLE|WA
C00100321|HARRIS CORPORATION POLITICAL ACTION COMMITTEE|U|Q|||C|Harris Corporation|28.1799379|-80.6596539|32919|MELBOURNE|FL
C00100404|NATIONAL ASSOCIATION OF POSTMASTERS OF THE UNITED STATES (NAPUS PAC)|U|Q|||T|National Association of Postmasters of|38.79919622727272|-77.09773936363636|22305|Alexandria|VA
C00100537|BILL THOMAS CAMPAIGN COMMITTEE|P|H|REP|H8CA18020|||35.31644239130434|-118.96400082608697|93302|BAKERSFIELD|CA
C00100644|RIVERSIDE REPUBLICAN CENTRAL COMMITTEE|U|Y|REP|||CALIFORNIA REPUBLICAN PARTY|33.84355464705882|-116.68860723529411|92506|Riverside|CA
C00100693|CHICAGO BOARD OF OPTIONS EXCHANGE INC PAC|U|Q|||W|OPTIONS EXCHANGE INC; CHICAGO BOARD OF|41.85168971764706|-87.67981902352942|60605|Chicago|IL
C00100974|AIR CONDITIONING CONTRACTORS OF AMERICA PAC|U|Q|||T|CONTRACTORS OF AMERICA; AIR CONDITNNG|38.87518503125|-77.09935687500001|22206|ARLINGTON|VA
C00101105|NATIONAL FEDERATION OF INDEPENDENT BUSINESS/ SAVE AMERICAS FREE ENTERPRISE TRUST|U|Q|||M|National Federation of Independent Bus|38.89531540217391|-77.01958254710144|20004|Washington|DC
C00101204|NATIONAL FISHERIES INSTITUTE (FISHPAC)|U|Q|||T|National Fisheries Institute Inc|38.9058505|-77.22686449999999|22102|McLean|VA
C00101212|RIGHT TO LIFE OF MICHIGAN POLITICAL ACTION COMMITTEE|U|Q|||C|Right to Life of Michigan|42.988566307692295|-85.5972746923077|49509|Grand Rapids|MI
C00101410|COMPUTER SCIENCES CORPORATION PAC|U|Q|||C|Computer Sciences Corporation|33.921313|-118.40843|90245|El Segundo|CA
C00101485|ECOLAB INC. POLITICAL ACTION COMMITTEE|U|Q|||C|Ecolab Inc.|44.935315|-93.12049|55102|St. Paul|MN
C00101592|PUGET SOUND ENERGY INC PAC FOR GOOD GOVERNMENT|U|Q|||C|PUGET SOUND ENERGY INC|47.5618325|-122.065971125|98009|BELLEVUE|WA
