CMTE_ID|CMTE_NAME|CMTE_DESIGN|CMTE_TYPE|CMTE_PTY_AFFILIATION|CAND_ID|CONNECTED_ORG_TYPE|CONNECTED_ORG_NAME|CMTE_LAT|CMTE_LONG|CMTE_ZIP|CMTE_CITY|CMTE_STATE
C00000018|IRONWORKERS LOCAL UNION NO. 25 POLITICAL EDUCATION COMMITTEE|U|Q|||L|IRON WORKERS; INT'L ASS'N OF BRIDGE...|42.30390803846153|-83.1278015|48235|DETROIT|MI
C00000026|INTERNATIONAL CHIROPRACTORS POLITICAL ACTION COMMITTEE|U|Q|UNK||T|CHIROPRACTORS ASSOCIATION; INT'L|38.89531540217391|-77.01958254710144|20036|WASHINGTON|DC
C00000042|ILLINOIS TOOL WORKS INC. POLITICAL ACTION COMMITTEE|U|Q|||C|ILLINOIS TOOL WORKS INC|41.85168971764706|-87.67981902352942|60631|CHICAGO|IL
C00000059|HALLMARK POLITICAL ACTION COMMITTEE-FEDERAL HALLPAC-FEDERAL|U|Q|UNK||C|HALLMARK CARDS INCORPORATED|38.89531540217391|-77.01958254710144|20004|WASHINGTON|DC
C00000117|AMERICANS FOR CONSTITUTIONAL ACTION (ACA)|U|Q|||M|NONE|38.89531540217391|-77.01958254710144|20024|WASHINGTON|DC
C00000125|ARCHER FOR CONGRESS COMMITTEE|P|H|DEM|H6TX07029|||29.799726263736265|-95.41993828571431|77019|HOUSTON|TX
C00000141|BURTON FOR CONGRESS CAMPAIGN COMMITTEE|P|H||H6CA06029|||37.77660142253521|-122.6107330704225|94104|SAN FRANCISCO|CA
C00000182|DEMOCRATIC CONGRESSIONAL DINNER COMMITTEE|J|Y|DEM|||DSCC, DCCC|38.89531540217391|-77.01958254710144|20001|WASHINGTON|DC
C00000273|KEEP RHODES IN CONGRESS COMMITTEE|U|Q|UNK||M||33.38321239999999|-111.85587515|85201|MESA|AZ
C00000323|WHITEHURST FOR CONGRESS|P|H||H6VA02040|||36.904774599999996|-76.25027552|23510|NORFOLK|VA
C00000349|BURGENER FOR CONGRESS COMMITTEE|P|H|REP|H6CA43030|||32.89411814814816|-116.99533772839506|92138|SAN DIEGO|CA
C00000364|DEVINE FOR CONGRESS COMMITTEE|P|H||H6OH12028|||39.98950240816327|-82.9981626734694|43215|COLUMBUS|OH
C00000372|MAINTENANCE OF WAY POLITICAL LEAGUE|U|Q|UNK||L|MAINTENANCE OF WAY EMPLOYEES|42.30390803846153|-83.1278015|48203|DETROIT|MI
C00000398|MORGAN COUNTY REPUBLICAN EXECUTIVE COMMITTEE|U|Y|REP|||REPUBLICAN STATE CENT & EXEC CMTE OHIO|39.675911|-81.79548|43756|MCCONNELSVILLE|OH
C00000422|AMERICAN MEDICAL ASSOCIATION POLITICAL ACTION COMMITTEE|U|Q|||T|MEDICAL ASS'N: AMERICAN        [AMPAC]|38.89531540217391|-77.01958254710144|20005|WASHINGTON|DC
C00000430|ANDREWS FOR CONGRESS COMMITTEE|P|H||H6ND00017|||46.91068671428572|-97.09320092857145|58102|FARGO|ND
C00000463|CITIZENS FOR SNYDER|P|H||H6KY04031|||38.20007860606061|-85.68525571212122|40207|LOUISVILLE|KY
C00000471|COMMITTEE TO RE-ELECT CONGRESSMAN LIONEL VAN DEERLIN|P|H||H6CA42040|||32.89411814814816|-116.99533772839506|92112|SAN DIEGO|CA
C00000489|DRIVE POLITICAL FUND, CHAPTER 886*|U|Q|||L|TEAMSTERS; INT'L BROTHERHOOD OF|35.505733112499996|-97.47160356250001|73107|OKLAHOMA CITY|OK
C00000505|GLENN ANDERSON CAMPAIGN COMMITTEE|P|H||H6CA32025|||33.810848|-118.35096|90505|TORRENCE|CA
C00000539|FRIENDS OF JIM COLLINS|P|H|REP|H6TX03010|||32.785762754098364|-96.78275256557379|75240|DALLAS|TX
C00000547|KANSAS MEDICAL POLITICAL ACTION COMMITTEE|U|Q|UNK||T|MEDICAL ASS'N; KANSAS          [AMPAC]|39.041098899999994|-95.74326307499999|66612|TOPEKA|KS
C00000554|LATTA FOR CONGRESS COMMITTEE|P|H||H6OH05022|||41.137873|-84.56377|45879|PAULDING|OH
C00000620|WYANDOT COUNTY REPUBLICAN COMMITTEE|U|X|REP||||40.82732|-83.29921|43351|UPPER SANDUSKY|OH
C00000638|INDIANA MEDICAL POLITICAL ACTION COMMITTEE|U|Q|||T|MEDICAL ASS'N; INDIANA         [AMPAC]|39.797402600000005|-86.1365729|46208|INDIANAPOLIS|IN
C00000729|AMERICAN DENTAL POLITICAL ACTION COMMITTEE|U|Q|UNK||T|DENTAL ASS'N; AMERICAN|38.89531540217391|-77.01958254710144|20036|WASHINGTON|DC
C00000745|YATES FOR CONGRESS COMMITTEE|P|H||H6IL09038|||41.85168971764706|-87.67981902352942|60657|CHICAGO|IL
C00000760|ROBINSON FOR CONGRESS COMMITTEE|P|H|UNK|H6VA07031|||39.2018532|-78.21303559999998|22601|WINCHESTER|VA
C00000794|LENT FOR CONGRESS COMMITTEE|P|H|UNK|H6NY04039|||40.603159|-73.65515|11558|ISLAND PARK|NY
C00000810|REPUBLICAN CONGRESSIONAL BOOSTERS CLUB|U|Q|REP||M||38.881762|-76.99447|20003|WASHINGTON,|DC
C00000828|FRIENDS OF ED JONES|P|H|DEM|H6TN07039|||36.135364|-89.111653|38389|YORKVILLE|TN
C00000851|MCCORMACK CONGRESSIONAL COMMITTEE|P|H||H6WA04034|||45.696394333333345|-122.58331853333333|98666|VANCOUVER|WA
C00000885|INTL BROTHERHOOD OF PAINTERS & ALLIED TRADES POLITICAL ACTION TOGETHER POLITICAL COMMITTEE|U|Q|UNK||L|PAINTERS & ALLIED TRADES; INT'L BRTH'D|38.89531540217391|-77.01958254710144|20006|WASHINGTON|DC
C00000901|BUILD POLITICAL ACTION COMMITTEE OF THE NATIONAL ASSOCIATION OF HOME BUILDERS|U|Q|UNK||T|HOME BUILDERS; NAT'L ASS'N OF|38.89531540217391|-77.01958254710144|20005|WASHINGTON|DC
C00000927|FOUNTAIN FOR CONGRESS COMMITTEE|P|H||H6NC02023|||35.9422315|-77.80384|27801|ROCKY MOUNT|NC
C00000935|DEMOCRATIC CONGRESSIONAL CAMPAIGN COMMITTEE INC|U|Y|DEM|||DNCC, DCDC, DH & SC|38.89531540217391|-77.01958254710144|20001|WASHINGTON|DC
C00000943|KNUDSEN EMPLOYEE'S POLITICAL ACTION FUND|U|Q|DEM||C|KNUDSEN CORPORATION|33.94396584158416|-118.29928288118809|90051|LOS ANGELES|CA
C00000950|UNITED CONGRESSIONAL APPEAL|U|Q|UNK||M|NONE|38.89531540217391|-77.01958254710144|20003|WASHINGTON|DC
C00000984|UNITED STATES INDEPENDENT TELEPHONE ASSOCIATION POLITICAL ACTION COMMITTEE (USITAPAC)|U|Q|UNK||T|TELEPHONE ASS'N; U S INDEPENDENT|38.89531540217391|-77.01958254710144|20006|WASHINGTON|DC
C00000992|BRANCH COUNTY REPUBLICAN COMMITTEE|U|X|REP||||41.776287|-84.8376|49255|MONTGOMERY|MI
C00001008|LOUISIANA MEDICAL POLITICAL ACTION COMMITTEE|U|Q|||T|MEDICAL ASS'N; LOUISIANA       [AMPAC]|29.992950545454548|-89.96252163636365|70113|NEW ORLEANS|LA
C00001016|CARPENTERS' LEGISLATIVE IMPROVEMENT COMMITTEE|U|Q|DEM||L|CARPENTERS & JOINERS OF AMER; UN BRTHD|38.89531540217391|-77.01958254710144|20001|WASHINGTON|DC
C00001081|SECOND DISTRICT CONGRESSIONAL COMMITTEE (AKA DICKINSON FOR CONGRESS CMTE.)|P|H|REP|H6AL02050|||32.293839742857145|-86.24048460000002|36103|MONTGOMERY|AL
C00001099|DRIVE 42|U|Q|UNK||L|TEAMSTERS; INT'L BROTHERHOOD OF|33.94396584158416|-118.29928288118809|90015|LOS ANGELES|CA
C00001107|MELVIN PRICE CAMPAIGN COMMITTEE|P|H||H6IL23021|||38.513570800000004|-89.99036819999999|62221|BELLEVILLE|IL
C00001115|FRIENDS OF HAM FISH, JR.|P|H||H6NY25042|||41.72302825|-73.8219295|12603|POUGHKEEPSIE|NY
C00001149|CMTE TO RE-ELECT CONG M. J. HARRINGTON|P|H||H6MA06038|||42.624015|-70.67552|01930|MAGNOLIA|MA
C00001156|MICH. SAVINGS & LOAN LEAGUE PUBLIC AFFAIRS COMMITTEE (SAPAC-MI)|U|Q|||T|MICH. SAVINGS & LOAN LEAGUE|42.67509583333333|-84.52129325|48933|LANSING|MI
C00001164|BROOMFIELD CAMPAIGN COMMITTEE|P|H||H6MI19020|||42.574254499999995|-83.253826|48012|BIRMINGHAM|MI
C00001180|MICHIGAN DOCTORS POLITICAL ACTION COMMITTEE|U|Q|REP||T|MEDICAL ASS'N; MICHIGAN        [AMPAC]|42.6991935|-84.4468445|48823|EAST LANSING|MI
C00001198|AMERICAN HOTEL MOTEL POLITICAL ACTION COM|U|Q|||T|HOTEL MOTEL ASS'N; AMERICAN|38.906778|-77.04148|20036|WASHINTON|DC
C00001214|TEXAS MEDICAL ASSOCIATION POLITICAL ACTION COMMITTEE-TEXPAC|U|Q|DEM||T|MEDICAL ASS'N; TEXAS           [AMPAC]|30.319931120481932|-97.75807027710842|78705|AUSTIN|TX
C00001222|WINN FOR CONGRESS COMMITTEE|P|H|REP|H6KS03043|||38.94522368571429|-94.7441756|66201|SHAWNEE MISSION|KS
C00001248|COUGHLIN FOR CONGRESS COMMITTEE|P|H||H6PA13020|||40.089595800000005|-75.51483600000002|19404|NORRISTOWN|PA
C00001289|UNION OIL POLITICAL AWARENESS FUND|U|Q|UNK||C|UNION OIL COMPANY OF CALIFORNIA|33.94396584158416|-118.29928288118809|90017|LOS ANGELES|CA
C00001297|WYLIE FOR CONGRESS COMMITTEE|P|H|REP|H6OH15039|||39.98950240816327|-82.9981626734694|43215|COLUMBUS|OH
C00001305|REPUBLICAN PARTY OF VIRGINIA|U|Y|REP||||37.53787187272727|-77.48557634545455|23219|RICHMOND|VA
C00001313|MINNESOTA INDEPENDENT-REPUBLICAN FINANCE COMMITTEE|U|Y|REP||||44.935315|-93.12049|55102|ST. PAUL|MN
C00001339|ATLANTA DRIVE|U|Q|||L|TEAMSTERS; INT'L BROTHERHOOD OF|33.828458666666684|-84.40236618918924|30315|ATLANTA|GA
C00001347|HAWAII MEDICAL POLITICAL ACTION COMMITTEE|U|Q|UNK||T|MEDICAL ASS'N; HAWAII          [AMPAC]|23.99200566666667|-165.5305597777778|96814|HONOLULU|HI
C00001354|INDEPENDENT MEDICINE'S POLITICAL ACTION COMMITTEE TENNESSEE|U|Q|UNK||T|MEDICAL ASS'N; TENNESSEE       [AMPAC]|36.1671290888889|-86.78986146666668|37202|NASHVILLE|TN
C00001388|MID-AMERICA DAIRYMEN INC AGRICULTURAL & DAIRY EDUCATIONAL POLITICAL TRUST ADEPT|U|Q|||V|DAIRYMEN INC; MID-AMERICAN|37.2539538125|-93.269457875|65805|SPRINGFIELD|MO
C00001396|7TH CONGRESSIONAL DISTRICT DEMOCRATIC PARTY OF WISCONSIN|U|Y|DEM|||DEMOCRATIC PARTY OF WISCONSIN|45.181311|-89.70469|54452|MERRILL|WI
C00001404|PEOPLE FOR BOLLING|P|H||H6MO05023|||39.095393654320986|-94.49784748148147|64106|KANSAS CITY|MO
C00001420|MISSOURI MEDICAL POLITICAL ACTION COMMITTEE|U|Q|UNK||T|MEDICAL ASS'N; MISSOURI        [AMPAC]|38.534770272727265|-92.23967436363635|65101|JEFFERSON CITY|MO
C00001446|NATIONAL HOME FURNISHINGS ASSOCIATION PAC|U|Q|UNK||T|HOME FURNISHINGS ASS'N; NAT'L|41.85168971764706|-87.67981902352942|60654|CHICAGO|IL
C00001461|ALASKA MEDICAL POLITICAL ACTION COMMITTEE|U|Q|||T|MEDICAL ASS'N; ALASKA          [AMPAC]|61.15772075|-149.747957125|99504|ANCHORAGE|AK
C00001503|YATRON FOR CONGRESS COMTE|P|H||H6PA06024|||40.35301676923076|-75.94564069230769|19602|READING|PA
C00001537|TEAMSTERS LOCAL 795 LEGISLATIVE & EDUCATION FUND|U|Q|||L|TEAMSTERS; INT'L BROTHERHOOD OF|37.682063225|-97.361390075|67210|WICHITA|KS
C00001552|RHODE ISLAND MEDICAL POLITICAL ACTION COMMITTEE (RIMPAC)|U|Q|NNE||T|MEDICAL ASS'N; RHODE ISLAND    [AMPAC]|41.82769961538462|-71.43406653846154|02903|PROVIDENCE|RI
C00001586|BUCHANAN FOR CONGRESS COMMITTEE|P|H||H6AL06028|||33.52148017567568|-86.87121170270271|35226|BIRMINGHAM|AL
C00001594|COMMITTEE FOR THOROUGH AGRICULTURAL POLITICAL EDUCATION OF ASSOCIATED MILK PRODUCERS, INC.|U|Q|UNK||V|MILK PRODUCERS INC; ASSOCIATED|29.463401422222216|-98.49665103333332|78284|SAN ANTONIO|TX
C00001636|TRANSPORTATION POLITICAL EDUCATION LEAGUE|U|Q|||L|TRANSPORTATION UNION; UNITED|41.55917763829786|-81.65604136170215|44107|CLEVELAND|OH
C00001644|STRATTON FOR CONGRESS CAMPAIGN COMMITTEE|P|H|DEM|H6NY28012|||42.81300672727272|-73.9679959090909|12301|SCHENECTADY|NY
C00001669|MAINE MEDICAL POLITICAL ACTION COMMITTEE|U|Q|UNK||T|MEDICAL ASS'N; MAINE           [AMPAC]|44.782568|-69.69212|04976|SKOWHEGAN|ME
C00001685|GEORGIA MEDICAL POLITICAL ACTION COMMITTEE|U|Q|UNK||T|MEDICAL ASS'N; GEORGIA         [AMPAC]|33.828458666666684|-84.40236618918924|30357|ATLANTA|GA
C00001693|THOMPSON'S PEOPLE|P|H||H6NJ04026|||40.276782|-74.72951|08648|LAWRENCEVILLE|NJ
C00001701|VIOLETTE FOR CONGRESS COMMITTEE|A|H|||||47.042226|-68.61588|04739|EAGLE LAKE|ME
C00001727|BUSINESS INDUSTRY POLITICAL ACTION COMMITTEE|U|Q|UNK||M|NONE|38.89531540217391|-77.01958254710144|20006|WASHINGTON|DC
C00001735|JACKSON COUNTY REPUBLICAN COMMITTEE|U|Y|REP|||JACKSON COUNTY REPUBLICAN FINANCE CMTE|42.2486965|-84.35545625|49204|JACKSON|MI
C00001743|LOCAL 1814 INTERNATIONAL LONGSHOREMENS ASSOC AFL-CIO POLITICAL ACTION AND EDUCATION FUND|U|Q|||L|LONGSHOREMEN'S ASSOCIATION; INT'L|40.65091198076924|-73.95300596153847|11231|BROOKLYN|NY
C00001768|QUILLEN FOR CONGRESS COMMITTEE|P|H||H6TN01040|||36.52616033333333|-82.48835266666667|37662|KINGSPORT|TN
C00001776|NEW MEXICO MEDICAL POLITICAL ACTION COMMITTEE (AKA NEMPAC)|U|Q|UNK||T|MEDICAL ASS'N; NEW MEXICO      [AMPAC]|35.07455360000001|-106.63356884444445|87125|ALBUQUERQUE|NM
C00001784|AMERICAN APPAREL MANUFACTURERS POLITICAL ACTION COMMITTEE|U|Q|REP||T|APPAREL MANUFACTURERS ASS'N; AMERICAN|38.87518503125|-77.09935687500001|22209|ARLINGTON|VA
C00001818|WASHINGTON MEDICAL POLITICAL ACTION COMMITTEE|U|Q|UNK||T|MEDICAL ASS'N; WASHINGTON      [AMPAC]|47.53192905084746|-122.12633125423729|98121|SEATTLE|WA
C00001826|CITIZENS COMMITTEE FOR BROCK ADAMS|A|H||H6WA07029|||47.53192905084746|-122.12633125423729|98101|SEATTLE|WA
C00001834|VIRGINIA MEDICAL POLITICAL ACTION COMMITTEE|U|Q|||T|MEDICAL ASS'N; VIRGINIA        [AMPAC]|37.53787187272727|-77.48557634545455|23221|RICHMOND|VA
C00001842|FORSYTHE FOR CONGRESS COMMITTEE|P|H||H6NJ06021|||39.625291|-74.77705|08037|HAMMONTON|NJ
C00001859|DRIVE MICHIGAN POLITICAL FUND|U|Q|||L|TEAMSTERS; INT'L BROTHERHOOD OF|42.30390803846153|-83.1278015|48216|DETROIT|MI
C00001875|U S LEAGUE SAVINGS ASSOCIATION POLITICAL ELECTIONS|U|Q|||T|SAVINGS ASS'N; UNITED STATES LEAGUE OF|38.89531540217391|-77.01958254710144|20006|WASHINGTON|DC
C00001909|COMMITTEE TO RE-ELECT CLARENCE D LONG|P|H||H6MD02039|||39.4026225|-76.60533000000001|21204|TOWSON|MD
C00001917|WYOMING STATE DEMOCRATIC CENTRAL COMMITTEE|U|Y|DEM||||42.87774939999999|-106.4548814|82601|CASPER|WY
C00001925|FRISCO EMPLOYEES' COMMITTEE FOR GOOD GOVERNMENT|U|Q|||C|ST LOUIS-SAN FRANCISCO RAILWAY CO|38.631551|-90.193|63101|ST. LOUIS|MO
C00001933|TIERNAN FOR CONGRESS|P|H||H6RI02102|||41.82769961538462|-71.43406653846154|02903|PROVIDENCE|RI
C00001966|FUND FOR A CONSERVATIVE MAJORITY; THE - (AKA YOUNG AMERICA CAMPAIGN)|U|Q|||M|BLANK|38.89531540217391|-77.01958254710144|20002|WASHINGTON|DC
C00002022|MEBA POLITICAL ACTION FUND|U|Q|UNK||L|MARINE ENGINEERS BENEFICIAL ASS'N|38.89531540217391|-77.01958254710144|20001|WASHINGTON|DC
C00002048|FRIENDS OF SPARKY|P|S||S6HI00016|||23.99200566666667|-165.5305597777778|96805|HONOLULU|HI
C00002063|COMMITTEE TO RE-ELECT CONGRESSMAN WILLIAM D. FORD|P|H||H6MI15036|||42.30390803846153|-83.1278015|48226|DETROIT|MI
C00002071|JIM BROYHILL CONGRESSIONAL CLUB|P|H||H6NC10018|||35.9361735|-81.5423035|28645|LENOIR|NC
C00002089|CWA-COPE POLITICAL CONTRIBUTIONS COMMITTEE|U|Q|||L|COMMUNICATIONS WORKERS OF AMERICA|38.89531540217391|-77.01958254710144|20006|WASHINGTON|DC
C00002097|NOLAN FOR CONGRESS VOLUNTEER COMMITTEE|P|H|DFL|H6MN06058|||43.653947|-96.2303|56156|LUVERNE|MN
C00002113|3RD DISTRICT DFL CONGRESSIONAL FUND|U|Y|DEM|||MINNEESOTA DOLLARS FOR DEMOCRATS|44.988124797101456|-93.35478904347828|55420|MINNEAPOLIS|MN
C00002147|NEBRASKA MEDICAL POLITICAL ACTION COMMITTEE|U|Q|||T|MEDICAL ASS'N; NEBRASKA        [AMPAC]|40.81781506666667|-96.69156293333332|68508|LINCOLN|NE
C00002154|SPENCE FOR CONGRESS COMMITTEE|P|H|REP|H6SC02043|||34.02276891428572|-80.98945448571428|29206|COLUMBIA|SC
C00002162|HUGHES AIRCRAFT COMPANY ACTIVE CITIZENSHIP FUND (AKA HUGHES ACTIVE CITIZENSHIP FUND)|U|Q|UNK||C|HUGHES AIRCRAFT COMPANY|33.921313|-118.40843|90245|EL SEGUNDO|CA
C00002204|REPUBLICAN COMMITTEE OF GUADALUPE COUNTY|U|X|REP||||29.588288499999997|-97.967019|78155|SEGUIN|TX
C00002238|NATIONAL COUNCIL OF FARMER COOPERATIVES POLITICAL ACTION COMMITEE (CO-OP/PAC)|U|Q|||T|FARMER COOPERATIVES; NATIONAL COUNCIL|38.89531540217391|-77.01958254710144|20036|WASHINGTON|DC
C00002253|THRIFTPAC - NATIONAL ASSOCIATION OF MUTUAL SAVINGS BANKS|U|Q|UNK||T|BANKS; NAT'L ASS'N OF MUTUAL SAVINGS|38.89531540217391|-77.01958254710144|20006|WASHINGTON|DC
C00002261|FEDERATION OF AMERICAN HOSPITALS POLITICAL ACTION COMMITTEE|U|Q|UNK||T|HOSPITALS; FED'N OF AMERICAN|38.89531540217391|-77.01958254710144|20005|WASHINGTON|DC
C00002303|RAILWAY LABOR EXECUTIVES' ASSOCIATION POLITICAL LEAGUE|U|Q|UNK||L|RAILWAY LABOR EXECUTIVES' ASS'N|38.89531540217391|-77.01958254710144|20001|WASHINGTON|DC
C00002311|KGS - PAC (FORMERLY-SEBELIUS FOR CONGRESS)|U|Q|||M|NONE|39.822766|-99.93288|67654|NORTON|KS
C00002345|COMMITTEE FOR CLARENCE J. BROWN(AKA BROWN FOR CONGRESS COMMITTEE|P|H||H6OH07028|||40.112531|-83.76633|43078|URBANA|OH
C00002394|UNITED PAPERWORKERS INTERNATIONAL UNION POLITICAL EDUCATION PROGRAM|U|Q|||L|PAPERWORKERS INT'L UNION; UNITED|36.1671290888889|-86.78986146666668|37202|NASHVILLE|TN
C00002402|UTAH DENTAL POLITICAL ACTION COMMITTEE|U|Q|||T|DENTAL ASSOCIATION; AMERICAN|40.70252124590164|-111.89052680327868|84121|SALT LAKE CITY|UT
C00002469|MACHINISTS NON-PARTISAN POLITICAL LEAGUE|U|Q|DEM||L|MACHINISTS & AEROSPACE WRKRS; INT'L...|38.89531540217391|-77.01958254710144|20036|WASHINGTON|DC
C00002485|KEEP SEIBERLING IN CONGRESS COMMITTEE|P|H||H6OH14016|||41.08549603125|-81.5288633125|44311|AKRON|OH
C00002501|MARYLAND MEDICAL POLITICAL ACTION COMMITTEE|U|Q|UNK||T|MEDICAL ASS'N; MARYLAND        [AMPAC]|39.30939096078431|-76.61851498039216|21201|BALTIMORE|MD
C00002527|CAREY FOR CONGRESS COMMITTEE|P|H|DEM|H6DE00073|||39.64413388888888|-75.58563588888889|19899|WILMINGTON|DE
C00002568|ERLENBORN FOR CONGRESS COMMITTEE|P|H|REP|H6IL14020|||41.77914633333333|-88.134947|60566|NAPERVILLE|IL
C00002576|ROSTENKOWSKI FOR CONGRESS COMMITTEE|P|H|DEM|H6IL08022|||41.85168971764706|-87.67981902352942|60622|CHICAGO|IL
C00002592|COMMITTEE TO RE-ELECT TOM FOLEY|P|H||H6WA05023|||47.66256624137931|-117.41345424137934|99201|SPOKANE|WA
C00002600|JOHN D. DINGELL FOR CONGRESS COMMITTEE|P|H|DEM|H6MI16034|||38.868151714285716|-77.18873671428572|22046|FALLS CHURCH|VA
C00002642|MORGAN MURPHY FOR CONGRESS COMMITTEE|P|H||H6IL02033|||41.7635055|-87.72095999999999|60453|OAK LAWN|IL
C00002659|FLYNT CAMPAIGN COMMITTEE|P|H||H6GA06025|||33.241819500000005|-84.263665|30223|GRIFFIN|GA
C00002667|CLOTHING WORKERS POLITICAL COMMITTEE FOR EASTERN PENNSYLVANIA JOINT BOARD, ACTWU|U|Q|||L|CLOTHING & TEXTILE WORKERS; AMAL.|40.61434644444445|-75.51798822222223|18103|ALLENTOWN|PA
C00002683|COMMITTEE FOR CONGRESSMAN JOSEPH P ADDABBO|P|H||H6NY07024|||40.6794175|-73.84753|11416|OZONE PARK|NY
C00002709|SATTERFIELD CAMPAIGN FUND|P|H|DEM|H6VA03030|||37.53787187272727|-77.48557634545455|23226|RICHMOND|VA
C00002741|A WHOLE LOT OF PEOPLE WHO THINK GUY VANDER JAGT IS DOING A GOOD JOB (VANDER JAGT CMP. FND)|P|H|REP|H6MI09047|||38.846212|-77.32787|22030|FAIRFAX,|VA
C00002766|ACTIVE BALLOT CLUB, A DEPT OF UNITED FOOD & COMMERCIAL WORKERS INT'L UNION|U|Q|UNK||L|FOOD & COMMERCIAL WRKRS INT'L UNION;UN|38.89531540217391|-77.01958254710144|20006|WASHINGTON|DC
C00002790|OLIN CORPORATION GOOD GOVERNMENT FUND|U|Q|UNK||C|OLIN CORPORATION|38.89531540217391|-77.01958254710144|20006|WASHINGTON|DC
C00002816|TIM LEE CARTER FOR CONGRESS COMMITTEE|P|H|REP|H6KY05012|||36.958551|-85.9350585|42141|GLASGOW|KY
C00002832|INT'L UNION UNITED AUTO AEROSPACE & AGRICULTURAL IMPLEMENT WRKRS OF AMR; CMTE FOR GOOD GVT|U|Q|||L|AUTO WORKERS; UNITED|42.30390803846153|-83.1278015|48214|DETROIT|MI
C00002840|UAW - V - CAP (UAW VOLUNTARY COMMUNITY ACTION PROGRAM)|U|Q|UNK||L|AUTO WORKERS; UNITED|42.30390803846153|-83.1278015|48214|DETROIT|MI
C00002857|HILLIS FOR CONGRESS (AKA COMMITTEE TO RE-ELECT CONG. HILLIS)|P|H|REP|H6IN05042|||40.472862250000006|-86.12648|46902|KOKOMO|IN
C00002865|SHRIVER FOR CONGRESS COMMITTEE ( A NON-PARTY CMTE)|U|Q|||M|NONE|38.367298|-97.67719|67460|MCPHERSON|KS
C00002873|R. L. MAZZOLI CAMPAIGN FUND|P|H||H6KY03025|||38.21632|-85.739|40217|LOUISVILLE,|KY
C00002881|TRUCK OPERATORS NON-PARTISAN COMMITTEE OF THE AMERICAN TRUCKING ASSOCIATIONS, INC.|U|Q|UNK||T|TRUCKING ASS'N INC; AMERICAN|38.89531540217391|-77.01958254710144|20003|WASHINGTON|DC
C00002899|RALPH H. METCALFE CAMPAIGN FUND|A|H||H6IL01043|||41.85168971764706|-87.67981902352942|60619|CHICAGO|IL
C00002907|ARKANSAS MEDICAL SOCIETY POLITICAL ACTION COMMITTEE|U|Q|UNK||T|MEDICAL ASS'N; ARKANSAS        [AMPAC]|35.263636230769244|-94.31083338461538|72902|FORT SMITH|AR
C00002931|NATIONAL REPUBLICAN CONGRESSIONAL COMMITTEE - CONTRIBUTIONS *|U|Y|REP|||NAT'L REP. CONG. CMTE. - EXPEND.|38.89531540217391|-77.01958254710144|20003|WASHINGTON|DC
C00002949|KENTUCKY CONSTRUCTION INDUSTRY POLITICAL ACTION COMMITTEE|U|Q|UNK||T|CONTRACTORS; ASSD GEN W KY CHAPTER|38.028650139999996|-84.48421994|40575|LEXINGTON|KY
C00002956|PSYCHOLOGISTS FOR LEGISLATIVE ACTION NOW (PLAN)|U|Q|||T|PSYCHOLOGY; ASS'N FOR THE ADVANCE. OF|38.89531540217391|-77.01958254710144|20036|WASHINGTON|DC
C00002972|ACTION COMMITTEE FOR RURAL ELECTRIFICATION (ACRE)|U|Q|||T|ELECTRIC COOP. ASS'N: NAT'L RURAL|38.89531540217391|-77.01958254710144|20036|WASHINGTON|DC
C00003020|CONNECTICUT MEDICAL POLITICAL ACTION COMMITTEE|U|Q|||T|MEDICAL ASS'N; CONNECTICUT     [AMPAC]|41.477935|-72.84289566666666|06450|MERIDEN|CT
C00003053|BAY STATE PHYSICIANS POLITICAL ACTION COMMITTEE|U|Q|||T|MEDICAL ASS'N; MASSACHUSETTS   [AMPAC]|42.497146|-70.86323|01945|MARBLEHEAD|MA
C00003061|NORTH DAKOTA COMMITTEE ON MEDICAL POLITICAL ACTION|U|Q|UNK||T|MEDICAL ASS'N; NORTH DAKOTA    [AMPAC]|46.877277285714285|-100.68709442857143|58502|BISMARCK|ND
C00003079|NATIONAL REPUBLICAN HERITAGE GROUPS (NATIONALITIES) COUNCIL|U|Y|REP|||REPUBLICAN NATIONAL COMMITTEE|38.89531540217391|-77.01958254710144|20003|WASHINGTON|DC
C00003087|VANDER JAGT CAMPAIGN COMMITTEE (FORMERLY COMMITTEE FOR GOOD GOVERNMENT)|A|H||H6MI09047|||38.83442477777778|-77.28774144444445|22030|FAIRFAX|VA
C00003111|MAINE REPUBLICAN STATE COMMITTEE|U|Y|REP||||44.38045340000001|-69.7674396|04330|AUGUSTA|ME
C00003145|OKLAHOMA REPUBLICAN STATE COMMITTEE|U|Y|REP||||35.505733112499996|-97.47160356250001|73103|OKLAHOMA CITY|OK
C00003152|NORTH CAROLINA MEDICAL SOCIETY POLITICAL EDUCATION ANDACTION COMMITTEE|U|Q|||T|MEDICAL ASS'N; NORTH CAROLINA  [AMPAC]|35.81289577777778|-78.63090008888891|27611|RALEIGH|NC
C00003160|POLITICAL EDUCATIONAL FUND OF THE BUILDING AND CONSTRUCTION TRADES  DEPARTMENT|U|Q|UNK||L|AFL-CIO|38.89531540217391|-77.01958254710144|20006|WASHINGTON|DC
C00003178|MINNESOTA MEDICAL POLITICAL ACTION COMMITTEE|U|Q|UNK||T|MEDICAL ASS'N; MINNESOTA       [AMPAC]|44.988124797101456|-93.35478904347828|55414|MINNEAPOLIS|MN
C00003194|CALIFORNIA MEDICAL POLITICAL ACTION COMMITTEE|U|Q|UNK||T|MEDICAL ASS'N; CALIFORNIA      [AMPAC]|37.77660142253521|-122.6107330704225|94103|SAN FRANCISCO|CA
C00003210|UTAH MEDICAL PAC|U|Q|||T|MEDICAL ASS'N; UTAH            [AMPAC]|40.70252124590164|-111.89052680327868|84102|SALT LAKE CITY|UT
C00003251|NATIONAL EDUCATION ASSOCIATION POLITICAL ACTION COMMITTEE|U|Q|UNK||L|EDUCATION ASS'N; NAT'L|38.89531540217391|-77.01958254710144|20036|WASHINGTON|DC
C00003293|MONTANA MEDICAL POLITICAL ACTION COMMITTEE|U|Q|UNK||T|MEDICAL ASS'N; MONTANA         [AMPAC]|46.765360875|-112.098012125|59601|HELENA|MT
C00003301|NEDZI FOR CONGRESS COMMITTEE|P|H||H6MI14021|||42.410037|-83.05826|48212|HAMTRAMCK|MI
C00003319|ASHLEY FOR CONGRESS COMMITTEE|P|H|UNK|H6OH09024|||41.6749844857143|-83.52541554285715|43615|TOLEDO|OH
C00003327|OHIO MEDICAL POLITICAL ACTION COMMITTEE (OMPAC)|U|Q|||T|MEDICAL ASS'N; OHIO            [AMPAC]|39.98950240816327|-82.9981626734694|43221|COLUMBUS|OH
C00003350|JONES FOR CONGRESS COMMITTEE|P|H||H6NC01025|||35.598204|-77.59066|27828|FARMVILLE|NC
C00003376|REPUBLICAN NATIONAL COMMITTEE - CONTRIBUTIONS (AKA REPUBLICAN NATIONAL FINANCE COMMITTEE|U|Y|REP|||REPUBLICAN NATIONAL CMTE-EXPENDITURES|38.89531540217391|-77.01958254710144|20003|WASHINGTON|DC
C00003418|REPUBLICAN NATIONAL COMMITTEE - EXPENDITURES (AKA REPUBLICAN NATIONAL COMMITTEE)|U|Y|REP|||REPUBLICAN NATIONAL CMTE-CONTRIBUTIONS|38.89531540217391|-77.01958254710144|20003|WASHINGTON|DC
C00003459|CALIFORNIA SAVINGS AND LOAN LEAGUE - FEDPAC|U|Q|||T|SAVINGS & LOAN LEAGUE; CALIFORNIA|33.94396584158416|-118.29928288118809|90045|LOS ANGELES|CA
C00003467|MYERS FOR CONGRESS COMMITTEE|P|H|REP|H6IN07030|||40.133867|-87.40081|47932|COVINGTON|IN
C00003475|SOUTH CAROLINA POLITICAL ACTION COMMITTEE (SOCPAC)|U|Q|||T|MEDICAL ASS'N; SOUTH CAROLINA  [AMPAC]|34.02276891428572|-80.98945448571428|29211|COLUMBIA|SC
C00003558|NATIONAL COMMITTEE FOR AN EFFECTIVE CONGRESS|U|Q|DEM||M|NONE|40.76633930120482|-73.97691936746988|10016|NEW YORK|NY
C00003566|JOHN PAUL HAMMERSCHMIDT RE-ELECTION COMMITTEE|P|H||H6AR03029|||36.2960985|-93.108002|72601|HARRISON|AR
C00003590|UNITED STEELWORKERS OF AMERICA POLITICAL ACTION FUND|U|Q|DEM||L|STEEL WORKERS OF AMERICA; UNITED|40.447036|-79.99313|15222|PITTSBURG|PA
C00003624|MANISTEE COUNTY REPUBLICAN COMMITTEE|U|X|REP||||44.234322|-86.27234|49660|MANISTEE|MI
C00003632|INTERNATIONAL UNION OF BRICKLAYERS AND ALLIED CRAFTSMEN POLITICAL ACTION COMMITTEE|U|Q|UNK||L|BRICKLAYERS & ALLIED CRAFTSMEN|38.89531540217391|-77.01958254710144|20005|WASHINGTON|DC
C00003665|"PETROLANE POLITICAL ACTION COMMITTEE (""PETPAC"")"|U|Q|||C|PETROLANE INC|33.79097913793104|-118.20857620689657|90801|LONG BEACH|CA
C00003673|CORMAN CAMPAIGN COMMITTEE|P|H||H6CA21010|||33.94396584158416|-118.29928288118809|90010|LOS ANGELES|CA
C00003681|COMMITTEE TO RE-ELECT CONGRESSMAN DON CLAUSEN|A|H|REP|H6CA02044|||38.44940955555556|-122.73874188888888|95402|SANTA ROSA|CA
C00003749|INDEPENDENT MINNESOTA POLITICAL ACTION CMTE FOR EDUCATION MINNESOTA EDUCATION ASSOCIATION|U|Q|||L|EDUCATION ASS'N; NAT'L|44.964115|-93.12261|55103|ST PAUL|MN
C00003756|NATIONAL FOOD PROCESSORS ASSOCIATION POLITICAL ACTION COMMITTEE (NFPAC)|U|Q|UNK||T|CANNERS ASS'N; NAT'L|38.89531540217391|-77.01958254710144|20036|WASHINGTON|DC
C00003764|NATIONAL RESTAURANT ASSOCIATION POLITICAL ACTION COMMITTEE|U|Q|UNK||T|RESTAURANT ASS'N; NAT'L|38.89531540217391|-77.01958254710144|20001|WASHINGTON|DC
C00003772|DAIRYMEN INC-SPECIAL POLITICAL AGRICULTURAL COMMUNITY EDUCATION (DI-SPACE)|U|Q|UNK||V|DAIRYMEN INC|38.20007860606061|-85.68525571212122|40223|LOUISVILLE|KY
C00003780|PACIFIC GAS AND ELECTRIC COMPANY EMPLOYEES GOOD GOVERNMENT FUND|U|Q|DEM||C|PACIFIC GAS & ELECTRIC COMPANY|37.77660142253521|-122.6107330704225|94106|SAN FRANCISCO|CA
C00003806|AFL-CIO COPE POLITICAL CONTRIBUTIONS COMMITTEE|U|Q|UNK||L|AFL-CIO|38.89531540217391|-77.01958254710144|20006|WASHINGTON|DC
C00003814|ANNUNZIO FOR PEOPLE COMMITTEE|P|H|DEM|H6IL11026|||41.85168971764706|-87.67981902352942|60603|CHICAGO|IL
C00003822|OCEANA REPUBLICAN COUNTY COMMITTEE|U|Y|REP|||MICHIGAN REPUBLICAN STATE COMMITTEE|43.708002|-86.30604|49420|HART|MI
C00003830|CHEMICAL BANK FUND FOR GOOD GOVERNMENT|U|Q|||C|CHEMICAL BANK|40.76633930120482|-73.97691936746988|10017|NEW YORK|NY
C00003855|NATIONAL CONFECTIONERS ASSOCIATION OF THE UNITED STATES INC POLITICAL ACTION COMMITTEE|U|Q|||T|CONFECTIONERS ASS'N OF U S INC; NAT'L|38.9058505|-77.22686449999999|22102|MCLEAN|VA
C00003863|MEBA RETIREES' GROUP FUND|U|Q|UNK||L|MARINE ENGINEERS BENEFICIAL ASS'N|38.89531540217391|-77.01958254710144|20001|WASHINGTON|DC
C00003897|6TH CONGRESSIONAL DISTRICT DEMOCRATIC COMMITTEE OF VIRGINIA|U|X|DEM||||37.28093354545455|-79.96207174999999|24033|ROANOKE|VA
C00003921|DISTRICT OF COLUMBIA POLITICAL ACTION COMMITTEE|U|Q|UNK||T|MEDICAL ASS'N; WASHINGTON DC   [AMPAC]|38.89531540217391|-77.01958254710144|20037|WASHINGTON|DC
C00003970|IOWA MEDICAL POLITICAL ACTION COMMITTEE|U|Q|||T|MEDICAL ASS'N; IOWA            [AMPAC]|41.582213333333335|-93.76801733333333|50265|WEST DES MOINES|IA
C00003988|NEBRASKA STATE DEMOCRATIC PARTY|U|Y|DEM||||40.81781506666667|-96.69156293333332|68508|LINCOLN|NE
C00003996|NORTON REPUBLICAN COMMITTEE|U|X|REP||||36.942047|-82.63138|24273|NORTON|VA
C00004010|SAVINGS ASSOCIATIONS' LEAGUE POLITICAL ACTION COMMITTEE OHIO|U|Q|UNK||T|SAVINGS ASS'N; UNITED STATES LEAGUE OF|39.98950240816327|-82.9981626734694|43215|COLUMBUS|OH
C00004028|RAILSBACK FOR CONGRESS COMMITTEE|P|H||H6IL19037|||41.5174374|-90.586047|61201|ROCK ISLAND|IL
C00004036|SERVICE EMPLOYEES INT'L UNION COMMITTEE ON POLITICAL EDUCATION POLITICAL CAMPAIGN COMM|U|Q|||L|SERVICE EMPLOYEES INT'L UNION|38.89531540217391|-77.01958254710144|20006|WASHINGTON|DC
C00004077|LEAGUE OF CONSERVATION VOTERS CAMPAIGN FUND|U|Q|||T|CONSERVATION VOTERS: LEAGUE OF|38.89531540217391|-77.01958254710144|20003|WASHINGTON|DC
C00004093|RE-ELECT LIZ HOLTZMAN COMMITTEE (AKA HOLTZMAN FOR CONGRESS COMMITTEE)|P|H|UNK|H6NY16025|||40.65091198076924|-73.95300596153847|11210|BROOKLYN|NY
C00004101|NATIONAL UTILITY CONTRACTORS ASSN LEGISLATIVE INFORMATION & ACTION COMMITTEE|U|Q|UNK||T|CONTRACTORS ASS'N; NAT'L UTILITY|38.87518503125|-77.09935687500001|22202|ARLINGTON|VA
C00004176|MILLER FOR CONGRESS COMMITTEE|P|H|UNK|H6OH10030|||39.712887|-82.61216|43130|LANCASTER|OH
C00004192|COLORADO MEDICAL POLITICAL ACTION COMMITTEE|U|Q|UNK||T|MEDICAL ASS'N; COLORADO        [AMPAC]|39.74108270666667|-104.83527397333336|80218|DENVER|CO
C00004200|CITIZENS FOR MINISH|P|H||H6NJ11021|||40.8196|-74.15877|07110|NUTLEY|NJ
C00004242|COMMITTEE TO RE-ELECT CONGRESSMAN CHARLES B. RANGEL|P|H||H6NY19029|||38.89531540217391|-77.01958254710144|20009|WASHINGTON|DC
C00004259|DAVIS FOR CONGRESS COMMITTEE|P|H||H6SC01037|||32.857942421052634|-79.92915105263158|29411|CHARLESTON|SC
C00004275|AMERICAN BANKERS ASSOCIATION BANKPAC|U|Q|DEM||T|BANKERS ASS'N: AMERICAN|38.89531540217391|-77.01958254710144|20036|WASHINGTON|DC
C00004283|COPE COMMITTEE OF THE UNITED RUBBER CORK LINOLEUM AND PLASTIC WORKERS OF AMERICA AFL-CIO|U|Q|||L|RUBBER CORK LINOLEUM & PLASTIC WORKERS|41.08549603125|-81.5288633125|44308|AKRON|OH
C00004325|SEAFARERS POLITICAL ACTIVITY DONATION (SPAD)|U|Q|||L|SEAFARERS INT'L UNION OF NORTH AMERICA|38.839663|-76.91478|20746|CAMP SPRINGS|MD
C00004366|NMU POLITICAL & LEGISLATIVE ORGANIZATION ON WATCH|U|Q|||L|MARITIME UNION OF AMERICA|40.76633930120482|-73.97691936746988|10011|NEW YORK|NY
C00004374|FRIENDS FOR FROEHLICH|P|H||H6WI08056|||44.32410633333333|-88.42420766666667|54911|APPLETON|WI
C00004440|LOCAL 745 DRIVE|U|Q|||L|TEAMSTERS; INT'L BROTHERHOOD OF|32.785762754098364|-96.78275256557379|75217|DALLAS|TX
C00004473|TELEPHONE EDUCATION COMMITTEE ORGANIZATION|U|Q|||T|TELEPHONE COOPERATIVE ASS'N; NAT'L|38.89531540217391|-77.01958254710144|20037|WASHINGTON|DC
C00004481|JOHNSON FOR CONGRESS CAMPAIGN|P|H||H6CA01046|||38.75107966666666|-121.29290666666668|95678|ROSEVILLE|CA
C00004499|ARIZONA MEDICAL ASSOCIATION, INC POLITICAL ACTION COMMITTEE|U|Q|UNK||T|MEDICAL ASS'N; ARIZONA         [AMPAC]|33.406690705128206|-112.12873824358972|85013|PHOENIX|AZ
C00004515|"HOTEL EMPLOYES & RESTAURANT EMPLOYES INT'L UNION T I P - ""TO INSURE PROGRESS"""|U|Q|||L|HOTEL RESTAURANT EMP'S & BARTNDR'S|38.89531540217391|-77.01958254710144|20006|WASHINGTON|DC
C00004523|PARREN J. MITCHELL CAMPAIGN FOR CONGRESS COMMITTEE|P|H|DEM|H6MD07038|||39.30939096078431|-76.61851498039216|21202|BALTIMORE|MD
C00004606|KANSAS REPUBLICAN STATE COMMITTEE|U|Y|REP||||39.041098899999994|-95.74326307499999|66607|TOPEKA|KS
C00004754|FAYETTE COUNTY REPUBLICAN EXECUTIVE COMMITTEE|U|Y|REP|||OHIO REPUBLICAN FINANCE COMMITTEE|39.533002|-83.43905|43160|WASHINGTON, C.H.|OH
C00004804|MISSISSIPPI MEDICAL POLITICAL ACTION COMMITTEE|U|Q|UNK||T|MEDICAL ASS'N; MISSISSIPPI     [AMPAC]|32.30845729411766|-90.2704443235294|39216|JACKSON|MS
C00004812|MORTGAGE BANKERS ASSOCIATION OF AMERICA POLITICAL ACTION COMMITTEE|U|Q|UNK||T|BANKERS ASS'N OF AMER; MORTGAGE|38.89531540217391|-77.01958254710144|20005|WASHINGTON|DC
C00004838|CIT FOR ROSALIE ABRAMS FOR CONGRESS|P|H||H6MD02013|||39.30939096078431|-76.61851498039216|21207|BALTIMORE|MD
C00004846|ACTIVE BALLOT CLUB, LOCAL NO. 692|U|Q|UNK||L|FOOD & COMMERCIAL WRKRS INT'L UNION;UN|39.30939096078431|-76.61851498039216|21201|BALTIMORE|MD
C00004861|INTERNATIONAL LADIES GARMENT WORKERS UNION CAMPAIGN COMMMITTEE|U|Q|||L|LADIES GARMENT WORKERS' UNION; INT'L|40.76633930120482|-73.97691936746988|10019|NEW YORK|NY
C00004879|BUSPAC-POLITICAL ACTION COMMITTEE OF THE AMERICAN BUS ASSOCIATION|U|Q|UNK||T|BUS ASS'N; AMERICAN|38.89531540217391|-77.01958254710144|20036|WASHINGTON|DC
C00004911|ALABAMA MEDICAL PAC|U|Q|UNK||T|MEDICAL ASS'N; ALABAMA         [AMPAC]|32.293839742857145|-86.24048460000002|36106|MONTGOMERY|AL
C00004929|PENNSYLVANIA MEDICAL ACTION COMMITTEE|U|Q|UNK||T|MEDICAL ASS'N; PENNSYLVANIA    [AMPAC]|40.247189|-76.89807|17043|LEMOYNE|PA
C00004952|MISSISSIPPI ACRE COMMITTEE|U|Q|UNK||T|ELECTRIC COOP. ASS'N; NAT'L RURAL|32.30845729411766|-90.2704443235294|39204|JACKSON|MS
C00004960|BURLINGTON NORTHERN EMPLOYEES VOLUNTARY GOOD GOVERNMENT FUND|U|Q|UNK||C|BURLINGTON NORTHERN INC|47.53192905084746|-122.12633125423729|98101|SEATTLE|WA
C00004978|GENERAL TELEPHONE OF CALIFORNIA EMPLOYEES GOOD GOVERNMENT CLUB|U|Q|UNK||C|GENERAL TELEPHONE & ELECTRONICS CORP|33.904162916666664|-118.39307408333332|90406|SANTA MONICA|CA
C00004994|PROFESSIONAL INSURANCE AGENTS POLITICAL ACTION COMMITTEE|U|Q|NNE||T|INSURANCE AGENTS; NAT'L ASS'N MUTUAL|38.79919622727272|-77.09773936363636|22314|ALEXANDRIA|VA
C00005025|OKLAHOMA DENTAL POLITICAL ACTION COMMITTEE|U|Q|||T|DENTAL ASS'N; AMERICAN|35.2150415|-97.41515816666667|73069|NORMAN|OK
C00005033|GENE TAYLOR FOR CONGRESS|P|H||H6MO07045|||37.168985|-94.31164|64836|CARTHAGE|MO
C00005041|REGULA FOR CONGRESS COMMITTEE|P|H||H6OH16029|||40.80362133333333|-81.47393799999999|44646|MASSILLON|OH
C00005066|INTERNATIONAL BROTHERHOOD OF FIREMEN AND OILERS POLITICAL LEAGUE|U|Q|UNK||L|FIREMEN & OILERS; INT'L BROTH'D OF|38.89531540217391|-77.01958254710144|20002|WASHINGTON|DC
C00005132|SOUTH DAKOTA POLITICAL ACTION COMMITTEE|U|Q|UNK||T|MEDICAL ASS'N; SOUTH DAKOTA    [AMPAC]|43.560826|-96.7324|57104|SOUIX FALLS|SD
C00005140|CITIZENS COMMITTEE HELSTOSKI FOR CONGRESS|P|H|DEM|H6NJ09025|||40.830158|-74.09707|07073|EAST RUTHERFORD|NJ
C00005157|LEGISLATIVE EDUCATION ACTION PROGRAM CAMPAIGN ASSISTANCE FUND|U|Q|||L|BOILERMAKERS-BLAKSMITHS; INT'L BRTHD|39.104101066666665|-94.69970146666667|66101|KANSAS CITY|KS
C00005173|STATE DEMOCRATIC EXECUTIVE COMMITTEE OF ALABAMA|U|Y|DEM||||33.52148017567568|-86.87121170270271|35203|BIRMINGHAM|AL
C00005215|18TH DEMOCRATIC CONGRESSIONAL DISTRICT COMMITTEE *|U|Y|DEM|||NONE|42.59487825|-83.298435|48013|BLOOMFIELD HILLS|MI
C00005223|RETURN GEORGE BROWN TO CONGRESS COMMITTEE|P|H||H6CA36026|||33.84355464705882|-116.68860723529411|92506|RIVERSIDE|CA
C00005249|NATIONAL ASSOCIATION OF LIFE UNDERWRITERS POLITICAL ACTION COMMITTEE|U|Q|UNK||T|UNDERWRITERS; NAT'L ASS'N OF LIFE|38.89531540217391|-77.01958254710144|20006|WASHINGTON|DC
C00005306|OHIO STATE COUNCIL OF CARPENTERS POLITICAL ACTION COMMITTEE|U|Q|UNK||L|CARPENTERS & JOINERS OF AMER; UN BRTHD|41.160758|-80.693|44420|GIRARD|OH
C00005413|WISCONSIN STATE AFL-CIO COMMITTEE ON POLITICAL EDUCATION|U|Q|||L|AFL-CIO|43.04538821276595|-87.90733217021277|53213|MILWAUKEE|WI
C00005439|IOWA STATE EDUCATION ASSOCIATION POLITICAL ACTION COMMITTEE|U|Q|||L|EDUCATION ASS'N; NAT'L|41.65428011864408|-93.58401089830507|50312|DES MOINES|IA
C00005462|10TH DISTRICT REPUBLICAN CONGRESSIONAL COMMITTEE|U|Q|REP||M||38.938664|-77.22196|22102|MC LEAN|VA
C00005488|ILLINOIS STATE MEDICAL SOCIETY POLITICAL ACTION CMTE|U|Q|UNK||T|MEDICAL ASS'N; ILLINOIS        [AMPAC]|41.85168971764706|-87.67981902352942|60603|CHICAGO|IL
C00005496|ACTWU POLITICAL ACTION COMMITTEE (AKA AMALGAMATED POLITICAL & EDUC CMTE OF PHILADELPHIA|U|Q|||L|CLOTHING & TEXTILE WORKERS; AMAL.|39.99641823809524|-75.13775460714287|19146|PHILADELPHIA|PA
C00005561|DEMOCRATIC EXECUTIVE COMMITTEE OF FLORIDA|U|Y|DEM||||30.46455347058824|-84.30047100000002|32302|TALLAHASSEE|FL
C00005637|MCKAY FOR CONGRESS|P|H||H6UT01038|||40.70252124590164|-111.89052680327868|84133|SALT LAKE CITY|UT
C00005645|DRIVE LOCAL NO. 47|U|Q|UNK||L|TEAMSTERS; INT'L BROTHERHOOD OF|32.75317824561404|-97.33153931578948|76115|FORT WORTH|TX
C00005660|ORAL AND MAXILLOFACIAL SURGERY POLITICAL ACTION COMMITTEE (OMSPAC)|U|Q|UNK||T|ORAL & MAXILLOFACIAL SURGEONS; A A OF|41.85168971764706|-87.67981902352942|60611|CHICAGO|IL
C00005694|CITIZENS FOR JACK BROWN FOR CONGRESS|P|H|||||33.406690705128206|-112.12873824358972|85001|PHOENIX|AZ
C00005710|RETAIL STORE EMPLOYEES UNION LOCAL 1262 ACTIVE BALLOT CLUB|U|Q|||L|FOOD & COMMERCIAL WRKRS INT'L UNION;UN|40.8883594|-74.1826066|07013|CLIFTON|NJ
C00005728|AMALGAMATED CLOTHING AND TEXTILE WORKERS UNION - POLITICAL ACTION COMMITTEE (ACTWU-PAC)|U|Q|||L|CLOTHING & TEXTILE WORKERS; AMAL.|40.76633930120482|-73.97691936746988|10003|NEW YORK|NY
C00005736|TEAMSTERS JOIN COUNCIL NO 13 POLITICAL ACTION COMMITTEE|U|Q|UNK||L|TEAMSTERS; INT'L BROTHERHOOD OF|38.622601|-90.26182|63110|ST LOUIS|MO
C00005751|CALIFORNIA DENTAL POLITICAL ACTION COMMITTEE|U|Q|UNK||T|DENTAL ASSOCIATION; AMERICAN|38.430597276190475|-121.44452857142855|95814|SACRAMENTO|CA
C00005785|WYOMING REPUBLICAN STATE COMMITTEE|U|Y|REP||||42.87774939999999|-106.4548814|82602|CASPER|WY
C00005801|6TH DISTRICT REPUBLICAN COMMITTEE|U|Y|REP|||REPUBLICAN PARTY OF VIRGINIA|37.28093354545455|-79.96207174999999|24012|ROANOKE|VA
C00005819|UNITED REPUBLICAN FUND OF ILLINOIS|U|X|REP|||ILLINOIS REPUBLICAN STATE CENT CMTE|41.85168971764706|-87.67981902352942|60602|CHICAGO|IL
C00005835|LABOR'S INVESTMENT IN VOTER EDUCATION|U|Q|||L|CHEMICAL WORKERS UNION; INT'L|41.08549603125|-81.5288633125|44313|AKRON|OH
C00005884|BECKER COUNTY REPUBLICAN COMMITTEE|U|Y|REP|||MINNESOTA INDEPENDENT REP FINANCE CMTE|46.871962999999994|-95.76508749999999|56501|DETROIT LAKES|MN
C00005926|ILLINOIS REPUBLICAN STATE CENTRAL COMMITTEE|U|Y|REP||||39.76269087179486|-89.61055228205129|62704|SPRINGFIELD|IL
C00005934|SAGINAW COUNTY REPUBLICAN COMMITTEE *|U|X|REP||||43.42090159999999|-83.9961826|48607|SAGINAW|MI
C00005975|FIRST CONGRESSIONAL DISTRICT REPUBLICAN COMMITTEE *|A|H|REP|H6MD01023|||38.768194|-76.129183|21601|EASTON|MD
C00006049|OTTAWA COUNTY REPUBLICAN COMMITTEE|U|Y|REP||||42.85824866666667|-86.225817|49423|HOLLAND|MI
C00006080|AMERICAN HEALTH CARE ASSOCIATION POLITICAL ACTION COMM (AHCA-PAC)|U|Q|UNK||T|HEALTH CARE ASS'N; AMERICAN|38.89531540217391|-77.01958254710144|20005|WASHINGTON|DC
C00006148|MARSHALL COUNTY DEMOCRATIC CENTRAL COMMITTEE|U|X|DEM||||42.010415|-93.16827|50247|STATE CENTER|IA
C00006247|IUE COMMITTEE ON POLITICAL EDUCATION|U|Q|||L|ELECTRICAL RADIO & MACHINE WRKRS; INTL|38.89531540217391|-77.01958254710144|20036|WASHINGTON|DC
C00006262|PAUL W. CRONIN CONGRESSIONAL COMMITTEE (AKA COMM. TO ELECT PAUL W.  CRONIN TO CONGRESS)|A|H|REP|H6MA05022|||42.60979183333333|-71.33871383333334|01853|LOWELL|MA
C00006296|EMPIRE DENTAL POLITICAL ACTION COMMITTEE|U|Q|UNK||T|DENTAL ASSOCIATION; AMERICAN|43.091714|-77.43483|14450|FAIRPORT|NY
C00006320|MOORHEAD FOR CONGRESS COMMITTEE|P|H||H6CA22026|||33.99960307142856|-118.27321657142855|91203|GLENDALE|CA
C00006338|RESPONSIBLE CITIZENS POLITICAL LEAGUE-A PROJECT OF THE BROTH'D OF RAILWAY & AIRLINE CLERKS|U|Q|REP||L|RAILWAY AIRLINE & STEAMSHIP CLERKS|39.110530125000004|-77.16780975|20850|ROCKVILLE|MD
C00006411|TRENT LOTT FOR CONGRESS CAMPAIGN FUND|P|H||H6MS05041|||30.414468666666664|-89.07423233333333|39501|GULFPORT|MS
C00006486|INDIANA REPUBLICAN STATE CENTRAL COMMITTEE|U|Y|REP||||39.797402600000005|-86.1365729|46204|INDIANAPOLIS|IN
C00006544|CITIZENS FOR BRADEMAS COMMITTEE|P|H||H6IN03039|||38.89531540217391|-77.01958254710144|20013|WASHINGTON|DC
C00006601|INTERNATIONAL BROTHERHOOD OF TEAMSTERS MINNESOTA DRIVE|U|Q|UNK||L|TEAMSTERS; INT'L BROTHERHOOD OF|44.988124797101456|-93.35478904347828|55414|MINNEAPOLIS|MN
C00006627|DRIVE TEXAS|U|Q|||L|TEAMSTERS; INT'L BROTHERHOOD OF|32.785762754098364|-96.78275256557379|75217|DALLAS|TX
C00006759|LOCAL UNION DRIVE NO. 25|U|Q|REP||L|TEAMSTERS; INT'L BROTHERHOOD OF|42.34437557407409|-71.0031983888889|02129|BOSTON|MA
C00006783|JOHNSON COUNTY REPUBLICAN CENTRAL COMMITTEE|U|X|REP||||40.319497999999996|-86.327691|46131|FRANKLIN|IN
C00006890|MARAZITI FOR CONGRESS|P|H||H6NJ13027|||40.912798|-74.41516|07005|BOONTON|NJ
C00007047|FIRST NATIONWIDE SAVINGS FEDERAL SAVINGS AND LOAN ASSOCIATION POLITICAL ACTION COMMITTEE|U|Q|||C|NATIONAL STEEL CORPORATION|37.77660142253521|-122.6107330704225|94102|SAN FRANCISCO|CA
C00007070|CONSTRUCTIVE CITIZENSHIP PROGRAM OF TEXAS INSTRUMENTS|U|Q|||C|TEXAS INSTRUMENTS INCORPORATED|32.8892876|-96.7328704|75080|RICHARDSON|TX
C00007088|FRIENDS OF FLOYD FITHIAN (AKA FITHIAN FOR CONGRESS COMMITTEE)|P|H||H6IN02023|||40.38577133333334|-86.865686|47902|LAFAYETTE|IN
C00007104|BALTIMORE REGIONAL JOINT BOARD AMALGAMATED CLOTHING & TEXTILE WORKERS UNION POL. ED. CMTE.|U|Q|||L|CLOTHING & TEXTILE WORKERS; AMAL.|39.30939096078431|-76.61851498039216|21217|BALTIMORE|MD
C00007161|CHAPTER 557, DEMOCRATIC REPUBLICAN INDEPENDENT VOTER EDUCATION|U|Q|||L|TEAMSTERS; INT'L BROTHERHOOD OF|39.30939096078431|-76.61851498039216|21205|BALTIMORE|MD
C00007179|KOWALSKI FOR CONGRESS COMMITTEE|A|H||H6MA06046|||42.59837766666667|-70.88375666666667|01970|SALEM|MA
C00007203|LUJAN BOOSTER CLUB|P|H||H6NM01020|||35.07455360000001|-106.63356884444445|87103|ALBUQUERQUE|NM
C00007294|MICHIGAN STATE AFL-CIO COPE VOLUNTARY FUND|U|Q|UNK||L|AFL-CIO|42.67509583333333|-84.52129325|48933|LANSING|MI
C00007328|CARPENTERS COMMITTEE ON POLITICAL ACTION|U|Q|||L|CARPENTERS & JOINERS OF AMER; UN BRTHD|33.94396584158416|-118.29928288118809|90020|LOS ANGELES|CA
C00007419|MACHINISTS BEAN FEED COMMITTEE|U|Q|UNK||L|MACHINISTS & AEROSPACE WRKRS; INT'L...|44.982515|-93.17489|55108|ST PAUL|MN
C00007427|SEAFIRST ASSOCIATES-NATIONAL|U|Q|UNK||C|SEATTLE FIRST NATIONAL BANK|47.53192905084746|-122.12633125423729|98124|SEATTLE|WA
C00007450|GAS EMPLOYEES POLITICAL ACTION COMMITTEE|U|Q|||T|GAS ASS'N; AMERICAN|38.87518503125|-77.09935687500001|22209|ARLINGTON|VA
C00007484|FLORIDA MEDICAL POLITICAL ACTION COMMITTEE|U|Q|UNK||T|MEDICAL ASS'N; FLORIDA         [AMPAC]|30.30522279245282|-81.65284611320754|32203|JACKSONVILLE|FL
C00007492|STEELE COUNTY REPUBLICAN COMMITTEE|U|Y|REP||||44.07393|-93.22716|55060|OWATONNA|MN
C00007542|SHEET METAL WORKERS INTERNATIONAL ASSOCIATION POLITICAL ACTION LEAGUE (PAL)|U|Q|||L|SHEET METAL WORKERS' INT'L UNION|38.89531540217391|-77.01958254710144|20006|WASHINGTON|DC
C00007617|HAWKINS FOR CONGRESS COMMITEE|P|H||H6CA29039|||38.89531540217391|-77.01958254710144|20003|WASHINGTON|DC
C00007658|DEMOCRATIC PARTY OF SOUTH CAROLINA|U|Y|DEM||||34.02276891428572|-80.98945448571428|29201|COLUMBIA|SC
C00007682|CITIZENS FOR GILMAN FOR CONGRESS|P|H||H6NY26016|||41.43840466666666|-74.38421633333333|10940|MIDDLETOWN|NY
C00007757|DISTRICT NO. 70 M.N.P.L.|U|Q|||L|MACHINISTS & AEROSPACE WRKRS; INT'L...|37.682063225|-97.361390075|67217|WICHITA|KS
C00007773|RUPPERT FOR CONGRESS IN '72|A|H||H6OH08026|||39.550241|-84.3087|45005|FRANKLIN|OH
C00007781|MONTEREY COUNTY REPUBLICAN CENTRAL COMMITTEE|U|X|REP||||36.561719875|-121.45315925000001|93901|SALINAS|CA
C00007815|DRIVE TEAMSTERS LOCAL THREE FORTY|U|Q|||L|TEAMSTERS; INT'L BROTHERHOOD OF|44.0198135|-70.3717115|04106|SOUTH PORTLAND|ME
C00007831|SEABOARD SYSTEM RAILROAD POLITICAL ACTION COMMITTEE-FEDERAL|U|Q|||C|CSX CORPORATION|30.30522279245282|-81.65284611320754|32202|JACKSONVILLE|FL
C00007849|SPEAK UP FOR RURAL ELECTRIFICATION (SURE)|U|Q|||M|NONE|38.20007860606061|-85.68525571212122|40232|LOUISVILLE|KY
C00007880|CREDIT UNION LEGISLATIVE ACTION COUNCIL OF CREDIT UNION NATIONAL ASSOCIATION|U|Q|||T|CREDIT UNION NATIONAL ASS'N|38.89531540217391|-77.01958254710144|20036|WASHINGTON|DC
C00007898|VOICE OF THE ELECTORATE|U|Q|UNK||L|EMPLOYEES INT'L UNION; OFFICE & PROF.|38.89531540217391|-77.01958254710144|20006|WASHINGTON|DC
C00007922|LABORERS' POLITICAL LEAGUE|U|Q|UNK||L|LABORERS' INT'L UNION OF NORTH AMERICA|38.89531540217391|-77.01958254710144|20006|WASHINGTON|DC
C00007948|WEYERHAEUSER COMPANY POLITICAL ACTION COMMITTEE|U|Q|||C|WEYERHAEUSER COMPANY|47.34084625|-122.14770974999999|98003|FEDERAL WAY|WA
C00008045|RETAIL FOOD CLERKS LOCAL 1500, ACTIVE BALLOT CLUB|U|Q|||L|FOOD & COMMERCIAL WRKRS INT'L UNION;UN|40.719016333333336|-73.74270666666666|11428|QUEENS VILLAGE|NY
C00008078|OHIO DRIVE|U|Q|||L|TEAMSTERS; INT'L BROTHERHOOD OF|41.55917763829786|-81.65604136170215|44115|CLEVELAND|OH
C00008086|MONTANA REPUBLICAN STATE CENTRAL COMMITTEE|U|Y|REP|||RNC|46.765360875|-112.098012125|59601|HELENA|MT
C00008102|KEEP KASTENMEIER IN CONGRESS|P|H||H6WI02034|||43.07264378947367|-89.4054060526316|53701|MADISON|WI
C00008110|DEMOCRATIC PARTY OF THE SECOND CONGRESSIONAL DISTRICT OFWISCONSIN|U|Y|DEM|||DEMOCRATIC PARTY OF WISCONSIN|43.456814|-88.84058|53916|BEAVER DAM,|WI
C00008144|O'BRIEN FOR CONGRESS|P|H||H6IL17049|||41.524499166666665|-88.10208133333333|60434|JOLIET|IL
C00008151|FIRST TENNESSEE NATIONAL CORPORATION FEDERAL PAC (FIRST TENNESSEE BANKS FEDERAL PAC)|U|Q|||C|FIRST TENNESSEE NATIONAL CORPORATION|35.16473077142859|-89.95803939999998|38101|MEMPHIS|TN
C00008169|MISSOURI A.C.R.E. COMMITTEE|U|Q|||T|ELECTRIC COOP. ASS'N; NAT'L RURAL|38.534770272727265|-92.23967436363635|65101|JEFFERSON CITY|MO
C00008193|ASSOCIATION FOR BETTER CITIZENSHIP|U|Q|UNK||L|EDUCATION ASS'N; NAT'L|37.44574133333333|-122.34432333333332|94010|BURLINGAME|CA
C00008201|FRIENDS OF CONGRESSMAN JOHN CONYERS|A|H|UNK|H6MI01028|||38.89531540217391|-77.01958254710144|20013|WASHINGTON|DC
C00008227|REPUBLICAN STATE COMMITTEE OF ARIZONA|U|Y|REP||||33.406690705128206|-112.12873824358972|85012|PHOENIX|AZ
C00008235|SCHROEDER FOR CONGRESS COMMITTEE, INC|P|H||H6CO01034|||39.74108270666667|-104.83527397333336|80205|DENVER|CO
C00008268|TRANSPORT WORKERS UNION POLITICAL CONTRIBUTIONS COMMITTEE|U|Q|||L|TRANSPORT WORKERS UNION OF AMERICA|40.76633930120482|-73.97691936746988|10023|NEW YORK|NY
C00008326|MAINE DEMOCRATIC STATE COMMITTEE|U|Y|DEM||||44.38045340000001|-69.7674396|04330|AUGUSTA|ME
C00008334|KENTUCKY DENTAL POLITICAL ACTION COMMITTEE|U|Q|||T|DENTAL ASSOCIATION; AMERICAN|38.20007860606061|-85.68525571212122|40222|LOUISVILLE|KY
C00008359|JACKSON COUNTY REPUBLICAN FINANCE COMMITTEE|U|Y|REP||||42.2486965|-84.35545625|49203|JACKSON|MI
C00008391|OREGON AFL-CIO COPE - PCC|U|Q|||L|AFL-CIO|44.95135007692308|-122.93249292307691|97302|SALEM|OR
C00008409|LOCAL 302 VOLUNTARY POLITICAL FUND|U|Q|UNK||L|ENGINEERS; INT'L UNION OF OPERATING|47.53192905084746|-122.12633125423729|98121|SEATTLE|WA
C00008425|WEYERHAEUSER COMPANY SPECIAL SHAREHOLDERS POLITICAL ACTION COMMITTEE|U|Q|||C|WEYERHAEUSER COMPANY|44.964852|-93.08397|55101|ST. PAUL|MN
C00008441|LITTLETON COMMITTEE FOR POLITICAL EDUCATION|U|Q|||C|C A NORGREN COMPANY|39.594638562499995|-104.87497675|80160|LITTLETON|CO
C00008474|SBHU BETTER GOVERNMENT COMMITTEE|U|Q|||C|SMITH, BARNEY, HARRIS, UPHAM & CO|40.76633930120482|-73.97691936746988|10019|NEW YORK|NY
C00008490|CENTRAL LABOR COUNCIL OF SANTA CLARA COUNTY|U|Q|||L|AFL-CIO|37.24389375806454|-121.78056964516126|95125|SAN JOSE|CA
C00008565|1ST DISTRICT DEMOCRATIC/LIAISON COMMITTEE|A|Y||H6IA01031|||40.814207|-91.11911|52601|BURLINGTON|IA
C00008607|SAVINGS ASSOCIATION POLITICAL ACTION COMMITTEE|U|Q|||T|SAVINGS ASS'N LEAGUE; NEW YORK|40.945198|-74.18286|07508|HALEDON,|NJ
C00008664|MISSOURI REPUBLICAN STATE COMMITTEE-FEDERAL COMMITTEE|U|Y|REP||||38.534770272727265|-92.23967436363635|65101|JEFFERSON CITY|MO
C00008748|PACIFIC LIGHTING CORPORATION POLITICAL ASSISTANCE COMMITTEE|U|Q|DEM||C|PACIFIC LIGHTING CORPORATION|33.94396584158416|-118.29928288118809|90017|LOS ANGELES|CA
C00008755|6TH CONGRESSIONAL DISTRICT REPUBLICAN PARTY OF WISCONSIN|U|Y|REP|||REPUBLICAN PARTY OF WISCONSIN|43.907282|-89.49412|53964|WESTFIELD|WI
C00008789|LONG ISLAND TRUST COMPANY GOOD GOVERNMENT FUND|U|N|||C|LONG ISLAND TRUST CO|40.719420400000004|-73.63771339999998|11530|GARDEN CITY|NY
C00008821|HOWARD FOR CONGRESS COMMITTEE|P|H||H6NJ03028|||40.411102|-74.23767|07747|MATAWAN|NJ
C00008839|PODIATRY POLITICAL ACTION COMMITTEE|U|Q|||T|PODIATRY ASS'N; AMERICAN|38.89531540217391|-77.01958254710144|20015|WASHINGTON|DC
C00008896|"OPEIU, LOCAL 153 ""VOTE"" (VOICE OF THE ELECTORATE) COMM."|U|Q|||L|EMPLOYEES INT'L UNION; OFFICE & PROF.|40.76633930120482|-73.97691936746988|10011|NEW YORK|NY
C00008953|LTV CORPORATION ACTIVE CITIZENSHIP CAMPAIGN|U|Q|||C|LTV CORPORATION|32.785762754098364|-96.78275256557379|75265|DALLAS|TX
C00009035|KEMPER CAMPAIGN FUND|U|Q|UNK||C|KEMPER INSURANCE COMPANIES|42.198674|-88.041875|60049|LONG GROVE|IL
C00009050|INDIANA TELEPHONE INDUSTRY GOOD GOVERNMENT CLUB|U|Q|UNK||T|TELEPHONE ASSOCIATION; INDIANA|39.797402600000005|-86.1365729|46204|INDIANAPOLIS|IN
C00009118|CANHEPAC (COLORADO ASSOCIATED NURSING HOMES EDUCATION AND POLITICAL ACTION COMMITTEE)|U|Q|||T|HEALTH CARE ASS'N; COLORADO|39.74108270666667|-104.83527397333336|80218|DENVER|CO
C00009209|RUSH COUNTY REPUBLICAN CENTRAL COMMITTEE|U|X|REP||||39.614803|-85.43834|46173|RUSHVILLE|IN
C00009282|NORFOLK SOUTHERN CORPORATION GOOD GOVERNMENT FUND|U|Q|UNK||C|NORFOLK SOUTHERN CORPORATION|38.89531540217391|-77.01958254710144|20005|WASHINGTON|DC
C00009290|NORFOLK SOUTHERN CORPORATION TAX ELIGIBLE GOOD GOVERNMENT FUND|U|Q|UNK||C|NORFOLK SOUTHERN CORPORATION|38.89531540217391|-77.01958254710144|20005|WASHINGTON|DC
C00009308|MCATEE FOR CONGRESS COMMITTEE|P|H|||||39.041098899999994|-95.74326307499999|66603|TOPEKA|KS
C00009316|DEL MONTE CORPORATION VOLUNTARY NONPARTISAN GOOD GOVERNMENT FUND|U|Q|UNK||C|R J REYNOLDS INDUSTRIES INC|37.77660142253521|-122.6107330704225|94119|SAN FRANCISCO|CA
C00009324|SACRAMENTO REPUBLICAN WOMEN'S CLUB, FEDERATED|U|Y|REP||||38.430597276190475|-121.44452857142855|95816|SACRAMENTO|CA
C00009340|EMMET COUNTY REPUBLICAN CENTRAL COMMITTEE|U|X|REP||||43.401328|-94.81524|51334|ESTHERVILLE|IA
C00009357|RECORDING ARTS POLITICAL ACTION COMMITTEE|U|Q|||T|RECORDING INDUSTRY ASS'N OF AMERICA|38.89531540217391|-77.01958254710144|20036|WASHINGTON|DC
C00009381|MENSWEAR RETAILERS OF AMERICA PUBLIC AFFAIRS COMMITTEE-MPAC|U|Q|UNK||T|RETAILERS OF AMERICA; MENSWEAR|39.490774|-74.87045|08350|LAMEBRTVILLE|NJ
C00009423|LAND O'LAKE INC POLITICAL ACTION COMMITTEE|U|Q|||V|LAND O'LAKES INC|44.988124797101456|-93.35478904347828|55440|MINNEAPOLIS|MN
C00009449|IDAHO MEDICAL POLITICAL ACTION COMMITTEE|U|Q|||T|MEDICAL ASS'N; IDAHO           [AMPAC]|43.51203700000001|-116.23286|83701|BOISE|ID
C00009456|3RD CONGRESSIONAL DISTRICT DEMOCRATIC PARTY OF WISCONSIN|U|Y|DEM|||DEMOCRATIC PARTY OF WISCONSIN|44.854636|-92.61729|54022|RIVER FALLS|WI
C00009464|DEMOCRATIC PARTY OF EAU CLAIRE COUNTY|U|Y|DEM|||DEMOCRATIC PARTY OF WISCONSIN|44.77888766666667|-91.42393033333333|54701|EAU CLAIRE|WI
C00009530|MANVILLE CORPORATION POLITICAL ACTION COMMITTEE|U|Q|||C|JOHNS-MANVILLE CORPORATION|38.89531540217391|-77.01958254710144|20036|WASHINGTON|DC
C00009571|CONGRESSMAN HORTON COMMITTEE|P|H|REP|H6NY34028|||43.156963|-77.60375|14604|R0CHESTER|NY
C00009597|NATIONAL COUNCIL OF COAL PAC|U|Q|||T|COAL LESSORS INC; NAT'L COUNCIL OF|33.4206345|-82.08491662499999|30909|AUGUSTA|GA
C00009639|TRUST COMPANY OF GEORGIA GOOD GOVERNMENT GROUP|U|Q|DEM||C|TRUST COMPANY OF GEORGIA|33.828458666666684|-84.40236618918924|30302|ATLANTA|GA
C00009647|COLUMBIA COUNTY DEMOCRATIC PARTY|U|Y|DEM|||DEMOCRATIC PARTY OF WISCONSIN|43.549851|-89.47101|53901|PORTAGE|WI
C00009704|CONSERVATIVE VICTORY FUND|U|Q|CRV||M|NONE|38.89531540217391|-77.01958254710144|20013|WASHINGTON|DC
C00009746|BILL STANTON FOR CONGRESS COMMITTEE|P|H||H6OH11020|||41.716094|-81.2396|44077|PAINESVILLE|OH
C00009761|TOBACCO INSTITUTE POLITICAL ACTION COMM|U|Q|DEM||T|TOBACCO INSTITUTE INC|38.89531540217391|-77.01958254710144|20006|WASHINGTON|DC
C00009795|FEDERAL COMMERCE & INDUSTRY PAC OF THE GREATER WASHINGTON BOARD OD TRADE|U|Q|||M|BOARD OF TRADE; GREATER WASHINGTON|38.89531540217391|-77.01958254710144|20036|WASHINGTON|DC
C00009845|MONTGOMERY COUNTY DEMOCRATIC CENTRAL COMMITTEE|U|Y|DEM|||SAME|39.085619|-77.1425335|20895|KENSINGTON|MD
C00009852|COMMITTEE TO RE-ELECT CONGRESSMAN PETE MCCLOSKEY|P|H|REP|H6CA12043|||37.336603399999994|-122.0546887|94301|PALO ALTO|CA
C00009878|ORANGE COUNTY REPUBLICAN COMMITTEE *|U|X|REP||||38.231526|-78.07923|22960|ORANGE|VA
C00009886|WALSH CONGRESSIONAL CAMPAIGN COMMITTEE|P|H|REP|H6NY33046|||43.045532892857146|-76.16642753571429|13215|SYRACUSE|NY
C00009902|SAFEPAC -- SANTA FE INDUSTRIES, INC. PUBLIC AFFAIRS COUNCIL|U|Q|UNK||C|SANTA FE INDUSTRIES|41.85168971764706|-87.67981902352942|60604|CHICAGO|IL
C00009910|SOUTHERN PACIFIC COMPANY POLITICAL ACTION COMMITTEE|U|Q|UNK||C|SOUTHERN PACIFIC TRANSPORTATION CO|37.77660142253521|-122.6107330704225|94105|SAN FRANCISCO|CA
C00009928|SMITHKLINE CORPORATION POLITICAL ACTION COMMITTEE (SK-PAC)|U|Q|UNK||C|SMITHKLINE CORPORATION|39.99641823809524|-75.13775460714287|19101|PHILADELPHIA|PA
C00009936|AMERICAN FEDERATION OF GOVERNMENT EMPLOYEES' POLITICAL ACTION COMMITTEE|U|Q|UNK||L|EMPLOYEES; AMER. FED'N OF GOV'T|38.89531540217391|-77.01958254710144|20005|WASHINGTON|DC
C00009944|ROSENTHAL CAMPAIGN COMMITTEE|P|H|DEM|H6NY08022|||40.773613|-73.66568849999999|11021|GREAT NECK|NY
C00009985|NATIONAL ASSOCIATION OF BROADCASTER'S TELEVISION AND RADIO POLITICAL ACTION COMMITTEE|U|Q|UNK||T|BROADCASTERS; NAT'L ASS'N OF|38.89531540217391|-77.01958254710144|20036|WASHINGTON|DC
C00010033|MONTANA STATE DEMOCRATIC CENTRAL COMMITTEE|U|Y|DEM||||46.765360875|-112.098012125|59624|HELENA|MT
C00010082|NATIONAL CABLE TELEVISION ASSOCIATION'S POLITICAL ACTION COMMITTEE (CABLE PAC)|U|Q|||T|TELEVISION ASSOCIATION; NAT'L CABLE|38.89531540217391|-77.01958254710144|20036|WASHINGTON|DC
C00010124|ASSOCIATED EQUIPMENT DISTRIBUTORS POLITICAL ACTION COMMITTEE|U|Q|UNK||T|EQUIPMENT DISTRIBUTORS; ASS'D|38.89531540217391|-77.01958254710144|20005|WASHINGTON|DC
C00010132|SOUTHWEST BETTER GOVERNMENT COMMITTEE|U|Q|||C|SOUTHWEST FOREST INDUSTRIES INC|33.406690705128206|-112.12873824358972|85012|PHOENIX|AZ
C00010165|CITIZENS FOR BURLISON COMMITTEE|P|H||H6MO10015|||37.197279|-89.739429|62744|DELTA|MO
C00010199|RICE PRODUCERS POLITICAL EDUCATION COMMITTEE|U|Q|DEM||V|RICE GROWERS COOPERATIVE ASS'N; AMER|30.243225636363636|-93.27001472727271|70605|LAKE CHARLES|LA
C00010223|TEAMSTERS JOINT COUNCIL #10 DRIVE|U|Q|||L|TEAMSTERS; INT'L BROTHERHOOD OF|42.34437557407409|-71.0031983888889|02215|BOSTON|MA
C00010272|TEAMSTERS 452 DRIVE COMMITTEE|U|Q|||L|TEAMSTERS; INT'L BROTHERHOOD OF|39.74108270666667|-104.83527397333336|80211|DENVER|CO
C00010322|POLITICAL FUND COMMITTEE OF THE AMERICAN POSTAL WORKERS UNION,      AFL-CIO|U|Q|||L|POSTAL WORKERS UNION; AMERICAN|38.89531540217391|-77.01958254710144|20005|WASHINGTON|DC
C00010363|COMMITTEE FOR RESPONSIBLE YOUTH POLITICS|U|Q|||M|BLANK|38.87518503125|-77.09935687500001|22207|ARLINGTON|VA
C00010371|HAWAIIAN TELEPHONE COMPANY EMPLOYEES GOOD GOVERNMENT CLUB|U|Q|||C|GENERAL TELEPHONE & ELECTRONICS CORP|23.99200566666667|-165.5305597777778|96841|HONOLULU|HI
C00010389|CITIZENS COMMITTEE FOR A. B. WON PAT|P|H||H6GU00026|||||96910|AGANA|GU
C00010413|MITCHELL FOR CONGRESS CAMPAIGN COMMITTEE|P|H||H6NY31024|||43.137624|-74.947|13406|MIDDLEVILLE|NY
C00010421|ASSOCIATED BUILDERS AND CONTRACTORS POLITICAL ACTION COMMITTEE (ABC/PAC)|U|Q|UNK||T|BUILDERS & CONTRACTORS; ASSOCIATED|38.89531540217391|-77.01958254710144|20005|WASHINGTON|DC
C00010439|IDAHO DEMOCRATIC PARTY FEDERAL ACCOUNT|U|Y|DEM|||DNC|43.51203700000001|-116.23286|83701|BOISE|ID
C00010470|UNION PACIFIC FUND FOR EFFECTIVE GOVERNMENT|U|Q|UNK||C|UNION PACIFIC CORPORATION|38.89531540217391|-77.01958254710144|20006|WASHINGTON|DC
C00010488|WOMEN FOR:|U|Q|||M|NONE|33.9577728|-118.3576128|90211|BEVERLY HILLS|CA
C00010504|HAT, CAP AND MILLINERY WORKERS COMMITTEE ON POLITICAL EDUCATION|U|N|||L|HATTERS CAPPERS & MILLINERY WORKERS|40.76633930120482|-73.97691936746988|10010|NEW YORK|NY
C00010512|FEDERAL CAMPAIGN FUND/MONROE COUNTY REPUBLICAN COMMITTEE|U|X|REP||||43.21979855319149|-77.64726129787233|14603|ROCHESTER|NY
C00010520|MEREDITH CORPORATION EMPLOYEES FUND FOR BETTER GOVERNMENT|U|Q|DEM||C|MEREDITH CORPORATION|41.65428011864408|-93.58401089830507|50336|DES MOINES|IA
C00010546|RENVILLE COUNTY REPUBLICAN COMMITTEE|U|Y|REP||||44.761856|-94.8845|55310|BIRD ISLAND|MN
C00010553|COMMITTEE TO RE-ELECT JACK BROOKS|P|H||H6TX09025|||38.89531540217391|-77.01958254710144|20000|WASHINGTON|DC
C00010561|KANSAS ACTION COMMITTEE FOR RURAL ELECTRIFICATION|U|Q|||T|ELECTRIC COOP. ASS'N; NAT'L RURAL|38.410549|-96.19736|66801|EMPORIA|KS
C00010595|LINN CHAPTER OF THE DEMOCRATIC WOMENS ACTIVITIES OF IOWA|U|X|DEM||||42.057094428571425|-91.64422478571427|52402|CEDAR RAPIDS|IA
C00010603|DNC SERVICES CORPORATION/DEMOCRATIC NATIONAL COMMITTEE|U|Y|DEM|||DEM NAT'L CMTE TRAVEL ESCROW ACCOUNT|38.89531540217391|-77.01958254710144|20036|WASHINGTON|DC
C00010710|RURAL ELECTRIC ACTION PROGRAM|U|Q|DEM||T|ELECTRIC COOP. ASS'N; NAT'L RURAL|35.81289577777778|-78.63090008888891|27602|RALEIGH|NC
C00010777|CONGRESSIONAL VICTORY COMMITTEE|U|Q|||M|NONE|40.84928938461538|-73.87575261538461|10462|BRONX|NY
C00010793|LOOSE GROUP; THE|U|N|||M|NONE|33.891251|-84.07456|30362|DORAVILLE|GA
C00010868|AMERICAN CONSULTING ENGINEERS PAC|U|Q|UNK||T|ENGINEERS COUNCIL; AMERICAN CONSULTING|38.89531540217391|-77.01958254710144|20005|WASHINGTON|DC
C00010876|TEAMSTERS LOCAL #115 POLITICAL ACTION FUND (AKA DRIVE-LOCAL NO. 115)|U|Q|||L|TEAMSTERS; INT'L BROTHERHOOD OF|39.99641823809524|-75.13775460714287|19149|PHILADELPHIA|PA
C00010967|"CONSOLIDATED GAS SUPPLY CORPORATION CONCERNED EMPLOYEES POLITICAL TEAM ""CONCEPT"""|U|Q|||M|NONE|39.276421|-80.34580133333334|26301|CLARKSBURG|WV
C00010983|JOHNSON & JOHNSON EMPLOYEES' GOOD GOVERNMENT FUND|U|Q|||C|JOHNSON AND JOHNSON|40.45158033333333|-74.43071766666667|08903|NEW BRUNSWICK|NJ
C00010991|COLORADO EDUCATION ASSOCIATION POLITICAL ACTION COMMITTEE FOR EDUCATION|U|Q|||L|EDUCATION ASSOCIATION; COLORADO|39.684534285714285|-104.62691800000002|80110|ENGLEWOOD|CO
C00011031|MACHINIST NON PARTISAN POLITICAL LEAGUE DISTRICT 727 CHAPTER|U|Q|||L|MACHINISTS & AEROSPACE WRKRS; INT'L...|33.93807199999999|-118.30750738461536|91505|BURBANK|CA
C00011106|MACHINERY DEALERS PAC|U|Q|||T|MACHINERY DEALERS NATIONAL ASSOCIATION|39.0985292|-77.11824240000001|20910|SILVER SPRING|MD
C00011114|AMERICAN FEDERATION OF STATE COUNTY & MUNICIPAL EMPLOYEES - P.E.O.P.L.E., QUALIFIED|U|Q|UNK||L|EMPLOYEES; AMER. FED. OF STATE, COUNTY|38.89531540217391|-77.01958254710144|20036|WASHINGTON|DC
C00011122|DISTRICT 65 POLITICAL ACTION FUND|U|Q|||L|DISTRIBUTIVE WORKERS OF AMERICA|40.76633930120482|-73.97691936746988|10003|NEW YORK|NY
C00011130|MID-AMERICA COMMITTEE FOR SOUND GOVERNMENT|U|N|||M|NONE|39.066732|-94.68872|66106|LAKE QUIVIRA|KS
C00011189|GPPAW-POLITICAL EDUCATION LEAGUE|U|Q|||L|GLASS POTTERY PLASTIC...; INT'L UNION|39.92372866666667|-75.398211|19063|MEDIA|PA
C00011197|KENTUCKY STATE DEMOCRATIC CENTRAL EXECUTIVE COMMITTEE|U|Y|DEM||||38.23052366666666|-84.87420244444445|40602|FRANKFORT|KY
C00011221|SAPEC, N.J.|U|Q|||M|BLANK|40.656302|-74.30371|07016|CRANFORD|NJ
C00011239|ROCHESTER JOINT BOARD POLITICAL EDUCATION COMMITTEE|U|Q|||L|CLOTHING & TEXTILE WORKERS; AMAL.|43.21979855319149|-77.64726129787233|14607|ROCHESTER|NY
C00011262|BROTHERHOOD OF RAILROAD SIGNALMEN POLITICAL ACTION COMMITTEE|U|Q|UNK||L|RAILROAD SIGNALMEN; BROTHERHOOD OF|42.065427|-87.93621|60056|MT. PROSPECT|IL
C00011270|REPUBLICAN TOWN COMMITTEE NEW CANAAN CONN|U|Y|REP||||41.148621|-73.493573|06840|NEW CANAAN|CT
C00011312|TENNESSEE ASSOCIATED BUILDERS AND CONTRACTORS POLITICAL ACTION COMMITTEE|U|Q|||T|CARL ESTES|36.1671290888889|-86.78986146666668|37204|NASHVILLE|TN
C00011338|SAILORS POLITICAL FUND|U|Q|||L|SEAFARERS INT'L UNION OF NORTH AMERICA|37.77660142253521|-122.6107330704225|94105|SAN FRANCISCO|CA
C00011346|TEXASGULF POLITICAL ACTION COMMITTEE (TGPAC)|U|Q|UNK||C|TEXASGULF INC|41.18111821052631|-73.45532831578949|06904|STAMFORD|CT
C00011361|WEST VIRGINIA AFL-CIO VOLUNTARY FUND|U|Q|UNK||L|AFL-CIO|38.321258106382984|-81.57999429787233|25301|CHARLESTON|WV
C00011387|COLORADO ADVOCATES FOR RURAL ELECTRIFICATION|U|Q|UNK||T|ELECTRIC COOP. ASS'N; NAT'L RURAL|39.74108270666667|-104.83527397333336|80211|DENVER|CO
C00011460|LOCAL 2 POLITICAL ACTION COMMITTEE FUND|U|Q|||L|RETAIL WHOLESALE DEP'T STORE UNION|40.76633930120482|-73.97691936746988|10001|NEW YORK|NY
C00011536|COMMITTEE FOR ELECTION OF CONGRESSIONAL CANDIDATES|U|Q|UNK||M|NONE|38.89531540217391|-77.01958254710144|20037|WASHINGTON|DC
C00011544|OHIO DENTAL POLITICAL ACTION COMMITTEE|U|Q|||T|DENTAL ASS'N; AMERICAN|39.98950240816327|-82.9981626734694|43202|COLUMBUS|OH
C00011569|LOCAL 52 REGISTER AND VOTE COMMITTEE (COPE COMMITTEE)|U|Q|||L|LAUNDRY & DRY CLEANING INT'L UNION|33.94396584158416|-118.29928288118809|90006|LOS ANGELES|CA
C00011577|RICE & SOYBEAN POLITICAL ACTION COMMITTEE|U|Q|||M|NONE|34.479852|-91.53854|72160|STUTTGART|AR
C00011601|TEAMSTERS LOCAL UNION NO 364 VOTER EDUCATION AND POLITICAL FUND|U|Q|||L|TEAMSTERS; INT'L BROTHERHOOD OF|41.658448549999996|-86.26316614999999|46615|SOUTH BEND|IN
C00011627|MINNESOTA BANKERS POLITICAL ACTION COMMITTEE|U|Q|||T|BANKERS ASS'N; AMERICAN|44.988124797101456|-93.35478904347828|55402|MINNEAPOLIS|MN
C00011643|REPUBLICAN CENTRAL COMMITTEE OF IMPERIAL COUNTY|U|Y|REP||||32.7890545|-115.635087|92243|EL CENTRO|CA
C00011692|MITCHELL, HUTCHINS VOLUNTARY POLITICAL FUND|U|N|||C|MITCHELL HUTCHINS INC|40.76633930120482|-73.97691936746988|10005|NEW YORK|NY
C00011700|RETAIL STORE EMPLOYEES UNION LOCAL NO. 880 ACTIVE BALLOT CLUB|U|Q|||L|FOOD & COMMERCIAL WRKRS INT'L UNION;UN|41.55917763829786|-81.65604136170215|44115|CLEVELAND|OH
C00011718|FIRST ATLANTA CORPORATION FUND FOR BETTER GOVERNMENT|U|Q|UNK||C|FIRST ATLANTA CORPORATION|33.828458666666684|-84.40236618918924|30302|ATLANTA|GA
C00011726|MICHIGAN CREDIT UNION LEGISLATIVE ACTION FUND|U|Q|||T|CREDIT UNION LEAGUE; MICHIGAN|42.30390803846153|-83.1278015|48075|DETROIT|MI
C00011759|LINDY BOGGS CAMPAIGN COMMITTEE (AKA LINDY BOGGS CAMPAIGN FUND)|P|H||H6LA02017|||29.992950545454548|-89.96252163636365|70139|NEW ORLEANS|LA
C00011767|POLITICAL ACTION COMMITTEE INTERNATIONAL UNION, UNITED PLANT GUARD WORKERS OF AMERICA|U|Q|UNK||L|PLANT GUARD WORKERS INT'L UNION|42.503285|-82.93851|48066|ROSEVILLE|MI
C00011783|NATIONAL UFW VOLUNTEER PAC (AKA UNITED FARM WORKERS OF AMERICA, AFL-CIO FEDERAL PAC)|U|Q|UNK||L|FARM WORKERS OF AMERICA; UNITED|35.241311|-118.59338|93531|KEENE|CA
C00011809|CITIZENS FOR GARRY BROWN|P|H||H6MI03032|||42.2845357|-85.5707457|49007|KALAMAZOO|MI
C00011825|REPUBLICAN ASSOCIATES OF IMPERIAL COUNTY|U|Y|REP||||32.853471|-115.58942|92251|IMPERIAL|CA
C00011874|AMERICAN BUSINESS PRESS SPECIALIZED PERIODICAL ACTION COMMITTEE|U|Q|DEM||T|AMERICAN BUSINESS PRESS INC|38.89531540217391|-77.01958254710144|20036|WASHINGTON|DC
C00011908|CONGRESSIONAL BOOSTERS FOR DON CLAUSEN|P|H|REP|H6CA02044|||38.44940955555556|-122.73874188888888|95402|SANTA ROSA|CA
C00011916|CALIFORNIA CANNERS AND GROWERS COMMITTEE ON AGRICULTURAL POLICY (CCG COAP)|U|Q|UNK||V|CANNERS & GROWERS; CALIFORNIA|37.77660142253521|-122.6107330704225|94111|SAN FRANCISCO|CA
C00011957|DRIVE CHAPTER #238|U|Q|UNK||L|TEAMSTERS; INT'L BROTHERHOOD OF|42.057094428571425|-91.64422478571427|52406|CEDAR RAPIDS|IA
C00012013|PENSIONERS ACTION FUND|U|Q|||L|MASTERS MATES & PILOTS; INT'L|39.30939096078431|-76.61851498039216|21231|BALTIMORE|MD
C00012021|STEAK & ALE RESTAURANTS OF AMERICA, INC EMPLOYEE'S POLITICAL ACTION COMMITTEE|U|Q|UNK||C|PILLSBURY COMPANY|32.785762754098364|-96.78275256557379|75240|DALLAS|TX
C00012039|FRIENDS OF MARJORIE HOLT COMMITTEE|P|H||H6MD04035|||38.98329971428571|-76.54007942857143|21404|ANNAPOLIS|MD
C00012047|KENNECOTT CORPORATION POLITICAL ACTION COMMITTEE|U|Q|||C|STANDARD OIL COMPANY (OHIO)|41.55917763829786|-81.65604136170215|44115|CLEVELAND|OH
C00012062|JEFFERSON COUNTY DEMOCRATIC CENTRAL COMMITTEE|U|Y|DEM|||DEMOCRATIC STATE CENTRAL COMMITTEE-CO|39.744437|-105.10441|80215|LAKEWOOD|CO
C00012104|GOLDRUS POLITICAL ACTION COMMITTEE (GOLDPAC)|U|Q|UNK||C|GOLDRUS DRILLING COMPANY|29.799726263736265|-95.41993828571431|77002|HOUSTON|TX
C00012153|AMERIFIRST GOOD GOVERNMENT COMMITTEE OF AMERIFIRST FEDERAL SAVINGS AND LOAN ASSOCIATION|U|Q|||T|SAVINGS & LOAN ASS'N; AMERIFIRST FED'L|25.69783154166667|-80.34412848958333|33131|MIAMI|FL
C00012161|RAUSCHER PIERCE EMPLOYEES POLITICAL AWARENESS COMMITTEE|U|Q|UNK||C|RAUSCHER PIERCE SECURITIES CORP|32.785762754098364|-96.78275256557379|75201|DALLAS|TX
C00012203|DEMOCRATIC PARTY OF OREGON|U|Y|DEM|||NONE|44.95135007692308|-122.93249292307691|97308|SALEM|OR
C00012211|NORTH CAROLINA DENTAL P.A.C.|U|Q|||T|DENTAL ASS'N; AMERICAN|35.81289577777778|-78.63090008888891|27604|RALEIGH|NC
C00012229|ALASKANS FOR DON YOUNG|P|H|REP|H6AK00045|||61.15772075|-149.747957125|99510|ANCHORAGE|AK
C00012237|DR PEPPER COMPANY POLITICAL ACTION COMMITTEE|U|Q|UNK||C|DR PEPPER COMPANY|32.785762754098364|-96.78275256557379|75265|DALLAS|TX
C00012245|PAINE WEBBER FUND FOR BETTER GOVERNMENT|U|Q|||C|PAINE WEBBER INCORPORATED|40.76633930120482|-73.97691936746988|10005|NEW YORK|NY
C00012252|CAROLINA DRIVE CHAPTER #1|U|Q|||L|TEAMSTERS; INT'L BROTHERHOOD OF|36.0736845|-80.14726999999999|27284|KERNERSVILLE|NC
C00012260|HARDWICKE FOR CONGRESS COMMITTEE|A|H||H6MD01056|||39.30939096078431|-76.61851498039216|21202|BALTIMORE|MD
C00012278|CALIFORNIA FEDERAL SAVINGS POLITICAL ACTION COMMITTEE|U|Q|||W|SAVINGS & LOAN ASS'N; CALIFORNIA FED'L|33.94396584158416|-118.29928288118809|90036|LOS ANGELES|CA
C00012302|NORTH CAROLINA STATE DEMOCRATIC EXECUTIVE COMMITTEE|U|Y|DEM||||35.81289577777778|-78.63090008888891|27603|RALEIGH|NC
C00012310|BLACK & VEATCH GOOD GOVERNMENT FUND|U|N|UNK||C|BLACK & VEATCH|39.095393654320986|-94.49784748148147|64114|KANSAS CITY|MO
C00012328|FLORIDA SUGAR CANE LEAGUE PAC|U|Q|UNK||T|FLORIDA SUGAR CANE LEAGUE|26.714088|-80.9973|33440|CLEWISTON|FL
C00012377|PENNSYLVANIA DENTAL POLITICAL ACTION COMMITTEE|U|Q|||T|DENTAL ASS'N; AMERICAN|40.28232126923077|-76.85854892307692|17108|HARRISBURG|PA
C00012401|CALIFORNIA LEAGUE OF CONSERVATION VOTERS|U|Q|UNK||M|NONE|37.779329|-122.41915|94102|SAN FRANISCO|CA
C00012427|CONGRESSMAN WRIGHT APPRECIATION COMMITTEE|P|H|DEM|H6TX12029|||32.75317824561404|-97.33153931578948|76101|FORT WORTH|TX
C00012443|CONSTRUCTION ACTION COMMITTEE|U|Q|||T|CONTRACTORS OF IOWA; ASS'D GEN'L|41.65428011864408|-93.58401089830507|50303|DES MOINES|IA
C00012450|COMMITTEE FOR SAM GIBBONS|P|H||H6FL07033|||27.933675672131137|-82.45895295081968|33614|TAMPA|FL
C00012468|COCA-COLA COMPANY NONPARTISAN COMMITTEE FOR GOOD GOVERNMENT|U|Q|UNK||C|COCA-COLA COMPANY|33.828458666666684|-84.40236618918924|30301|ATLANTA|GA
C00012476|U.A. POLITICAL EDUCATION COMMITTEE|U|Q|||L|PLUMBING & PIPEFITTING INDUSTRY|38.89531540217391|-77.01958254710144|20001|WASHINGTON|DC
C00012484|FLORIDA BANKERS ASSOCIATION POLITICAL ACTION COMMITTEE (A/K/A FLORIDA BANK PAC)|U|Q|DEM||T|BANKERS ASS'N; AMERICAN|28.520516629032265|-81.28818522580643|32853|ORLANDO|FL
C00012518|"FIRST UNION CORPORATION EMPLOYEES GOOD GOVERNMENT ""F"" FUND"|U|Q|UNK||C|FIRST UNION CORPORATION|35.24106722077923|-80.81472076623379|28288|CHARLOTTE|NC
C00012575|TEXAS STATE COUNCIL OF MACHINISTS & AEROSPACE WORKERS NON-PARTISAN POLITICAL LEAGUE|U|Q|||L|MACHINISTS & AEROSPACE WRKRS; INT'L...|30.03449607692308|-94.14999746153846|77708|BEAUMONT|TX
C00012591|ARIZONA DENTAL POLITICAL ACTION COMMITTEE|U|Q|||T|DENTAL ASS'N; AMERICAN|33.406690705128206|-112.12873824358972|85012|PHOENIX|AZ
C00012617|CONGRESSMAN JAMES R JONES ELECTION COMMITTEE|P|H||H6OK01011|||36.13242035087719|-95.97262915789474|74101|TULSA|OK
C00012625|"HOMER BRUNDAGE ""300"" CLUB*"|U|Q|UNK||M|NONE|42.2845357|-85.5707457|49006|KALAMAZOO|MI
C00012633|TO HOUSTON D R I V E CHAPTER NO 988|U|Q|||L|TEAMSTERS; INT'L BROTHERHOOD OF|29.799726263736265|-95.41993828571431|77270|HOUSTON|TX
C00012666|CENTRAL SOYA POLITICAL  ACTION COMMITTEE|U|Q|UNK||C|CENTRAL SOYA COMPANY INC|41.071681|-85.15101|46802|FT WAYNE|IN
C00012708|NEVADA POLITICAL ACTION COMMITTEE DENTAL*|U|Q|UNK||T|DENTAL ASS'N; AMERICAN|39.910358454545445|-119.7081178181818|89509|RENO|NV
C00012732|TEXAS VICTORY COMMITTEE-REPUBLICAN PARTY OF TEXAS (FEDERAL ACCOUNT)|U|Y|REP||||30.319931120481932|-97.75807027710842|78701|AUSTIN|TX
C00012757|RE ELECT CONGRESSMAN JOE MOAKLEY COMMITTEE|P|H|UNK|H6MA09032|||42.34437557407409|-71.0031983888889|02109|BOSTON|MA
C00012815|HOUSTON NATURAL GAS CORPORATION POLITICAL ACTION COMMITTEE/HNG POLITICAL ACTION COMMITTEE|U|Q|UNK||C|HOUSTON NATURAL GAS CORPORATION|29.799726263736265|-95.41993828571431|77001|HOUSTON|TX
C00012856|DEMOCRATIC REPUBLICAN INDEPENDENT VOTERS EDUCATION|U|Q|||L|TEAMSTERS; INT'L BROTHERHOOD OF|34.757797833333335|-92.34247691666667|72219|LITTLE ROCK|AR
C00012872|5TH DISTRICT CONGRESSIONAL CAMPAIGN COMMITTEE|U|Y|DEM|||STATE DEMOCRATIC PARTY OF IOWA|41.070905|-94.38448|50801|CRESTON|IA
C00012880|AMERICAN PHYSICAL THERAPY CONGRESSIONAL ACTION COMMITTEE|U|Q|||T|PHYSICAL THERAPY ASS'N; AMERICAN|38.89531540217391|-77.01958254710144|20005|WASHINGTON|DC
C00012906|CITIZENS COMMITTEE FOR THE RIGHT TO KEEP AND BEAR ARMS|U|Q|UNK||M|KEEP & BEAR ARMS; CITIZENS CMTE-RIGHT|47.5618325|-122.065971125|98005|BELLEVUE|WA
C00012914|TITLE INDUSTRY POLITICAL ACTION COMMITTEE|U|Q|||T|LAND TITLE ASS'N; AMERICAN|38.89531540217391|-77.01958254710144|20036|WASHINGTON|DC
C00013003|PAUL SIMON FOR CONGRESS COMMITTEE|P|H||H6IL24037|||37.741685|-89.34137400000002|62901|CARBONDALE|IL
C00013011|JOHN BURTON CONGRESSIONAL CAMPAIGN COMMITTEE|P|H|DEM|H6CA05021|||37.77660142253521|-122.6107330704225|94104|SAN FRANCISCO|CA
C00013029|KENT COUNTY REPUBLICAN COMMITTEE|U|Y|REP||||42.988566307692295|-85.5972746923077|49503|GRAND RAPIDS|MI
C00013037|KENT COUNTY REPUBLICAN FINANCE COMMITTEE|U|Y|REP||||42.988566307692295|-85.5972746923077|49503|GRAND RAPIDS|MI
C00013052|FRIENDS OF JOHN REUTHER COMMITTEE|P|H|||||42.26749125|-83.771700375|48103|ANN ARBOR|MI
C00013102|FRIENDS OF DON MITCHELL|A|H||H6NY31024|||43.032282499999994|-74.9834355|13350|HERKIMER|NY
C00013128|CONGRESSMAN WAXMAN CAMPAIGN COMMITTEE|P|H||H6CA24048|||33.9577728|-118.3576128|90211|BEVERLY HILLS|CA
C00013136|HIGHTOWER FOR CONGRESS COMMITTEE (AKA JACK HIGHTOWER CAMP FUND)|P|H||H6TX13027|||34.144225|-99.255289|76384|VERNON|TX
C00013169|CORCORAN FOR CONGRESS COMMITTEE|P|H||H6IL15019|||41.83345371428572|-88.27595714285714|60507|AURORA|IL
C00013177|NATIONAL ACTION COMMITTEE (FKA DAVE EVANS FOR CONGRESS COMMITTEE)|U|Q|||M||38.89531540217391|-77.01958254710144|20003|WASHINGTON|DC
C00013276|BLOUIN FOR CONGRESS|P|H||H6IA02039|||42.491041599999996|-90.7453364|52001|DUBUQUE|IA
C00013284|CARLSON FOR CONGRESS COMMITTEE 1974|P|H||H6MN01083|||41.885728|-88.31957|60134|GENEVA|IL
C00013334|NELSON FOR CONGRESS COMMITTEE|A|H||H6OH07036|||39.92746366666667|-83.810553|45504|SPRINGFIELD|OH
C00013342|UNITED MINE WORKERS OF AMERICA - COAL MINERS POLITICAL ACTION COMMITTEE|U|Q|||L|MINE WORKERS OF AMERICA; UNITED|38.89531540217391|-77.01958254710144|20005|WASHINGTON|DC
C00013433|CITIZENS FOR DAVIS FOR CONGRESS|A|H||H6MD08010|||39.110530125000004|-77.16780975|20854|ROCKVILLE|MD
C00013490|CAMPAIGN FOR PROSPERITY|U|Q|||M|NONE|38.89531540217391|-77.01958254710144|20003|WASHINGTON|DC
C00013524|FRIENDS OF TOM BEVILL|P|H||H6AL04023|||33.88037925|-87.2705695|35502|JASPER|AL
C00013540|CITIZENS FOR PRITCHARD|P|H|UNK|H6WA01048|||47.53192905084746|-122.12633125423729|98109|SEATTLE|WA
C00013565|CITIZENS FOR JACK KEMP|P|H||H6NY38029|||42.86095690909091|-78.84706422727274|14203|BUFFALO|NY
C00013573|HENRY J. HYDE FOR CONGRESS COMMITTEE|P|H|REP|H6IL06026|||42.027166|-87.89608799999999|60016|DES PLAINES|IL
C00013656|PATCO POLITICAL ACTION COMMITTEE|U|Q|UNK||L|MARINE ENGINEERS BENEFICIAL ASS'N|38.89531540217391|-77.01958254710144|20003|WASHINGTON|DC
C00013672|FLORIDA DENTAL POLITICAL ACTION COMMITTEE|U|Q|UNK||T|DENTAL ASSOCIATION; AMERICAN|27.933675672131137|-82.45895295081968|33609|TAMPA|FL
C00013714|RAY ROBERTS CAMPAIGN COMMITTEE|P|H|DEM|H6TX04026|||33.203638|-96.63942499999999|75069|MCKINNEY|TX
C00013748|NORTH DAKOTA DEMOCRATIC-NONPARTISAN LEAGUE PARTY|U|Y|DEM||||46.877277285714285|-100.68709442857143|58501|BISMARCK|ND
C00013771|THOMAS S FOLEY COMMITTEE|A|H||H6WA05023|||38.89531540217391|-77.01958254710144|20016|WASHINGTON|DC
C00013888|ENVIROTECH EMPLOYEE BETTER GOVERNMENT COMMITTEE (AKA ENVIROTECH PAC)|U|Q|REP||C|ENVIROTECH CORPORATION|37.40465866666667|-122.2845|94025|MENLO PARK|CA
C00013896|KEN HOLLAND COMMITTEE|P|H|DEM|H6SC05020|||34.278935|-80.59142|29020|CAMDEN|SC
C00013904|EDWARDS FOR CONGRESS COMMITTEE (1980)|P|H||H6AL01011|||30.67357146511628|-88.1529814883721|36616|MOBILE|AL
C00013938|TREEN FOR CONGRESS COMMITTEE|P|H||H6LA03023|||29.992950545454548|-89.96252163636365|70114|NEW ORLEANS|LA
C00013961|SHEET METAL AND AIR CONDITIONING CONTRACTORS' POLITICAL ACTION COMMITTEE|U|Q|||T|SHEET METAL&AIR CNDNG CNTRS NATL ASSN|38.86816483333334|-77.27787583333333|22180|VIENNA|VA
C00013995|IOWA POWER CMTE FOR RESPONSIBLE GOVERNMENT|U|Q|UNK||C|IOWA POWER & LIGHT CO|41.65428011864408|-93.58401089830507|50303|DES MOINES|IA
C00014019|COMMITTEE ORGANIZED FOR THE TRADING OF COTTON - PAC OF THE AMERICAN COTTON SHIPPERS ASS'N|U|Q|UNK||T|COTTON SHIPPERS ASS'N; AMERICAN|38.89531540217391|-77.01958254710144|20036|WASHINGTON|DC
C00014068|RAPP FOR CONGRESS COMMITTEE   [PCC '74:IA/03]|A|H||H6IA03086|||42.498476|-92.3827825|50613|CEDAR FALLS|IA
C00014084|KEEP IKE IN CONGRESS COMMITTEE|P|H|DEM|H6NC04011|||35.81289577777778|-78.63090008888891|27605|RALEIGH|NC
C00014092|SAN BERNARDINO COUNTY REPUBLICAN CENTRAL COMMITTEE|U|Y|REP|||REPUB. STATE CENT. CMTE. OF CALIFORNIA|34.53086955|-116.53620565000001|92406|SAN BERNARDINO|CA
C00014217|HALL FOR CONGRESS COMMITTEE (PCC '82)|P|H|DEM|H6TX01022|||32.528023|-94.35869866666667|75670|MARSHALL|TX
C00014225|EDGAR FOR CONGRESS COMMITTEE|P|H|UNK|H6PA07022|||39.974378|-75.36083|19008|BROOMALL|PA
C00014274|FRIENDS OF PHIL SHARP|P|H||H6IN10059|||40.197930142857146|-85.403734|47305|MUNCIE|IN
C00014340|KREBS CAMPAIGN COMMITTEE|P|H||H6CA17026|||36.75393231666668|-119.67922220000001|93702|FRESNO|CA
C00014373|NEW HAMPSHIRE DENTAL POLITICAL ACTION COMMITTEE|U|Q|||T|DENTAL ASS'N; AMERICAN|43.255295000000004|-71.58903475|03301|CONCORD|NH
C00014407|FRIENDS FOR JIM ABDNOR|P|S|REP|S0SD00054|||44.425356|-100.29145|57501|PIERRE|SD
C00014415|BOATING INFORMATION COUNCIL POLITICAL ACTION COMMITTEE|U|Q|DEM||T|ENGINE & BOAT MANU.; NAT'L ASS'N OF|38.89531540217391|-77.01958254710144|20036|WASHINGTON|DC
C00014431|BALDUS FOR CONGRESS COMMITTEE|P|H||H6WI03016|||44.86877|-91.92915|54751|MENOMONIE|WI
C00014472|EAST OHIO GAS EMPLOYEES VOLUNTARY GOOD GOVERNMENT ASSOCIATION|U|Q|UNK||M|NONE|41.55917763829786|-81.65604136170215|44113|CLEVELAND|OH
C00014480|BLANCHARD FOR CONGRESS COMMITTEE|P|H|REP|H6NC03021|||34.9970305|-78.3059545|28328|CLINTON|NC
C00014498|REPUBLICAN STATE CENTRAL COMMITTEE OF IOWA|U|Y|REP|||NONE|41.65428011864408|-93.58401089830507|50309|DES MOINES|IA
C00014555|FOOD MARKETING INSTITUTE POLITICAL ACTION COMMITTEE (FOOD PAC)|U|Q|UNK||T|FOOD MARKETING INSTITUTE|38.89531540217391|-77.01958254710144|20006|WASHINGTON|DC
C00014571|CALIFORNIA RICE FUND|U|Q|||M|RICE GROWERS ASS'N OF CALIFORNIA|38.430597276190475|-121.44452857142855|95805|SACRAMENTO|CA
C00014597|NON-PARTISAN TRANSPORTATION ACTION COMMITTEE|U|Q|UNK||T|TRANSPORTATION ASS'N INC; NAT'L SCHOOL|38.80418333333333|-77.24831822222221|22151|SPRINGFIELD|VA
C00014613|MINETA FOR CONGRESS COMMITTEE|P|H||H6CA13116|||37.24389375806454|-121.78056964516126|95112|SAN JOSE|CA
C00014803|1974 HORNE FOR CONGRESS COMMITTEE|A|H||H6VA09011|||36.692464333333334|-81.980428|24210|ABINGDON|VA
C00014811|JIM LLOYD FOR CONGRESS COMMITTEE|P|H|DEM|H6CA35036|||33.98475225|-118.00844049999999|91793|WEST COVINA|CA
C00014878|GAMAPAC (GENERAL AVIATION MANUFACTURERS ASSOCIATION POLITICAL ACTION COMMITTEE)|U|Q|UNK||T|AVIATION MANUFACTURERS ASS'N; GENERAL|38.89531540217391|-77.01958254710144|20005|WASHINGTON|DC
C00014886|COMMITTEE TO RE-ELECT BARBARA JORDAN|P|H||H6TX18034|||29.463401422222216|-98.49665103333332|78215|SAN ANTONIO|TX
C00014910|FRIENDS OF HENRY REUSS (AKA REUSS FOR CONGRESS COMMITTEE)|P|H||H6WI05011|||43.04538821276595|-87.90733217021277|53203|MILWAUKEE|WI
C00014944|BUD SHUSTER FOR CONGRESS|P|H||H6PA09051|||40.003997|-78.36456|15537|EVERETT|PA
C00014977|RINALDO FOR CONGRESS COMMITTEE|P|H||H6NJ12029|||40.695401|-74.26933|07083|UNION|NJ
C00014985|COMMITTEE FOR CONGRESSMAN CHARLIE ROSE|P|H||H6NC07030|||35.05378755555555|-78.91604177777778|28301|FAYETTEVILLE|NC
C00014993|FISHER FOR CONGRESS|P|H|DEM|H6VA10019|||38.87518503125|-77.09935687500001|22201|ARLINGTON|VA
C00015024|WOMEN'S CAMPAIGN FUND INC|U|Q|UNK||T|WOMEN'S CAMPAIGN FUND|38.89531540217391|-77.01958254710144|20006|WASHINGTON|DC
C00015107|FAIRFIELD COUNTY REPUBLICAN EXECUTIVE COMMITTEE|U|Y|REP|||OHIO REPUBLICAN FINANCE COMMITTEE|39.712887|-82.61216|43130|LANCASTER|OH
C00015149|HEFNER FOR CONGRESS COMMITTEE|P|H||H6NC08020|||35.384109333333335|-80.581686|28025|CONCORD|NC
C00015263|CITIZENS FOR SCHULZE COMMITTEE|P|H|REP|H6PA05042|||40.042252|-75.48357|19301|PAOLI|PA
C00015339|HENRY B GONZALEZ CONGRESSMAN'S CLUB|P|H|DEM|H6TX20022|||29.463401422222216|-98.49665103333332|78208|SAN ANTONIO|TX
C00015362|JEFFORDS FOR CONGRESS COMMITTEE|P|H|UNK|H6VT00053|||44.237045571428574|-72.59320885714286|05602|MONTPELIER|VT
C00015388|BRODHEAD FOR CONGRESS|P|H|UNK|H6MI17024|||42.30390803846153|-83.1278015|48223|DETROIT|MI
C00015461|SORDI FOR CONGRESS COMMITTEE|A|H|||||40.864757|-73.62609|11542|GLEN COVE|NY
C00015511|CITIZENS FOR DERWINSKI COMMITTEE|P|H|REP|H6IL04021|||41.6108935|-87.863715|60462|ORLAND PARK|IL
C00015529|COMMITTEE TO RE-ELECT CONGRESSMAN BILL COTTER|P|H|DEM|H6CT01032|||41.7469125|-72.696766|06109|WETHERSFIELD|CT
C00015552|BEEF-PAC (BEEF POLITICAL ACTION COMMITTEE OF TEXAS CATTLE FEEDERS ASSOCIATION)|U|Q|UNK||T|CATTLE FEEDERS ASSOCIATION; TEXAS|35.30811969047619|-101.88064188095235|79106|AMARILLO|TX
C00015560|BILL GOODLING FOR CONGRESS COMMITTEE|P|H||H6PA19043|||39.965134375|-76.685146625|17403|YORK|PA
C00015594|REPUBLICAN EXECUTIVE COMMITTEE OF JEFFERSON COUNTY|U|X|REP||||38.20007860606061|-85.68525571212122|40202|LOUISVILLE|KY
C00015602|KINDNESS FOR CONGRESS COMMITTEE|P|H||H6OH08059|||39.423241250000004|-84.56939750000001|45012|HAMILTON|OH
C00015636|OHIO AFL-CIO COMMITTEE ON POLITICAL EDUCATION|U|Q|DEM||L|AFL-CIO|39.98950240816327|-82.9981626734694|43215|COLUMBUS|OH
C00015669|WAMPLER FOR CONGRESS COMMITTEE|P|H|REP|H6VA09029|||37.053297|-80.7728|24301|PULASKI|VA
C00015743|CONGRESSMAN GUYER COMMITTEE|P|H|UNK|H6OH04025|||40.744508499999995|-84.12607433333334|45805|LIMA|OH
C00015776|WEAVER FOR CONGRESS COMMITTEE (1974)|A|H||H6OR04062|||44.036171857142854|-123.08967714285714|97403|EUGENE|OR
C00015784|RASSIN FOR CONGRESS COMMITTEE|P|H|||||40.76633930120482|-73.97691936746988|10023|NEW YORK|NY
C00015792|FRIENDS OF TOM HAGEDORN COMMITTEE|P|H||H6MN02024|||44.113360750000005|-94.043994|56001|MANKATO|MN
C00015875|HENSLEY FOR CONGRESS CAMPAIGN COMMITTEE|P|H||H6AK00029|||61.15772075|-149.747957125|99502|ANCHORAGE|AK
C00015925|MERIDIAN PUBLIC AFFAIRS COMMITTEE|U|Q|UNK||M|NONE|39.797402600000005|-86.1365729|46202|INDIANAPOLIS|IN
C00015933|ARIZONA PUBLIC SERVICE COMPANY POLITICAL ACTION COMMITTEE (APSPAC)|U|Q|||C|ARIZONA PUBLIC SERVICE COMPANY|33.406690705128206|-112.12873824358972|85036|PHOENIX|AZ
C00015941|"BYRON T. ""BUD"" BROWN FOR CONGRESS COMMITTEE"|P|H||H6AZ04011|||33.5084924375|-111.962746125|85253|SCOTTSDALE|AZ
C00015974|ASHBROOK FOR CONGRESS*|P|H|REP|H6OH17027|||40.151979|-82.66944|43031|JOHNSTOWN|OH
C00015982|CONABLE CONGRESSIONAL COMMITTEE|P|H||H6NY35025|||42.997279500000005|-78.18880150000001|14020|BATAVIA|NY
C00016030|COMMITTEE FOR COFFEY TO CONGRESS|A|H||H2OH11029|||41.799419|-81.2914035|44060|MENTOR|OH
C00016212|DERRICK FINANCE COMMITTEE|P|H||H6SC03025|||34.196719|-82.16052425|29646|GREENWOOD|SC
C00016238|FIRPAC|U|N|UNK||C|FIRST FEDERAL SAVINGS/LOAN OF NEWTON|38.051679|-97.323|67114|NEWTON|KS
C00016253|FINKBEINER FOR CONGRESS COMMITTEE|P|H|UNK|H6OH09032|||41.6749844857143|-83.52541554285715|43614|TOLEDO|OH
C00016261|BOB DANIEL FOR CONGRESS COMMITTEE|P|H|REP|H6VA04038|||37.287869|-77.29359|23860|HOPEWELL|VA
C00016345|NURSING HOME ADMINISTRATORS POLITICAL ACTION COMMITTEE OF TEXAS (NAPACT)|U|Q|UNK||T|NURSING HOME ASS'N; TEXAS|30.319931120481932|-97.75807027710842|78765|AUSTIN|TX
C00016378|GOVERNMENT EMPLOYEES POLITICAL RESEARCH INSTITUTE(NATIONAL ASSOCIATION OF GOV'T EMPLOYEES)|U|Q|||L|EMPLOYEES; NAT'L ASS'N OF GOV'T|38.89531540217391|-77.01958254710144|20007|WASHINGTON|DC
C00016386|AMERICAN BAKERS ASSN BREAD POLITICAL ACTION COMMITTEE|U|Q|UNK||T|BAKERS ASS'N; AMERICAN|38.89531540217391|-77.01958254710144|20006|WASHINGTON|DC
C00016410|FEDERAL CAMPAIGN COMMITTEE OF NEVADA|U|X|DEM|||NONE|39.910358454545445|-119.7081178181818|89502|RENO|NV
C00016436|SCHEUER FOR CONGRESS 1974|A|H||H6NY11059|||38.89531540217391|-77.01958254710144|20024|WASHINGTON|DC
C00016444|KENTUCKY EDUCATIONAL MEDICAL POLITICAL ACTION COMMITTEE|U|Q|||T|MEDICAL ASS'N; KENTUCKY        [AMPAC]|38.20007860606061|-85.68525571212122|40205|LOUISVILLE|KY
C00016550|DEPOSIT GUARANTY EMPLOYEES' VOLUNTARY POLITICAL COMMITTEE|U|Q|||C|DEPOSIT GUARANTY NATIONAL BANK|32.30845729411766|-90.2704443235294|39201|JACKSON|MS
C00016576|GRADISON FOR CONGRESS COMMITTEE|P|H||H6OH01021|||39.16559364383562|-84.49549378082193|45202|CINCINNATI|OH
C00016626|HECKLER CONGRESSIONAL COMMITTEE|P|H||H6MA10022|||42.300346000000005|-71.291055|02181|WELLESLEY|MA
C00016683|PFIZER PAC|U|Q|UNK||C|PFIZER INC|40.76633930120482|-73.97691936746988|10017|NEW YORK|NY
C00016782|RICHARD C. WHITE CONGRESSIONAL CLUB|P|H|UNK|H6TX16020|||31.71318313461538|-106.31593567307694|79942|EL PASO|TX
C00016899|OHIO DEMOCRATIC PARTY FEDERAL CAMPAIGN ACCOUNT|U|Y|DEM||||39.98950240816327|-82.9981626734694|43215|COLUMBUS|OH
C00016931|CONTE FOR CONGRESS COMMITTEE      [MA/01]|P|H|REP|H6MA01021|||42.41321333333333|-73.23698866666666|01201|PITTSFIELD|MA
C00016980|FENWICK FOR CONGRESS|P|H|REP|H6NJ05031|||40.696601|-74.63781|07931|FAR HILLS|NJ
C00017020|6TH CONGRESSIONAL DISTRICT REPUBLICAN ORG.|U|X|REP||||41.874064|-72.81644|06070|SIMSBURY|CT
C00017087|NEAL FOR CONGRESS COMMITTEE|P|H||H6NC05018|||36.107037|-80.21918|27101|WINSTON-SALEM|NC
C00017095|JIM SANTINI'S PEOPLE|P|H||H6NV00044|||36.06223526153846|-115.10904812307692|89101|LAS VEGAS|NV
C00017152|INDEPENDENCE CLUB POLITICAL COMMITTEE|U|N|||T|INDEPENDENCE CLUB|38.631451|-90.21415|63103|ST LOUIS|MO
C00017194|INTERNATIONAL UNION OF OPERATING ENGINEERS LO 825 POLITICAL ACTION AND EDUCATION COMMITTEE|U|Q|||L|ENGINEERS; INT'L UNION OF OPERATING|40.886628|-74.21405|07424|LITTLE FALLS|NJ
C00017210|CITIZENS FOR D'AMOURS COMMITTEE|P|H|DEM|H6NH01032|||42.97060722222222|-71.541694|03101|MANCHESTER|NH
C00017244|MARINE FIREMAN'S UNION POLITICAL ACTION FUND|U|Q|DEM||L|SEAFARERS INT'L UNION OF NORTH AMERICA|37.77660142253521|-122.6107330704225|94105|SAN FRANCISCO|CA
C00017251|OBERSTAR FOR CONGRESS VOLUNTEER COMMITTEE|P|H|DFL|H6MN08047|||46.982647933333325|-92.18859959999999|55802|DULUTH|MN
C00017269|LEVITAS CAMPAIGN COMMITTEE|P|H|UNK|H6GA04020|||33.828458666666684|-84.40236618918924|30341|ATLANTA|GA
C00017343|OREGON EDUCATION ASSOCIATION PEOPLE FOR IMPROVEMENT OF EDUCATION|U|Q|||L|EDUCATION ASSOCIATION; OREGON|45.43884|-122.78224|97223|TIGARD|OR
C00017368|RISENHOOVER FOR CONGRESS COMMITTEE|P|H|DEM|H6OK02084|||35.911866|-95.00592900000001|74464|TAHLEQUAH|OK
C00017400|MCKINNEY'S 5000|A|H||H6CT04028|||41.17576340000001|-73.26106940000001|06430|FAIRFIELD|CT
C00017509|HARKIN FOR CONGRESS COMMITTEE (1980-PCC)|A|H|DEM|H6IA05024|||42.02913099999999|-93.60630499999999|50010|AMES|IA
C00017517|KAZEN FOR CONGRESS COMMITTEE|P|H||H6TX23034|||29.463401422222216|-98.49665103333332|78205|SAN ANTONIO|TX
C00017525|N-CAP (NURSES COALITION FOR ACTION IN POLITICS)|U|Q|||L|NURSES' ASS'N; AMERICAN|38.89531540217391|-77.01958254710144|20005|WASHINGTON|DC
C00017558|BIPARTISAN POLITICAL ACTION COMMITTEE / MELLON BANK|U|Q|UNK||C|MELLON NATIONAL CORPORATION|40.43987933333333|-80.00114248717952|15244|PITTSBURGH|PA
C00017574|FITZPATRICK FOR CONGRESS|P|H||H6MI17040|||42.574254499999995|-83.253826|48010|BIRMINGHAM|MI
C00017608|SAM DILLON FOR CONGRESS COMMITTEE|A|H||H6MD04019|||17.734211|-64.734694|00820|CRISTIANSTED/ST CX|VI
C00017681|ALEXANDER & BALDWIN INC FEDPAC (A&B FEDPAC)|U|Q|UNK||C|ALEXANDER & BALDWIN INC|23.99200566666667|-165.5305597777778|96801|HONOLULU|HI
C00017707|PEOPLE FOR ED CRAWFORD COMMITTEE|A|H||H6NY27022|||42.111515600000004|-75.892642|13901|BINGHAMTON|NY
C00017780|CITIZENS FOR DOW|A|H|||||41.451151249999995|-74.20285475|12550|NEWBURGH|NY
C00017830|CITIZENS FOR DAVE OBEY COMMITTEE|P|H||H6WI07033|||44.945145333333336|-89.67716333333334|54401|WAUSAU|WI
C00017897|MOUNTAIN FIR LUMBER CO INC|U|Q|||C|MOUNTAIN FIR LUMBER CO INC|44.95135007692308|-122.93249292307691|97309|SALEM|OR
C00017954|RICHARDS FOR CONGRESS|A|H||H6VA02016|||36.81764222727272|-76.07293118181816|23462|VIRGINIA BEACH|VA
C00018028|PRINTING INDUSTRIES OF AMERICA POLITICAL ACTION COMMITTEE(PRINT PAC)|U|Q|REP||T|PRINTING INDUSTRIES OF AMERICA, INC.|38.87518503125|-77.09935687500001|22209|ARLINGTON|VA
C00018036|FIRST BANK SYSTEM MINNESOTA GOOD GOVERNMENT COMMITTEE|U|Q|||C|FIRST BANK SYSTEM INC|44.988124797101456|-93.35478904347828|55480|MINNEAPOLIS|MN
C00018119|HARRIS FOR CONGRESS COMMITTEE|A|H||H6VA04012|||37.287869|-77.29359|23860|HOPEWELL|VA
C00018135|DEMOCRATIC CANDIDATE FUND (AKA THOMAS P. O'NEILL, JR. CONGRESS FUND)|U|Q|DEM||M|NONE|38.868151714285716|-77.18873671428572|22043|FALLS CHURCH|VA
C00018176|DAIRYMEN INC-VIRGINIA FOR POLITICAL ACTION (DI-VCFPA)|U|Q|UNK||V|DAIRYMEN INC|37.107412|-81.0571|24315|BLAND|VA
C00018184|DAIRYMEN INC-KENTUCKY COMMITTEE FOR POLITICAL ACTION|U|Q|REP||V|DAIRYMEN INC|37.561722|-85.0227|40328|GRAVELSWITCH|KY
C00018192|DAIRYMEN INC-LOUISIANA COMMITTEE FOR POLITICAL ACTION (DI-LCFPA)|U|Q|UNK||V|DAIRYMEN INC|30.1101275|-91.9951245|70592|YOUNGSVILLE|LA
C00018200|DAIRYMEN INC-MISSISSIPPI COMMITTEE FOR POLITICAL ACTION (DI-MCFPA)|U|Q|||V|DAIRYMEN INC|31.131018|-90.12856|39667|TYLERTOWN|MS
C00018366|FIRST BANKS OF NORTH DAKOTA POLITICAL PARTICIPATION PROGRAM|U|Q|||C|FIRST BANK SYSTEM INC|46.91068671428572|-97.09320092857145|58107|FARGO|ND
C00018473|8TH CONGRESSIONAL DISTRICT DEMOCRATIC PARTY OF WISCONSIN|U|Y|DEM|||DEMOCRATIC PARTY OF WISCONSIN|44.32410633333333|-88.42420766666667|54911|APPLETON|WI
C00018598|FRIENDS OF TED FETTING(AKA FETTING FOR CONGRESS)|A|H||H6WI03032|||43.07264378947367|-89.4054060526316|53703|MADISON|WI
C00018648|COMMITTEE TO RE-ELECT CONGRESSMAN STUDDS|P|H||H6MA12028|||42.15243|-70.8205|02061|NORWELL|MA
C00018747|GEM SAVINGS ASSOCIATION POLITICAL ACTION COMMITTEE|U|Q|||W|GEM CITY SAVINGS ASS'N|39.74654581632654|-84.20972132653061|45402|DAYTON|OH
C00018804|TEXTILE RENTAL SERVICES ASSOCIATION OF AMERICA (TRSAPAC)|U|Q|||T|LINEN SUPPLY ASS'N OF AMERICA|26.066396500000003|-80.299147|33009|HALLANDALE|FL
C00018820|DOWELL EMPLOYEES' POLITICAL ACTION COMMITTEE (DEPAC)|U|Q|UNK||C|DOW CHEMICAL U S A|29.799726263736265|-95.41993828571431|77210|HOUSTON|TX
C00018929|NORTH DAKOTA STATE REPUBLICAN COMMITTEE - FEDERAL ACCOUNT|U|Y|REP|||NO. DAKOTA REPUBLICAN STATE COMMITTEE|46.877277285714285|-100.68709442857143|58502|BISMARCK|ND
C00018945|DORSEY POLITICAL FUND|U|Q|||W|DORSEY,WINDHORST,HANNAFORD,WHITNEY...|44.988124797101456|-93.35478904347828|55402|MINNEAPOLIS|MN
C00019026|FRIENDS OF LESTER WOLFF|P|H||H6NY06026|||40.812887|-73.74094|11024|GIEBT NECK|NY
C00019075|MURTHA FOR RE-ELECTION COMMITTEE|P|H||H6PA12030|||40.343568874999995|-78.881888875|15901|JOHNSTOWN|PA
C00019083|CALIFORNIA CANNING PEACH ASSOCIATION POLITICAL ACTION COMMITTEE (AKA PEACH-PAC)|U|Q|||T|CANNING PEACH ASS'N; CALIFORNIA|37.895695|-122.11785|94549|LAFAYETTE|CA
C00019158|JOHN BREAUX RE-ELECTION COMMITTEE|P|H||H6LA07024|||30.215825166666665|-92.04273708333334|70505|LAFAYETTE|LA
C00019166|WATKINS FOR CONGRESS COMMITTEE|P|H|DEM|H6OK03074|||34.76270033333333|-96.672892|74820|ADA|OK
C00019208|HAROLD FORD COMMITTEE FOR BETTER GOVERNMENT A.K.A. REELECT HAROLD FORD COMMITTEE|P|H|DEM|H6TN08037|||35.16473077142859|-89.95803939999998|38103|MEMPHIS|TN
C00019240|JOSEPH LEVIN FOR CONGRESS COMMITTEE|A|H||H6MI17081|||42.30390803846153|-83.1278015|48226|DETROIT|MI
C00019331|DEMOCRATIC PARTY OF WISCONSIN FEDERAL ACCOUNT|U|Y|DEM|||ASSOCIATION OF STATE DEM. CHAIRS|43.07264378947367|-89.4054060526316|53703|MADISON|WI
C00019349|FIRST BANK SYSTEM/SOUTH DAKOTA GOOD GOVERNMENT PROGRAM|U|Q|||C|FIRST BANK SYSTEM INC|43.6194702|-96.766635|57117|SIOUX FALLS|SD
C00019372|KAIBAB INDUSTRIES BETTER GOVERNMENT COMMITTEE|U|Q|||C|KAIBAB INDUSTRIES|33.406690705128206|-112.12873824358972|85036|PHOENIX|AZ
C00019380|KANSAS DEMOCRATIC STATE COMMITTEE|U|Y|DEM|||SAME|39.041098899999994|-95.74326307499999|66601|TOPEKA|KS
C00019422|KEY BANKS PAC - FEDERAL (AKA FCB RESPONSIBLE GOV'T GROUP - FED'L)|U|Q|||C|FIRST COMMERCIAL BANKS INC|42.62976221568628|-73.92296152941177|12207|ALBANY|NY
C00019448|HOOSIER GOOD GOVERNMENT COMMITTEE, AMERICAN FLETCHER CORPORATION|U|Q|UNK||C|AMERICAN FLETCHER CORPORATION|39.797402600000005|-86.1365729|46277|INDIANAPOLIS|IN
C00019489|NORTHEAST MISSOURI FARM BUREAU ACTION COMMITTEE|U|N|||M|NONE|39.922732|-92.19521|63451|LEONARD|MO
C00019513|BEARD FOR CONGRESS|P|H||H6RI02029|||41.82769961538462|-71.43406653846154|02903|PROVIDENCE|RI
C00019588|WEST VIRGINIA STATE DEMOCRATIC TELETHON COMMITTEE|U|X|DEM||||38.321258106382984|-81.57999429787233|25311|CHARLESTON|WV
C00019653|FEDERAL CITIZENSHIP RESPONSIBILITY GROUP/THE SOUTHERN CALIFORNIA EDISON COMPANY|U|Q|UNK||C|SOUTHERN CALIFORNIA EDISON CO|33.879777|-118.227358|91770|ROSEMEAD|CA
C00019679|KRAUSE MILLING COMPANY POLITICAL ACTION COMMITTEE|U|N|||C|KRAUSE MILLING COMPANY|43.04538821276595|-87.90733217021277|53201|MILWAUKEE|WI
C00019711|FRIENDS OF MATT MCHUGH (AKA MCHUGH FOR CONGRESS COMMITTEE)|P|H|DEM|H6NY27063|||42.4506555|-76.48830525|14850|ITHACA|NY
C00019752|DEMOCRATIC TELETHON COMMITTEE OF LOUISIANA|U|Y|DEM||||30.475762928571427|-91.10245178571428|70806|BATON ROUGE|LA
C00019968|CITIZENS FOR CONGRESSMAN JOHN M MURPHY|P|H|||||40.586373071428575|-74.14627007142857|10305|STATEN ISLAND|NY
C00019976|COMMITTEE FOR THE SURVIVAL OF A FREE CONGRESS|U|Q|||M|NONE|38.89531540217391|-77.01958254710144|20002|WASHINGTON|DC
C00020008|ELECT RESSEGUIE COMMITTEE|A|H|UNK|H6NY27071|||42.111515600000004|-75.892642|13901|BINGHAMTON|NY
C00020024|SIXTH DISTRICT DEMOCRATIC CLUB|U|X|DEM||||38.788638|-83.550697|45693|WEST UNION|OH
C00020040|LINCOLN CLUBS OF LOS ANGELES COUNTY|U|Y|REP||||33.94396584158416|-118.29928288118809|90015|LOS ANGELES|CA
C00020057|GEORGE HANSEN FOR CONGRESS|P|H||H6ID02027|||42.7974515|-112.40212416666668|83201|POCATELLO|ID
C00020156|SAN FRANCISCO DEMOCRATIC COUNTY CENTRAL COMMITTEE|U|X|DEM||||37.77660142253521|-122.6107330704225|94102|SAN FRANCISCO|CA
C00020180|CMTE TO RE-ELECT T. P. O'NEILL JR TO CONG|P|H|DEM|H6MA08042|||42.34437557407409|-71.0031983888889|02108|BOSTON|MA
C00020206|AMERICAN BOOK PUBLISHERS POLITICAL ACTION COMMITTEE|U|Q|UNK||T|PUBLISHERS; ASS'N OF AMERICAN|38.89531540217391|-77.01958254710144|20036|WASHINGTON|DC
C00020313|PREYER FOR CONGRESS|P|H||H6NC06024|||36.0831189642857|-79.93603567857141|27402|GREENSBORO|NC
C00020438|MANUFACTURERS HANOVER CORPORATION ASSOICIATION FOR RESPONSIBLE GOVERNMENT|U|Q|DEM||C|MANUFACTURERS HANOVER CORPORATION|40.76633930120482|-73.97691936746988|10022|NEW YORK|NY
C00020446|SPORTS AWARD|U|Q|UNK||L|TEAMSTERS LOCAL UNION NO.238|42.057094428571425|-91.64422478571427|52404|CEDAR RAPIDS|IA
C00020453|CASS COUNTY REPUBLICAN CENTRAL COMMITTEE|U|Y|REP|||INDIANA REPUBLICAN STATE CENT CMTE|40.754787|-86.36684|46947|LOGANSPORT|IN
C00020602|CALIFORNIA REPUBLICAN PARTY|U|Y|REP||||36.75393231666668|-119.67922220000001|93703|FRESNO|CA
C00020628|JOSEPH M. TIERNEY FOR CONGRESS COMMITTEE|P|H||H6MA11020|||42.252198|-71.12593|02136|HYDE PARK|MA
C00020818|REPUBLICAN CAMPAIGN COMMITTEE OF NEW MEXICO|U|Y|REP|||RSCC OF NEW MEXICO*|35.07455360000001|-106.63356884444445|87110|ALBUQUERQUE|NM
C00020826|SPECIAL COMMITTEE ON POLITICAL ACTION|U|Q|||L|AUTO WORKERS; UNITED|43.21979855319149|-77.64726129787233|14611|ROCHESTER|NY
C00020925|AMERICAN INTERNATIONAL AUTOMOBILE DEALERS ASSOCIATION|U|Q|||T|IMPORT DEALERS ASS'N; AMERICAN|38.89531540217391|-77.01958254710144|20036|WASHINGTON|DC
C00020941|WILSON FOODS CORPORATION POLITICAL ACTION COMMITTEE WILPAC|U|Q|UNK||C|WILSON FOODS CORPORATION|35.505733112499996|-97.47160356250001|73105|OKLAHOMA CITY|OK
C00020974|PETE STARK REELECTION COMMITTEE|P|H|DEM|H6CA09023|||37.755087999999986|-122.12827513793107|94605|OAKLAND|CA
C00021048|WASHINGTON COUNTY REPUBLICAN COMMITTEE|U|Y|REP|||OKLAHOMA REPUBLICAN STATE COMMITTEE|36.724439749999995|-95.929566|74005|BARTLESVILLE|OK
C00021055|PART IV FREIGHT FORWARDERS POLITICAL ACTION COMMITTEE|U|Q|||T|FREIGHT FORWARDERS INSTITUTE|38.89531540217391|-77.01958254710144|20007|WASHINGTON|DC
C00021071|REPUBLICAN NATIONAL HISPANIC ASSEMBLY|U|Y|REP|||REPUBLICAN NATIONAL COMMITTEE|38.881762|-76.99447|20003|WASHNGTON|DC
C00021089|DAIRYMEN INC-TENNESSEE COMMITTEE FOR POLITICAL ACTION (DI-TCFPA)|U|Q|UNK||V|DAIRYMEN INC|35.598659|-84.46613|37874|SWEETWATER|TN
C00021113|MCDONALD FOR CONGRESS|P|H||H6GA07072|||33.94348485714285|-84.53430707142857|30060|MARIETTA|GA
C00021121|VOICE OF TEACHERS FOR EDUCATION/COMMITTEE ON POLITICAL EDUCATION (VOTE COPE)|U|Q|DEM||L|TEACHERS; AMERICAN FED'N OF|42.62976221568628|-73.92296152941177|12212|ALBANY|NY
C00021220|POLITICAL ACTION COMMITTEE OF NATCHITOCHES AREA|U|N|||M|NONE|31.748804333333336|-93.08277333333332|71457|NATCHITOCHES|LA
C00021261|NASSAU COUNTY REPUBLICAN FEDERAL CAMPAIGN COMMITTEE|U|X|REP||||40.750132|-73.61328|11514|CARLE PLACE|NY
C00021295|BRACEWELL & PATTERSON POLITICAL ACTION COMMITTEEY|U|Q|||C|BRACEWELL & PATTERSON|38.89531540217391|-77.01958254710144|20006|WASHINGTON|DC
C00021337|BILL PAUL FOR CONGRESS COMMITTEE|P|H||H6HI01048|||23.99200566666667|-165.5305597777778|96821|HONOLULU|HI
C00021386|BURCHAM FOR CONGRESS|P|H|UNK|H6MD05065|||38.898827999999995|-76.86552649999999|20801|LANHAM|MD
C00021428|COMMITTEE TO RE ELECT CONGRESMAN LAGOMARSINO|P|H||H6CA19022|||34.168066375|-119.172226|93006|VENTURA|CA
C00021436|ALEXANDRIA REPUBLICAN CAMPAIGN FUND|U|X|REP|||ALEXANDRIA REPUBLICAN CMTE (LOCAL)|38.79919622727272|-77.09773936363636|22304|ALEXANDRIA|VA
C00021527|WESTSIDE UNITED DEMOCRATIC CAMPAIGN|U|Y|DEM||||33.94396584158416|-118.29928288118809|90025|LOS ANGELES|CA
C00021535|WESTERN DOW EMPLOYEES COMMITTEE FOR FREE ENTERPRISE|U|Q|||C|DOW CHEMICAL U S A|38.017917|-121.90502|94565|PITTSBURG|CA
C00021550|REPUBLICAN CLUB OF LEISURE WORLD|U|Y|REP|||CARL W DOWLING|33.59255733333333|-117.70933600000001|92653|LAGUNA HILLS|CA
C00021642|BOB TRAXLER FOR CONGRESS COMMITTEE|P|H||H6MI08064|||43.64288133333333|-83.909409|48707|BAY CITY|MI
C00021691|LYNCHBURG REPUBLICAN CITY COMMITTEE|U|Y|REP|||REPUBLICAN PARTY OF VIRGINIA|37.366605899999996|-79.1651669|24505|LYNCHBURG|VA
C00021733|ENGLISH FOR CONGRESS COMMITTEE|P|H||H6OK06036|||35.283812|-98.94987|73632|CORDELL|OK
C00021782|TAXPAYERS ACTION FUND|U|Q|UNK||M|NONE|38.89531540217391|-77.01958254710144|20003|WASHINGTON|DC
C00021824|2ND DISTRICT CONGRESSIONAL DEMOCRATIC COMMITTEE-IOWA*|U|Y|DEM||||42.491041599999996|-90.7453364|52001|DUBUQUE|IA
C00021832|U.S. LABOR PARTY|U|X|LAB||||40.76633930120482|-73.97691936746988|10001|NEW YORK|NY
C00021899|BLACK VOTERS FOR REPUBLICAN CONGRESS|U|Y|REP|||BLACK SILENT MAJORITY COMMITTEE|29.463401422222216|-98.49665103333332|78201|SAN ANTONIO|TX
C00021907|WILL-GRUNDY POLITICAL INFORMATION COMMITTEE|U|N|UNK||M|NONE|41.524499166666665|-88.10208133333333|60435|JOLIET|IL
C00021931|VIRGINIA POLITICAL ACTION COMMITTEE V-PAC|U|Q|UNK||L|BLANK|36.678507|-78.08098|23950|LACROSSE|VA
C00021972|PHARMACEUTICAL MANUFACTURERS ASSOCIATION BETTER GOVERNMENT COMMITTEE|U|Q|||T|PHARMACEUTICAL MANUFACTURERS ASS'N|38.89531540217391|-77.01958254710144|20005|WASHINGTON|DC
C00022038|RAILWAY CARMEN POLITICAL LEAGUE|U|Q|||L|RAILWAY CARMEN; BROTHERHOOD OF|39.095393654320986|-94.49784748148147|64112|KANSAS CITY|MO
C00022053|CONNA CORP POLITICAL ACTION COMMITTEE (CONNA PAC)|U|Q|||M|CONNA CORPORATION|38.20007860606061|-85.68525571212122|40203|LOUISVILLE|KY
C00022087|UDALL FOR CONGRESS COMMITTEE - 1982|P|H|DEM|H6AZ02049|||32.15193782692308|-111.18440194230767|85702|TUCSON|AZ
C00022178|GROUP PRACTICE POLITICAL ACTION COMMITTEE|U|Q|||T|GROUP PRACTICE ASS'N; AMERICAN|38.79919622727272|-77.09773936363636|22314|ALEXANDRIA|VA
C00022194|ICG GOOD GOVERNMENT FUND|U|Q|NNE||C|IC INDUSTRIES INC|41.85168971764706|-87.67981902352942|60601|CHICAGO|IL
C00022251|NEW JERSEY EDUCATION ASSOCIATION POLITICAL ACTION COMMITTEE*|U|Q|||L|EDUCATION ASS'N; NEW JERSEY|40.237610533333346|-74.7117864|08607|TRENTON|NJ
C00022327|HARRISON COUNTY AMERICAN FEDERATION OF TEACHERS AFL-CIO,LOCAL 3261|U|Q|||L|TEACHERS; AMERICAN FED'N OF|30.419125333333337|-88.99827233333333|39532|BILOXI|MS
C00022335|MIFFLIN COUNTY DEMOCRATIC COMMITTEE|U|X|DEM||||40.595359|-77.5774|17044|LEWISTOWN|PA
C00022343|INDEPENDENT INSURANCE AGENTS OF AMERICA, INC POLITICAL ACTION COMMITTEE (NAPAC)|U|Q|||T|INSURANCE AGENTS OF AMERICA; INDEPNDNT|38.89531540217391|-77.01958254710144|20003|WASHINGTON|DC
C00022368|NATIONAL ASSOCIATION OF CHAIN DRUG STORES, INC. POLITICAL ACTION COMMITTEE|U|Q|UNK||T|DRUG STORES; NAT'L ASS'N OF CHAIN|38.79919622727272|-77.09773936363636|22313|ALEXANDRIA|VA
C00022384|NORTH SHORE REPUBLICAN CLUB|U|Y|REP|||REPUBLICAN PARTY OF WISCONSIN|43.14351|-87.90894|53217|FOX POINT|WI
C00022400|DISTRICT 1199 POLITICAL ACTION FUND/RETAIL, WHOLESALE & DEPARTMENT STORE UNION|U|Q|UNK||L|RETAIL WHOLESALE DEP'T STORE UNION|40.76633930120482|-73.97691936746988|10036|NEW YORK|NY
C00022517|DEMOCRATIC PARTY OF NEZPERCE COUNTY|U|Y|DEM|||IDAHO STATE DEMOCRATIC CENTRAL CMTE|46.388753|-116.98484|83501|LEWISTON|ID
C00022640|CONSTRUCTION INDUSTRY POLITICAL ACTION COMMITTEE|U|Q|UNK||M|BLANK|32.8892876|-96.7328704|75080|RICHARDSON|TX
C00022699|KIRBY FOREST INDUSTRIES INC POLITICAL ACTION COMM|U|Q|UNK||C|SANTA FE INDUSTRIES|29.799726263736265|-95.41993828571431|77001|HOUSTON|TX
C00022707|VERMONT EDUCATIONAL POLITICAL ACTION COMMITTEE|U|N|||T|MEDICAL SOCIETY; VERMONT STATE|44.494999|-73.18259|05404|WINOOSKI|VT
C00022756|NORTH PACIFIC DAIRYMENS COOPERATIVE TRUST|U|Q|UNK||V|DAIRYMEN'S ASSOCIATION; NORTHWEST|47.53192905084746|-122.12633125423729|98109|SEATTLE|WA
C00022798|PRODUCERS COTTON OIL COMPANY GOOD GOVERNMENT COMMITTEE|U|Q|UNK||C|PRODUCERS COTTON OIL COMPANY|36.75393231666668|-119.67922220000001|93717|FRESNO|CA
C00022814|DRB POLITICAL FUND B|U|N|||T|DOHERTY, RUMBLE & BUTLER|44.964852|-93.08397|55101|ST. PAUL|MN
C00022848|DRB POLITICAL FUND C|U|N|UNK||T|DOHERTY, RUMBLE & BUTLER|44.97092558823529|-93.10272325490196|55101|SAINT PAUL|MN
C00022855|NATIONAL RIGHT TO WORK COMMITTEE (NRWC)-EMPLOYEE RIGHTS CAMPAIGN COMMITTEE (ERCC)|U|Q|REP||T|RIGHT TO WORK COMMITTEE; NATIONAL|38.80418333333333|-77.24831822222221|22160|SPRINGFIELD|VA
C00022988|NURSERY INDUSTRY POLITICAL ACTION COMMITTEE|U|Q|UNK||T|NURSERYMEN; AMERICAN ASSOCIATION OF|38.89531540217391|-77.01958254710144|20005|WASHINGTON|DC
C00022996|PUBLIC INTEREST COMMITTEE OF THE QUAKER OATS COMPANY; THE|U|Q|UNK||C|QUAKER OATS CO|41.85168971764706|-87.67981902352942|60654|CHICAGO|IL
C00023010|TOLEDO AREA AFL-CIO COUNCIL|U|Q|||L|AFL-CIO|41.6749844857143|-83.52541554285715|43624|TOLEDO|OH
C00023028|NATIONAL COTTON COUNCIL COMMITTEE FOR THE ADVANCEMENT OF COTTON|U|Q|UNK||T|COTTON COUNCIL OF AMERICA; NAT'L|35.16473077142859|-89.95803939999998|38112|MEMPHIS|TN
C00023085|IBEW LOCAL 1362 POLITCAL ACTION COMMITTEE|U|Q|UNK||L|ELECTRICAL WORKERS; INT'L BROTH'D OF|42.057094428571425|-91.64422478571427|52402|CEDAR RAPIDS|IA
C00023093|VALPAC|U|Q|REP||M|NONE|41.83345371428572|-88.27595714285714|60507|AURORA|IL
C00023143|COMMITTEE TO ELECT SAMUEL D. WRIGHT, ET AL|P|H|UNK|H6NY12073|||40.65091198076924|-73.95300596153847|11233|BROOKLYN|NY
C00023184|CITIZENS FOR SPELLMAN|P|H||H6MD05040|||38.98543885714286|-76.85731557142857|20811|LAUREL|MD
C00023192|HARRAH'S  POLITICAL ACTION COMMITTEE|U|Q|REP||C|HOLIDAY INNS INC|39.910358454545445|-119.7081178181818|89501|RENO|NV
C00023234|POLITICAL ACTION COMMITTEE OF CENTRAL FLORIDA|U|N|||M|NONE|28.520516629032265|-81.28818522580643|32803|ORLANDO|FL
C00023259|AMERICAN EXPORT LINES POLITICAL ACTION COMMITTEE|U|N|||C|FARRELL LINES|38.89531540217391|-77.01958254710144|20007|WASHINGTON|DC
C00023440|FIRST NATIONAL BANK OF PENNSYLVANIA POLITICAL ACTION COMMITTEE (FIRST PAC); THE|U|Q|||C|FIRST NATIONAL BANK OF PENNSYLVANIA|42.151732899999985|-80.07632549999998|16566|ERIE|PA
C00023473|FRANKLIN COUNTY POLITICAL ACTION COMMITTEE VOLUNTARY FUND|U|Q|||L|AFL-CIO|39.98950240816327|-82.9981626734694|43205|COLUMBUS|OH
C00023580|COMMITTEE ON LETTER CARRIERS POLITICAL EDUCATION (LETTER CARRIERS POLITICAL ACTION FUND)|U|Q|UNK||L|LETTER CARRIERS OF USA; NAT'L ASS'N OF|38.89531540217391|-77.01958254710144|20001|WASHINGTON|DC
C00023754|POLITICAL ACTION COUNCIL OF EDUCATORS|U|Q|UNK||L|TEACHERS-LOS ANGELES; UNITED|33.94396584158416|-118.29928288118809|90057|LOS ANGELES|CA
C00023838|CONNECTICUT REPUBLICAN FEDERAL CAMPAIGN COMMITTEE|U|Y|REP||||41.786130416666666|-72.70431316666667|06103|HARTFORD|CT
C00023887|WYOMING DENTAL POLITICAL ACTION COMMITTEE|U|Q|||T|DENTAL ASSOCIATION; AMERICAN|42.87774939999999|-106.4548814|82601|CASPER|WY
C00023895|UNITED FOOD & COMMERCIAL WORKERS UNION LOCAL 428 ACTIVE BALLOT CLUB|U|Q|||L|FOOD & COMMERCIAL WRKRS INT'L UNION;UN|37.24389375806454|-121.78056964516126|95113|SAN JOSE|CA
C00023903|CHIROPRACTIC POLITICAL ACTION COMMITTEE OF OREGON|U|Q|UNK||T|NONE|45.003489|-122.78012|97381|SILVERTON|OR
C00024075|4TH CONGRESSIONAL DISTRICT REPUBLICAN COMMITTEE|U|X|REP||||38.999563|-94.30888166666666|64015|BLUE SPRINGS|MO
C00024232|DENNIS O'BLOCK FOR CONGRESS|A|H||H6CA27066|||33.921313|-118.40843|90245|EL SEGUNDO|CA
